time,sim_t,x,y,z,vx,vy,vz,roll_deg,pitch_deg,yaw_deg
2026-06-27T13:16:13.750926,1782576957.2196276,0.0,0.0,2.038154363632202,0.0,0.0,0.0,0.0,0.0,0.0003895640909249624
2026-06-27T13:16:13.857654,1782576957.3246298,0.0,0.0,2.038154363632202,0.0,0.0,0.0,0.0,0.0,0.0003895640909249624
2026-06-27T13:16:13.966872,1782576957.432632,0.0,0.0,2.038154363632202,0.0,0.0,0.0,0.0,0.0,0.0003895640909249624
2026-06-27T13:16:14.075292,1782576957.5406344,0.0,0.0,2.038154363632202,0.0,0.0,0.0,0.0,0.0,0.0003895640909249624
2026-06-27T13:16:14.184041,1782576957.6486366,0.0,0.0,2.038154363632202,0.0,0.0,0.0,0.0,0.0,0.0003895640909249624
2026-06-27T13:16:14.292753,1782576957.750639,0.0,0.0,2.038154363632202,0.0,0.0,0.0,0.0,0.0,0.0003895640909249624
2026-06-27T13:16:14.408993,1782576957.8496408,0.0,0.0,2.038154363632202,0.0,0.0,0.0,0.0,0.0,0.0003895640909249624
2026-06-27T13:16:14.514350,1782576957.9516432,0.0,0.0,2.038154363632202,0.0,0.0,0.0,0.0,0.0,0.0003895640909249624
2026-06-27T13:16:14.620126,1782576958.047645,0.0,0.0,2.038154363632202,0.0,0.0,0.0,0.0,0.0,0.0003895640909249624
2026-06-27T13:16:14.728864,1782576958.1496475,0.0,0.0,2.038154363632202,0.0,0.0,0.0,0.0,0.0,0.0003895640909249624
2026-06-27T13:16:14.837515,1782576958.2516496,0.0,0.0,2.038154363632202,0.0,0.0,0.0,0.0,0.0,0.0003895640909249624
2026-06-27T13:16:14.947768,1782576958.3596518,0.0,0.0,2.038154363632202,0.0,0.0,0.0,0.0,0.0,0.0003895640909249624
2026-06-27T13:16:15.055274,1782576958.461654,0.0,0.0,2.038154363632202,0.0,0.0,0.0,0.0,0.0,0.0003895640909249624
2026-06-27T13:16:15.165112,1782576958.5666564,0.0,0.0,2.038031578063965,0.0,0.0,-0.037368033081293106,0.0,0.0,0.0003895640909249624
2026-06-27T13:16:15.274348,1782576958.6686585,0.0,0.0,2.011202573776245,0.0,0.0,-0.38701117038726807,0.0,0.0,0.0003895640909249624
2026-06-27T13:16:15.381912,1782576958.7616603,0.0,0.0,1.972338080406189,0.0,0.0,-0.43566954135894775,0.0,0.0,0.0003895640909249624
2026-06-27T13:16:15.491237,1782576958.8666627,0.0,0.0,1.9258232116699219,0.0,0.0,-0.4480080306529999,0.0,0.0,0.0003895640909249624
2026-06-27T13:16:15.603400,1782576958.971665,0.0,0.0,1.8784505128860474,0.0,0.0,-0.4539579749107361,0.0,0.0,0.0003895640909249624
2026-06-27T13:16:15.710137,1782576959.070667,0.0,0.0,1.8332806825637817,0.0,0.0,-0.45843505859375,0.0,0.0,0.0003895640909249624
2026-06-27T13:16:15.818864,1782576959.1726692,0.0,0.0,1.7863081693649292,0.0,0.0,-0.4625020921230316,0.0,0.0,0.0003895640909249624
2026-06-27T13:16:15.927054,1782576959.2776713,0.0,0.0,1.7375447750091553,0.0,0.0,-0.4662322402000427,0.0,0.0,0.0003895640909249624
2026-06-27T13:16:16.036835,1782576959.3826737,0.0,0.0,1.6884112358093262,0.0,0.0,-0.4695565700531006,0.0,0.0,0.0003895640909249624
2026-06-27T13:16:16.145367,1782576959.487676,0.0,0.0,1.6389482021331787,0.0,0.0,-0.47252020239830017,0.0,0.0,0.0003895640909249624
2026-06-27T13:16:16.256589,1782576959.592678,0.0,0.0,1.5891910791397095,0.0,0.0,-0.4751623272895813,0.0,0.0,0.0003895640909249624
2026-06-27T13:16:16.362969,1782576959.6976805,0.0,0.0,1.539171814918518,0.0,0.0,-0.47751784324645996,0.0,0.0,0.0003895640909249624
2026-06-27T13:16:16.471205,1782576959.8026826,0.0,0.0,1.4889189004898071,0.0,0.0,-0.4796179234981537,0.0,0.0,0.0003895640909249624
2026-06-27T13:16:16.583144,1782576959.9106848,0.0,0.0,1.4370133876800537,0.0,0.0,-0.4815406799316406,0.0,0.0,0.0003895640909249624
2026-06-27T13:16:16.687871,1782576960.0126872,0.0,0.0,1.3878109455108643,0.0,0.0,-0.483159601688385,0.0,0.0,0.0003895640909249624
2026-06-27T13:16:16.799450,1782576960.108689,0.0,0.0,1.3413599729537964,0.0,0.0,-0.4845268726348877,0.0,0.0,0.0003895640909249624
2026-06-27T13:16:16.907199,1782576960.2076912,0.0,0.0,1.2933274507522583,0.0,0.0,-0.4857942759990692,0.0,0.0,0.0003895640909249624
2026-06-27T13:16:17.015454,1782576960.3126936,0.0,0.0,1.2422534227371216,0.0,0.0,-0.4869967997074127,0.0,0.0,0.0003895640909249624
2026-06-27T13:16:17.124661,1782576960.4206958,0.0,0.0,1.1895960569381714,0.0,0.0,-0.4880978763103485,0.0,0.0,0.0003895640909249624
2026-06-27T13:16:17.233361,1782576960.522698,0.0,0.0,1.1397608518600464,0.0,0.0,-0.4890249967575073,0.0,0.0,0.0003895640909249624
2026-06-27T13:16:17.342486,1782576960.6277003,0.0,0.0,1.0883665084838867,0.0,0.0,-0.48987728357315063,0.0,0.0,0.0003895640909249624
2026-06-27T13:16:17.451203,1782576960.7297025,0.0,0.0,1.0383594036102295,0.0,0.0,-0.49061667919158936,0.0,0.0,0.0003895640909249624
2026-06-27T13:16:17.561451,1782576960.8317046,0.0,0.0,0.9882813692092896,0.0,0.0,-0.4912780523300171,0.0,0.0,0.0003895640909249624
2026-06-27T13:16:17.669610,1782576960.9337068,0.0,0.0,0.9381392002105713,0.0,0.0,-0.49186962842941284,0.0,0.0,0.0003895640909249624
2026-06-27T13:16:17.777510,1782576961.0297089,0.0,0.0,0.89089435338974,0.0,0.0,-0.49236932396888733,0.0,0.0,0.0003895640909249624
2026-06-27T13:16:17.887218,1782576961.131711,0.0,0.0,0.8406468033790588,0.0,0.0,-0.492845743894577,0.0,0.0,0.0003895640909249624
2026-06-27T13:16:17.996434,1782576961.2337132,0.0,0.0,0.7903532981872559,0.0,0.0,-0.49327200651168823,0.0,0.0,0.0003895640909249624
2026-06-27T13:16:18.107668,1782576961.3327153,0.0,0.0,0.741499662399292,0.0,0.0,-0.493642657995224,0.0,0.0,0.0003895640909249624
2026-06-27T13:16:18.213069,1782576961.422717,0.0,0.0,0.6970572471618652,0.0,0.0,-0.4939464032649994,0.0,0.0,0.0003895640909249624
2026-06-27T13:16:18.322309,1782576961.5247195,0.0,0.0,0.6466575264930725,0.0,0.0,-0.4942566156387329,0.0,0.0,0.0003895640909249624
2026-06-27T13:16:18.431190,1782576961.6297216,0.0,0.0,0.5947443246841431,0.0,0.0,-0.494541734457016,0.0,0.0,0.0003895640909249624
2026-06-27T13:16:18.541426,1782576961.7287238,0.0,0.0,0.5457715392112732,0.0,0.0,-0.49478214979171753,0.0,0.0,0.0003895640909249624
2026-06-27T13:16:18.649142,1782576961.827726,0.0,0.0,0.5058556795120239,0.0,0.0,-0.19910863041877747,0.0,0.0,0.0003895640909249624
2026-06-27T13:16:18.757673,1782576961.929728,0.0,0.0,0.499708890914917,0.0,0.0,0.010323802009224892,0.0,0.0,0.0003895640909249624
2026-06-27T13:16:18.866450,1782576962.0317302,0.0,0.0,0.4873011112213135,0.0,0.0,-0.4193558096885681,0.0,0.0,0.0003678729506640729
2026-06-27T13:16:18.975685,1782576962.1367323,0.0,0.0,0.4065873920917511,0.0,0.0,-1.1155509948730469,0.0,0.0,0.00027501347211148256
2026-06-27T13:16:19.084617,1782576962.2387345,0.0,0.0,0.25911515951156616,0.0,0.0,-1.7717258930206299,0.0,0.0,0.0001542058690589696
2026-06-27T13:16:19.194337,1782576962.346737,0.0,0.0,0.031698934733867645,0.0,0.0,-2.4329354763031006,0.0,0.0,3.234080984264499e-05
2026-06-27T13:16:19.303056,1782576962.451739,0.0,0.0,-0.25568270683288574,0.0,0.0,-3.033230781555176,0.0,0.0,-5.542517272163131e-05
2026-06-27T13:16:19.412318,1782576962.5567415,0.0,0.0,-0.6035890579223633,0.0,0.0,-3.5848937034606934,0.0,0.0,-0.00010288339814302938
2026-06-27T13:16:19.521029,1782576962.634743,0.0,0.0,-0.8980711698532104,0.0,0.0,-3.960843086242676,0.0,0.0,-0.00011275854309134451
2026-06-27T13:16:19.627723,1782576962.736745,0.0,0.0,-1.325309157371521,0.0,0.0,-4.407703399658203,0.0,0.0,-0.00010083155870692039
2026-06-27T13:16:19.737100,1782576962.8387475,0.0,0.0,-1.7955493927001953,0.0,0.0,-4.804200172424316,0.0,0.0,-7.097044893298492e-05
2026-06-27T13:16:19.845426,1782576962.9377494,0.0,0.0,-2.2880163192749023,0.0,0.0,-5.117053508758545,0.0,0.0,-3.641928365867306e-05
2026-06-27T13:16:19.953870,1782576963.0397518,0.0,0.0,-2.8141183853149414,0.0,0.0,-5.172008991241455,0.0,0.0,-4.279080203562591e-06
2026-06-27T13:16:20.063106,1782576963.1357536,0.0,0.0,-3.310260057449341,0.0,0.0,-5.161843299865723,0.0,0.0,1.740552595432573e-05
2026-06-27T13:16:20.171854,1782576963.240756,0.0,0.0,-3.851400136947632,0.0,0.0,-5.145336627960205,0.0,0.0,2.9832211406733775e-05
2026-06-27T13:16:20.282095,1782576963.3457582,0.0,0.0,-4.390842914581299,0.0,0.0,-5.129787921905518,0.0,0.0,3.1585605911526204e-05
2026-06-27T13:16:20.389160,1782576963.4477603,0.0,0.0,-4.913383960723877,0.0,0.0,-5.116117477416992,0.0,0.0,2.5944172717036553e-05
2026-06-27T13:16:20.497806,1782576963.5527625,0.0,0.0,-5.449910640716553,0.0,0.0,-5.103435516357422,0.0,0.0,1.6178565054190365e-05
2026-06-27T13:16:20.607112,1782576963.654765,0.0,0.0,-5.969897747039795,0.0,0.0,-5.092336654663086,0.0,0.0,6.185580605833188e-06
2026-06-27T13:16:20.717333,1782576963.762767,0.0,0.0,-6.51930046081543,0.0,0.0,-5.0817670822143555,0.0,0.0,-2.3863936881622827e-06
2026-06-27T13:16:20.825075,1782576963.8677692,0.0,0.0,-7.052404403686523,0.0,0.0,-5.07253885269165,0.0,0.0,-7.959487398321443e-06
2026-06-27T13:16:20.932833,1782576963.9727716,0.0,0.0,-7.584590435028076,0.0,0.0,-5.064239025115967,0.0,0.0,-1.1597093385287561e-05
2026-06-27T13:16:21.043032,1782576964.0777738,0.0,0.0,-8.115947723388672,0.0,0.0,-5.05677604675293,0.0,0.0,-1.3968146113221519e-05
2026-06-27T13:16:21.151336,1782576964.1857762,0.0,0.0,-8.661711692810059,0.0,0.0,-5.049882411956787,0.0,0.0,-1.2254041076742732e-05
2026-06-27T13:16:21.260053,1782576964.2937784,0.0,0.0,-9.206769943237305,0.0,0.0,-5.043703079223633,0.0,0.0,-9.870735121954043e-06
2026-06-27T13:16:21.369290,1782576964.4017808,0.0,0.0,-9.751197814941406,0.0,0.0,-5.038161754608154,0.0,0.0,-8.250540822333046e-06
2026-06-27T13:16:21.477462,1782576964.506783,0.0,0.0,-10.27995777130127,0.0,0.0,-5.0333251953125,0.0,0.0,-7.280707158199717e-06
2026-06-27T13:16:21.587790,1782576964.6147852,0.0,0.0,-10.823323249816895,0.0,0.0,-5.028858661651611,0.0,0.0,-6.611977674426916e-06
2026-06-27T13:16:21.697507,1782576964.7227876,0.0,0.0,-11.366230964660645,0.0,0.0,-5.0248541831970215,0.0,0.0,-5.943517698135606e-06
2026-06-27T13:16:21.804682,1782576964.8247898,0.0,0.0,-11.87860107421875,0.0,0.0,-5.021453857421875,0.0,0.0,-5.312194387193813e-06
2026-06-27T13:16:21.913510,1782576964.929792,0.0,0.0,-12.405696868896484,0.0,0.0,-5.018301010131836,0.0,0.0,-4.662302743577262e-06
2026-06-27T13:16:22.022116,1782576965.0347943,0.0,0.0,-12.932476997375488,0.0,0.0,-5.015466213226318,0.0,0.0,-4.012411099960711e-06
2026-06-27T13:16:22.133195,1782576965.1427965,0.0,0.0,-13.474016189575195,0.0,0.0,-5.012847900390625,0.0,0.0,-3.3439503094474046e-06
2026-06-27T13:16:22.239736,1782576965.2477987,0.0,0.0,-14.000252723693848,0.0,0.0,-5.010563373565674,0.0,0.0,-2.694051541388369e-06
2026-06-27T13:16:22.350486,1782576965.352801,0.0,0.0,-14.526264190673828,0.0,0.0,-5.008508682250977,0.0,0.0,-2.044152773329333e-06
2026-06-27T13:16:22.456806,1782576965.4548032,0.0,0.0,-15.03704833984375,0.0,0.0,-5.006711483001709,0.0,0.0,-1.412824169944553e-06
2026-06-27T13:16:22.567088,1782576965.5628054,0.0,0.0,-15.577691078186035,0.0,0.0,-5.005000114440918,0.0,0.0,-7.443605296542528e-07
2026-06-27T13:16:22.675842,1782576965.6648078,0.0,0.0,-16.088132858276367,0.0,0.0,-5.003547191619873,0.0,0.0,-1.1303368193565702e-07
2026-06-27T13:16:22.784380,1782576965.76981,0.0,0.0,-16.613445281982422,0.0,0.0,-5.002199649810791,0.0,0.0,4.569454566427476e-07
2026-06-27T13:16:22.892638,1782576965.8778121,0.0,0.0,-17.15362548828125,0.0,0.0,-5.000955581665039,0.0,0.0,7.589239078741124e-07
2026-06-27T13:16:23.001979,1782576965.9828146,0.0,0.0,-17.678680419921875,0.0,0.0,-4.9998698234558105,0.0,0.0,8.905732236937507e-07
2026-06-27T13:16:23.110780,1782576966.0878167,0.0,0.0,-18.203624725341797,0.0,0.0,-4.9988932609558105,0.0,0.0,9.678693535620478e-07
2026-06-27T13:16:23.221477,1782576966.195819,0.0,0.0,-18.743467330932617,0.0,0.0,-4.997992038726807,0.0,0.0,1.0163770362309834e-06
2026-06-27T13:16:23.327779,1782576966.2978213,0.0,0.0,-19.253231048583984,0.0,0.0,-4.997226715087891,0.0,0.0,1.02155813436265e-06
2026-06-27T13:16:23.436539,1782576966.4058235,0.0,0.0,-19.79290199279785,0.0,0.0,-4.99649715423584,0.0,0.0,1.0119438010048973e-06
2026-06-27T13:16:23.545263,1782576966.5108256,0.0,0.0,-20.3175106048584,0.0,0.0,-4.995860576629639,0.0,0.0,1.0025965324626378e-06
2026-06-27T13:16:23.654517,1782576966.6098278,0.0,0.0,-20.812084197998047,0.0,0.0,-4.995319843292236,0.0,0.0,9.937833935513646e-07
2026-06-27T13:16:23.763777,1782576966.7088299,0.0,0.0,-21.306612014770508,0.0,0.0,-4.994830131530762,0.0,0.0,9.849702546400913e-07
2026-06-27T13:16:23.873528,1782576966.810832,0.0,0.0,-21.816072463989258,0.0,0.0,-4.9943742752075195,0.0,0.0,9.75890050913325e-07
2026-06-27T13:16:23.982311,1782576966.9128344,0.0,0.0,-22.325481414794922,0.0,0.0,-4.993963718414307,0.0,0.0,9.668098471865586e-07
2026-06-27T13:16:24.090020,1782576967.0118365,0.0,0.0,-22.819887161254883,0.0,0.0,-4.993603229522705,0.0,0.0,9.579967082752854e-07
2026-06-27T13:16:24.197849,1782576967.1168387,0.0,0.0,-23.34419822692871,0.0,0.0,-4.993257999420166,0.0,0.0,9.486494397330259e-07
2026-06-27T13:16:24.307615,1782576967.2218409,0.0,0.0,-23.868494033813477,0.0,0.0,-4.992948055267334,0.0,0.0,9.393021711907664e-07
2026-06-27T13:16:24.416861,1782576967.3298433,0.0,0.0,-24.407716751098633,0.0,0.0,-4.992661952972412,0.0,0.0,9.296878378330137e-07
2026-06-27T13:16:24.525606,1782576967.4318454,0.0,0.0,-24.916982650756836,0.0,0.0,-4.99241828918457,0.0,0.0,9.206076341062473e-07
2026-06-27T13:16:24.637521,1782576967.5218472,0.0,0.0,-25.366289138793945,0.0,0.0,-4.992224216461182,0.0,0.0,9.125956896414535e-07
2026-06-27T13:16:24.743300,1782576967.6148493,0.0,0.0,-25.8305606842041,0.0,0.0,-4.992040634155273,0.0,0.0,9.043166803611665e-07
2026-06-27T13:16:24.852999,1782576967.7198515,0.0,0.0,-26.354738235473633,0.0,0.0,-4.991852283477783,0.0,0.0,8.94969411818907e-07
2026-06-27T13:16:24.961630,1782576967.8248537,0.0,0.0,-26.878890991210938,0.0,0.0,-4.991683006286621,0.0,0.0,8.856221432766475e-07
2026-06-27T13:16:25.070368,1782576967.9238558,0.0,0.0,-27.3730525970459,0.0,0.0,-4.991540431976318,0.0,0.0,8.768090043653743e-07
2026-06-27T13:16:25.181637,1782576968.0288582,0.0,0.0,-27.89716339111328,0.0,0.0,-4.991403102874756,0.0,0.0,8.674617358231148e-07
2026-06-27T13:16:25.289527,1782576968.1308603,0.0,0.0,-28.406299591064453,0.0,0.0,-4.991283893585205,0.0,0.0,8.583815320963484e-07
2026-06-27T13:16:25.395202,1782576968.2328625,0.0,0.0,-28.915435791015625,0.0,0.0,-4.99117374420166,0.0,0.0,8.493013283695821e-07
2026-06-27T13:16:25.503908,1782576968.3348646,0.0,0.0,-29.424551010131836,0.0,0.0,-4.991076469421387,0.0,0.0,8.402211246428156e-07
2026-06-27T13:16:25.612897,1782576968.4398668,0.0,0.0,-29.94859504699707,0.0,0.0,-4.990986347198486,0.0,0.0,8.308738561005561e-07
2026-06-27T13:16:25.721979,1782576968.5448692,0.0,0.0,-30.472639083862305,0.0,0.0,-4.990902900695801,0.0,0.0,8.215265875582967e-07
2026-06-27T13:16:25.831229,1782576968.6498713,0.0,0.0,-30.99668312072754,0.0,0.0,-4.990829944610596,0.0,0.0,8.121793190160372e-07
2026-06-27T13:16:25.941291,1782576968.7518735,0.0,0.0,-31.505754470825195,0.0,0.0,-4.99076509475708,0.0,0.0,8.030991152892708e-07
2026-06-27T13:16:26.047496,1782576968.8538756,0.0,0.0,-32.01482391357422,0.0,0.0,-4.9907050132751465,0.0,0.0,7.940189115625044e-07
2026-06-27T13:16:26.157794,1782576968.958878,0.0,0.0,-32.53886795043945,0.0,0.0,-4.990653038024902,0.0,0.0,7.84671643020245e-07
2026-06-27T13:16:26.266571,1782576969.0638802,0.0,0.0,-33.06291198730469,0.0,0.0,-4.990602970123291,0.0,0.0,7.753243744779854e-07
2026-06-27T13:16:26.375227,1782576969.1658823,0.0,0.0,-33.571983337402344,0.0,0.0,-4.990559101104736,0.0,0.0,7.66244170751219e-07
2026-06-27T13:16:26.484411,1782576969.2708845,0.0,0.0,-34.09602737426758,0.0,0.0,-4.990522384643555,0.0,0.0,7.568969022089595e-07
2026-06-27T13:16:26.592773,1782576969.3698866,0.0,0.0,-34.590126037597656,0.0,0.0,-4.990489959716797,0.0,0.0,7.480837632976863e-07
2026-06-27T13:16:26.702564,1782576969.4718888,0.0,0.0,-35.09919738769531,0.0,0.0,-4.990457534790039,0.0,0.0,7.390035595709199e-07
2026-06-27T13:16:26.811249,1782576969.5768912,0.0,0.0,-35.62324142456055,0.0,0.0,-4.990424156188965,0.0,0.0,7.296562910286604e-07
2026-06-27T13:16:26.919999,1782576969.6818933,0.0,0.0,-36.14728546142578,0.0,0.0,-4.99039888381958,0.0,0.0,7.20309022486401e-07
2026-06-27T13:16:27.028558,1782576969.7898958,0.0,0.0,-36.686302185058594,0.0,0.0,-4.9903764724731445,0.0,0.0,7.106946891286484e-07
2026-06-27T13:16:27.137085,1782576969.891898,0.0,0.0,-37.19537353515625,0.0,0.0,-4.990355968475342,0.0,0.0,7.016144854018819e-07
2026-06-27T13:16:27.245833,1782576969.9909,0.0,0.0,-37.68947219848633,0.0,0.0,-4.9903388023376465,0.0,0.0,6.928013464906087e-07
2026-06-27T13:16:27.354881,1782576970.0959022,0.0,0.0,-38.21351623535156,0.0,0.0,-4.990321636199951,0.0,0.0,6.834540779483492e-07
2026-06-27T13:16:27.463174,1782576970.2009044,0.0,0.0,-38.7375602722168,0.0,0.0,-4.990304946899414,0.0,0.0,6.741068094060897e-07
2026-06-27T13:16:27.572442,1782576970.3029065,0.0,0.0,-39.24663162231445,0.0,0.0,-4.990288734436035,0.0,0.0,6.650266056793233e-07
2026-06-27T13:16:27.681668,1782576970.404909,0.0,0.0,-39.75570297241211,0.0,0.0,-4.990272521972656,0.0,0.0,6.55946401952557e-07
2026-06-27T13:16:27.790380,1782576970.506911,0.0,0.0,-40.264774322509766,0.0,0.0,-4.990261077880859,0.0,0.0,6.468661982257906e-07
2026-06-27T13:16:27.902000,1782576970.6149132,0.0,0.0,-40.80379104614258,0.0,0.0,-4.9902496337890625,0.0,0.0,6.37251864868038e-07
2026-06-27T13:16:28.007775,1782576970.7199156,0.0,0.0,-41.32783508300781,0.0,0.0,-4.99023962020874,0.0,0.0,6.279045963257784e-07
2026-06-27T13:16:28.116985,1782576970.8249178,0.0,0.0,-41.85187911987305,0.0,0.0,-4.990231513977051,0.0,0.0,6.185573277835189e-07
2026-06-27T13:16:28.225196,1782576970.93292,0.0,0.0,-42.39089584350586,0.0,0.0,-4.990224361419678,0.0,0.0,6.089429944257663e-07
2026-06-27T13:16:28.334465,1782576971.0349221,0.0,0.0,-42.899967193603516,0.0,0.0,-4.990217208862305,0.0,0.0,5.998627906989999e-07
2026-06-27T13:16:28.443206,1782576971.1429245,0.0,0.0,-43.43898391723633,0.0,0.0,-4.990209102630615,0.0,0.0,5.902484573412473e-07
2026-06-27T13:16:28.552436,1782576971.2479267,0.0,0.0,-43.96302795410156,0.0,0.0,-4.990203380584717,0.0,0.0,5.809011887989879e-07
2026-06-27T13:16:28.661170,1782576971.3559291,0.0,0.0,-44.502044677734375,0.0,0.0,-4.990197658538818,0.0,0.0,5.712868554412352e-07
2026-06-27T13:16:28.771056,1782576971.4579313,0.0,0.0,-45.01111602783203,0.0,0.0,-4.990192890167236,0.0,0.0,5.622066517144688e-07
2026-06-27T13:16:28.877724,1782576971.5569334,0.0,0.0,-45.50521469116211,0.0,0.0,-4.990189075469971,0.0,0.0,5.533935128031955e-07
2026-06-27T13:16:28.987490,1782576971.6619356,0.0,0.0,-46.029258728027344,0.0,0.0,-4.9901862144470215,0.0,0.0,5.440462442609361e-07
2026-06-27T13:16:29.096477,1782576971.766938,0.0,0.0,-46.55330276489258,0.0,0.0,-4.990180492401123,0.0,0.0,5.346989757186766e-07
2026-06-27T13:16:29.204745,1782576971.8719401,0.0,0.0,-47.07734680175781,0.0,0.0,-4.990177631378174,0.0,0.0,5.253517071764171e-07
2026-06-27T13:16:29.315018,1782576971.9769423,0.0,0.0,-47.60139083862305,0.0,0.0,-4.990174293518066,0.0,0.0,5.160044386341576e-07
2026-06-27T13:16:29.422287,1782576972.0849447,0.0,0.0,-48.14040756225586,0.0,0.0,-4.990170001983643,0.0,0.0,5.06390105276405e-07
2026-06-27T13:16:29.530740,1782576972.189947,0.0,0.0,-48.664451599121094,0.0,0.0,-4.990166187286377,0.0,0.0,4.970428367341454e-07
2026-06-27T13:16:29.639463,1782576972.294949,0.0,0.0,-49.18849563598633,0.0,0.0,-4.990164279937744,0.0,0.0,4.876955681918859e-07
2026-06-27T13:16:29.748690,1782576972.3999515,0.0,0.0,-49.71253967285156,0.0,0.0,-4.990161418914795,0.0,0.0,4.783482996496264e-07
2026-06-27T13:16:29.857388,1782576972.5049536,0.0,0.0,-50.2365837097168,0.0,0.0,-4.990159034729004,0.0,0.0,4.6900103110736694e-07
2026-06-27T13:16:29.966132,1782576972.6099558,0.0,0.0,-50.76062774658203,0.0,0.0,-4.990157604217529,0.0,0.0,4.5965376256510746e-07
2026-06-27T13:16:30.075453,1782576972.711958,0.0,0.0,-51.26969909667969,0.0,0.0,-4.99015474319458,0.0,0.0,4.505735588383411e-07
2026-06-27T13:16:30.186170,1782576972.8169603,0.0,0.0,-51.793739318847656,0.0,0.0,-4.9901533126831055,0.0,0.0,4.4122629029608156e-07
2026-06-27T13:16:30.293662,1782576972.900962,0.0,0.0,-52.212867736816406,0.0,0.0,-4.990151882171631,0.0,0.0,4.3374847546227395e-07
2026-06-27T13:16:30.404304,1782576972.984964,0.0,0.0,-52.631996154785156,0.0,0.0,-4.990149974822998,0.0,0.0,4.26270584295154e-07
2026-06-27T13:16:30.511027,1782576973.083966,0.0,0.0,-53.12596893310547,0.0,0.0,-4.990148067474365,0.0,0.0,4.1745660571744485e-07
2026-06-27T13:16:30.620267,1782576973.1829681,0.0,0.0,-53.61994171142578,0.0,0.0,-4.990146636962891,0.0,0.0,4.086426271397357e-07
2026-06-27T13:16:30.728661,1782576973.2879703,0.0,0.0,-54.14385223388672,0.0,0.0,-4.990145206451416,0.0,0.0,3.992944680421654e-07
2026-06-27T13:16:30.838433,1782576973.3869724,0.0,0.0,-54.63782501220703,0.0,0.0,-4.990143299102783,0.0,0.0,3.9048048946445624e-07
2026-06-27T13:16:30.946646,1782576973.4919746,0.0,0.0,-55.16173553466797,0.0,0.0,-4.99014139175415,0.0,0.0,3.81132330366886e-07
2026-06-27T13:16:31.054870,1782576973.5939767,0.0,0.0,-55.670677185058594,0.0,0.0,-4.990139484405518,0.0,0.0,3.720512615292462e-07
2026-06-27T13:16:31.165170,1782576973.7019792,0.0,0.0,-56.209556579589844,0.0,0.0,-4.990139484405518,0.0,0.0,3.6243601217174535e-07
2026-06-27T13:16:31.273915,1782576973.8009813,0.0,0.0,-56.703529357910156,0.0,0.0,-4.990138530731201,0.0,0.0,3.536220335940362e-07
2026-06-27T13:16:31.383892,1782576973.9059834,0.0,0.0,-57.227439880371094,0.0,0.0,-4.990137100219727,0.0,0.0,3.442738744964659e-07
2026-06-27T13:16:31.492149,1782576974.0019855,0.0,0.0,-57.706443786621094,0.0,0.0,-4.99013614654541,0.0,0.0,3.357269861786873e-07
2026-06-27T13:16:31.599912,1782576974.1069877,0.0,0.0,-58.23035430908203,0.0,0.0,-4.990134239196777,0.0,0.0,3.26378827081117e-07
2026-06-27T13:16:31.707648,1782576974.2089899,0.0,0.0,-58.739295959472656,0.0,0.0,-4.9901323318481445,0.0,0.0,3.172977582434773e-07
2026-06-27T13:16:31.817213,1782576974.3139923,0.0,0.0,-59.263206481933594,0.0,0.0,-4.990130424499512,0.0,0.0,3.0794959914590696e-07
2026-06-27T13:16:31.926515,1782576974.4189944,0.0,0.0,-59.78711700439453,0.0,0.0,-4.9901299476623535,0.0,0.0,2.9860144004833665e-07
2026-06-27T13:16:32.036253,1782576974.5239966,0.0,0.0,-60.31102752685547,0.0,0.0,-4.990128993988037,0.0,0.0,2.8925328095076633e-07
2026-06-27T13:16:32.143621,1782576974.631999,0.0,0.0,-60.84990692138672,0.0,0.0,-4.9901275634765625,0.0,0.0,2.7963803159326546e-07
2026-06-27T13:16:32.254196,1782576974.7340012,0.0,0.0,-61.358848571777344,0.0,0.0,-4.9901299476623535,0.0,0.0,2.705569627556257e-07
2026-06-27T13:16:32.362829,1782576974.8360033,0.0,0.0,-61.86779022216797,0.0,0.0,-4.9901299476623535,0.0,0.0,2.61475893917986e-07
2026-06-27T13:16:32.470186,1782576974.9380054,0.0,0.0,-62.376731872558594,0.0,0.0,-4.9901299476623535,0.0,0.0,2.5239482508034624e-07
2026-06-27T13:16:32.611412,1782576975.0610082,0.0,0.0,-62.990455627441406,0.0,0.0,-4.9901299476623535,0.0,0.0,2.414441244231925e-07
2026-06-27T13:16:32.720509,1782576975.1600103,0.0,0.0,-63.48442840576172,0.0,0.0,-4.9901299476623535,0.0,0.0,2.326301458454833e-07
2026-06-27T13:16:32.826374,1782576975.2620125,0.0,0.0,-63.993370056152344,0.0,0.0,-4.990129470825195,0.0,0.0,2.2354907700784358e-07
2026-06-27T13:16:32.935597,1782576975.3670146,0.0,0.0,-64.51728057861328,0.0,0.0,-4.990127086639404,0.0,0.0,2.1420091791027326e-07
2026-06-27T13:16:33.046295,1782576975.4720168,0.0,0.0,-65.04119110107422,0.0,0.0,-4.990126132965088,0.0,0.0,2.0485275881270295e-07
2026-06-27T13:16:33.153038,1782576975.574019,0.0,0.0,-65.55013275146484,0.0,0.0,-4.990124225616455,0.0,0.0,1.9577168997506322e-07
2026-06-27T13:16:33.261866,1782576975.6790214,0.0,0.0,-66.07404327392578,0.0,0.0,-4.990121364593506,0.0,0.0,1.8642353087749293e-07
2026-06-27T13:16:33.372145,1782576975.7870235,0.0,0.0,-66.61292266845703,0.0,0.0,-4.9901204109191895,0.0,0.0,1.7680828151999204e-07
2026-06-27T13:16:33.480406,1782576975.8890257,0.0,0.0,-67.12186431884766,0.0,0.0,-4.990119457244873,0.0,0.0,1.677272126823523e-07
2026-06-27T13:16:33.588448,1782576975.991028,0.0,0.0,-67.63080596923828,0.0,0.0,-4.990118503570557,0.0,0.0,1.5864614384471257e-07
2026-06-27T13:16:33.697677,1782576976.0930302,0.0,0.0,-68.1397476196289,0.0,0.0,-4.99011754989624,0.0,0.0,1.4956507500707284e-07
2026-06-27T13:16:33.806938,1782576976.186032,0.0,0.0,-68.6037826538086,0.0,0.0,-4.990115642547607,0.0,0.0,1.4128527694922486e-07
2026-06-27T13:16:33.916237,1782576976.2910345,0.0,0.0,-69.12769317626953,0.0,0.0,-4.990114688873291,0.0,0.0,1.3193711785165454e-07
2026-06-27T13:16:34.025440,1782576976.3960366,0.0,0.0,-69.65160369873047,0.0,0.0,-4.990112781524658,0.0,0.0,1.2258895875408423e-07
2026-06-27T13:16:34.132942,1782576976.4950387,0.0,0.0,-70.14557647705078,0.0,0.0,-4.990110397338867,0.0,0.0,1.1377498017637508e-07
2026-06-27T13:16:34.242490,1782576976.603041,0.0,0.0,-70.68445587158203,0.0,0.0,-4.990109443664551,0.0,0.0,1.0415979442996783e-07
2026-06-27T13:16:34.351724,1782576976.7080433,0.0,0.0,-71.20836639404297,0.0,0.0,-4.990108966827393,0.0,0.0,9.481185797122522e-08
2026-06-27T13:16:34.459942,1782576976.8100455,0.0,0.0,-71.7173080444336,0.0,0.0,-4.990108013153076,0.0,0.0,8.573100541130383e-08
2026-06-27T13:16:34.569676,1782576976.9150476,0.0,0.0,-72.24121856689453,0.0,0.0,-4.990106582641602,0.0,0.0,7.638306895256122e-08
2026-06-27T13:16:34.677382,1782576977.0200498,0.0,0.0,-72.76512908935547,0.0,0.0,-4.990106105804443,0.0,0.0,6.703513249381861e-08
2026-06-27T13:16:34.787734,1782576977.1220522,0.0,0.0,-73.2740707397461,0.0,0.0,-4.990105152130127,0.0,0.0,5.795427993389722e-08
2026-06-27T13:16:34.896552,1782576977.2270544,0.0,0.0,-73.79798126220703,0.0,0.0,-4.990103721618652,0.0,0.0,4.860634347515461e-08
2026-06-27T13:16:35.006721,1782576977.3320565,0.0,0.0,-74.32189178466797,0.0,0.0,-4.990102291107178,0.0,0.0,3.9258407016412005e-08
2026-06-27T13:16:35.113323,1782576977.4310586,0.0,0.0,-74.81586456298828,0.0,0.0,-4.9900994300842285,0.0,0.0,3.0444638355311835e-08
2026-06-27T13:16:35.223559,1782576977.5360608,0.0,0.0,-75.33977508544922,0.0,0.0,-4.9900994300842285,0.0,0.0,2.1096701896569225e-08
2026-06-27T13:16:35.333075,1782576977.6440632,0.0,0.0,-75.87865447998047,0.0,0.0,-4.990097999572754,0.0,0.0,1.14816815390054e-08
2026-06-27T13:16:35.441336,1782576977.7490654,0.0,0.0,-76.4025650024414,0.0,0.0,-4.990097522735596,0.0,0.0,2.1337383215840944e-09
2026-06-27T13:16:35.549633,1782576977.8540678,0.0,0.0,-76.92647552490234,0.0,0.0,-4.990096569061279,0.0,0.0,-7.214210461807904e-09
2026-06-27T13:16:35.658839,1782576977.95907,0.0,0.0,-77.45038604736328,0.0,0.0,-4.990095615386963,0.0,0.0,-1.656214692055051e-08
2026-06-27T13:16:35.767560,1782576978.061072,0.0,0.0,-77.9593276977539,0.0,0.0,-4.99009370803833,0.0,0.0,-2.5642999480471902e-08
2026-06-27T13:16:35.876142,1782576978.1660743,0.0,0.0,-78.48323822021484,0.0,0.0,-4.99009370803833,0.0,0.0,-3.499093593921451e-08
2026-06-27T13:16:35.985373,1782576978.2650764,0.0,0.0,-78.97721099853516,0.0,0.0,-4.990092754364014,0.0,0.0,-4.380470460031468e-08
2026-06-27T13:16:36.093584,1782576978.3700788,0.0,0.0,-79.5011215209961,0.0,0.0,-4.990090847015381,0.0,0.0,-5.315264105905729e-08
2026-06-27T13:16:36.203357,1782576978.475081,0.0,0.0,-80.02503204345703,0.0,0.0,-4.990088939666748,0.0,0.0,-6.25005775177999e-08
2026-06-27T13:16:36.312115,1782576978.5830832,0.0,0.0,-80.56391143798828,0.0,0.0,-4.99008846282959,0.0,0.0,-7.211559787536373e-08
2026-06-27T13:16:36.421215,1782576978.6880856,0.0,0.0,-81.08782196044922,0.0,0.0,-4.990087509155273,0.0,0.0,-8.146353433410633e-08
2026-06-27T13:16:36.529438,1782576978.7900877,0.0,0.0,-81.59676361083984,0.0,0.0,-4.990086555480957,0.0,0.0,-9.054438689402772e-08
2026-06-27T13:16:36.638666,1782576978.89809,0.0,0.0,-82.1356430053711,0.0,0.0,-4.990084648132324,0.0,0.0,-1.0015940725159155e-07
2026-06-27T13:16:36.747373,1782576979.0030923,0.0,0.0,-82.65955352783203,0.0,0.0,-4.990084648132324,0.0,0.0,-1.0950741368253714e-07
2026-06-27T13:16:36.856537,1782576979.1020944,0.0,0.0,-83.15352630615234,0.0,0.0,-4.99008321762085,0.0,0.0,-1.1832139226024629e-07
2026-06-27T13:16:36.965686,1782576979.1980963,0.0,0.0,-83.63253021240234,0.0,0.0,-4.99008321762085,0.0,0.0,-1.2686828057802487e-07
2026-06-27T13:16:37.074346,1782576979.3030987,0.0,0.0,-84.15644073486328,0.0,0.0,-4.990081787109375,0.0,0.0,-1.3621643967559518e-07
2026-06-27T13:16:37.183663,1782576979.4081008,0.0,0.0,-84.68035125732422,0.0,0.0,-4.990080833435059,0.0,0.0,-1.4556459877316547e-07
2026-06-27T13:16:37.292410,1782576979.513103,0.0,0.0,-85.20426177978516,0.0,0.0,-4.990078926086426,0.0,0.0,-1.5491275787073579e-07
2026-06-27T13:16:37.401746,1782576979.6211054,0.0,0.0,-85.7431411743164,0.0,0.0,-4.990077972412109,0.0,0.0,-1.6452800722823668e-07
2026-06-27T13:16:37.509192,1782576979.7231076,0.0,0.0,-86.25208282470703,0.0,0.0,-4.990076065063477,0.0,0.0,-1.7360907606587641e-07
2026-06-27T13:16:37.617362,1782576979.8281097,0.0,0.0,-86.77599334716797,0.0,0.0,-4.990076065063477,0.0,0.0,-1.8295723516344673e-07
2026-06-27T13:16:37.726525,1782576979.9331121,0.0,0.0,-87.2999038696289,0.0,0.0,-4.990074634552002,0.0,0.0,-1.9230539426101704e-07
2026-06-27T13:16:37.836024,1782576980.0411143,0.0,0.0,-87.83878326416016,0.0,0.0,-4.990074634552002,0.0,0.0,-2.019206436185179e-07
2026-06-27T13:16:37.943727,1782576980.1431165,0.0,0.0,-88.34772491455078,0.0,0.0,-4.990072727203369,0.0,0.0,-2.1100171245615764e-07
2026-06-27T13:16:38.053258,1782576980.2481189,0.0,0.0,-88.87163543701172,0.0,0.0,-4.990072727203369,0.0,0.0,-2.2034987155372796e-07
2026-06-27T13:16:38.161686,1782576980.353121,0.0,0.0,-89.39554595947266,0.0,0.0,-4.990070343017578,0.0,0.0,-2.2969803065129827e-07
2026-06-27T13:16:38.271202,1782576980.4581232,0.0,0.0,-89.9194564819336,0.0,0.0,-4.990070343017578,0.0,0.0,-2.3904618974886856e-07
2026-06-27T13:16:38.378371,1782576980.5631256,0.0,0.0,-90.44336700439453,0.0,0.0,-4.990070343017578,0.0,0.0,-2.4839434884643887e-07
2026-06-27T13:16:38.487582,1782576980.6681278,0.0,0.0,-90.96727752685547,0.0,0.0,-4.9900689125061035,0.0,0.0,-2.577425079440092e-07
2026-06-27T13:16:38.596321,1782576980.77313,0.0,0.0,-91.4911880493164,0.0,0.0,-4.990067958831787,0.0,0.0,-2.670906670415795e-07
2026-06-27T13:16:38.705668,1782576980.8811324,0.0,0.0,-92.03006744384766,0.0,0.0,-4.990067481994629,0.0,0.0,-2.767059163990804e-07
2026-06-27T13:16:38.814387,1782576980.9801345,0.0,0.0,-92.52404022216797,0.0,0.0,-4.9900665283203125,0.0,0.0,-2.8551989497678957e-07
2026-06-27T13:16:38.922636,1782576981.0851367,0.0,0.0,-93.0479507446289,0.0,0.0,-4.990065574645996,0.0,0.0,-2.948680540743599e-07
2026-06-27T13:16:39.035345,1782576981.1931388,0.0,0.0,-93.58683013916016,0.0,0.0,-4.9900641441345215,0.0,0.0,-3.0448330343186076e-07
2026-06-27T13:16:39.141904,1782576981.2951412,0.0,0.0,-94.09577178955078,0.0,0.0,-4.990062713623047,0.0,0.0,-3.1356437226950046e-07
2026-06-27T13:16:39.252754,1782576981.4001434,0.0,0.0,-94.61968231201172,0.0,0.0,-4.9900617599487305,0.0,0.0,-3.229125313670708e-07
2026-06-27T13:16:39.360008,1782576981.5021455,0.0,0.0,-95.12862396240234,0.0,0.0,-4.990060806274414,0.0,0.0,-3.3199360020471053e-07
2026-06-27T13:16:39.470717,1782576981.610148,0.0,0.0,-95.6675033569336,0.0,0.0,-4.990059852600098,0.0,0.0,-3.416088495622114e-07
2026-06-27T13:16:39.576683,1782576981.71215,0.0,0.0,-96.17644500732422,0.0,0.0,-4.990058898925781,0.0,0.0,-3.5068991839985116e-07
2026-06-27T13:16:39.686900,1782576981.8171523,0.0,0.0,-96.70035552978516,0.0,0.0,-4.990058422088623,0.0,0.0,-3.600380774974215e-07
2026-06-27T13:16:39.795622,1782576981.9221544,0.0,0.0,-97.2242660522461,0.0,0.0,-4.990056991577148,0.0,0.0,-3.693862365949918e-07
2026-06-27T13:16:39.905331,1782576982.0301569,0.0,0.0,-97.76314544677734,0.0,0.0,-4.990056037902832,0.0,0.0,-3.7900148595249266e-07
2026-06-27T13:16:40.012566,1782576982.132159,0.0,0.0,-98.27208709716797,0.0,0.0,-4.990055084228516,0.0,0.0,-3.8808255479013236e-07
2026-06-27T13:16:40.121903,1782576982.231161,0.0,0.0,-98.76605987548828,0.0,0.0,-4.990054130554199,0.0,0.0,-3.968965333678415e-07
2026-06-27T13:16:40.232604,1782576982.3391633,0.0,0.0,-99.30493927001953,0.0,0.0,-4.990053176879883,0.0,0.0,-4.0651178272534243e-07
2026-06-27T13:16:40.340329,1782576982.4441657,0.0,0.0,-99.82884979248047,0.0,0.0,-4.990052223205566,0.0,0.0,-4.1585994182291275e-07
2026-06-27T13:16:40.450194,1782576982.552168,1.008365188681637e-06,-3.120402709555492e-07,-100.36499786376953,9.091940592043102e-05,-2.7816673537017778e-05,-4.893388748168945,-0.01465176210205996,-0.050244180489697046,-0.3840612075666817
2026-06-27T13:16:40.558398,1782576982.65717,0.0001471266004955396,-4.2060572013724595e-05,-100.8755111694336,0.003993572201579809,-0.0011276374571025372,-4.864699363708496,-0.10261411785726343,-0.4621021337872873,-3.0564890315845687
2026-06-27T13:16:40.667118,1782576982.7651725,0.0012921473244205117,-0.00036176698631606996,-101.4074935913086,0.01929464004933834,-0.005360748618841171,-4.98272705078125,-0.15685922613269432,-1.1259930820657074,-7.452946856055016
2026-06-27T13:16:40.776288,1782576982.8671746,0.004449445754289627,-0.0012347899610176682,-101.91706848144531,0.044483210891485214,-0.012259037233889103,-5.0002241134643555,-0.1088480409383633,-1.857613066747643,-11.896692571275302
2026-06-27T13:16:40.883656,1782576982.9601767,0.010057654231786728,-0.0027749105356633663,-102.38194274902344,0.07785113155841827,-0.021318284794688225,-4.995741367340088,0.007957439163386433,-2.548141843143449,-15.305364255670138
2026-06-27T13:16:40.992909,1782576983.0651789,0.020748388022184372,-0.005691606551408768,-102.90602111816406,0.12796951830387115,-0.0348067469894886,-4.985841274261475,0.16582110068808112,-3.3136806994612837,-17.866125681859216
2026-06-27T13:16:41.101629,1782576983.170181,0.03738204762339592,-0.010200909338891506,-103.4288330078125,0.19095760583877563,-0.05162457376718521,-4.971620082855225,0.28613288704039763,-4.055995842723998,-18.93768873716024
2026-06-27T13:16:41.211362,1782576983.2751834,0.06128226965665817,-0.016644153743982315,-103.94986724853516,0.26630738377571106,-0.0716250017285347,-4.951831340789795,0.3276766192322696,-4.786105353016409,-18.75473413054097
2026-06-27T13:16:41.320986,1782576983.3801856,0.09371781349182129,-0.025348380208015442,-104.46849822998047,0.35341164469718933,-0.09466201066970825,-4.925487041473389,0.28352306121231186,-5.492883500630314,-17.756734366205492
2026-06-27T13:16:41.428898,1782576983.4851878,0.13588353991508484,-0.03662339225411415,-104.98396301269531,0.45151886343955994,-0.12056420743465424,-4.891146659851074,0.17652504508740588,-6.173546209965779,-16.425533120982575
2026-06-27T13:16:41.537583,1782576983.5901902,0.18889540433883667,-0.050761204212903976,-105.4953384399414,0.5598808526992798,-0.14916321635246277,-4.847454071044922,0.04499072266418346,-6.82683011352395,-15.164713712775283
2026-06-27T13:16:41.646284,1782576983.6981924,0.2558291554450989,-0.06857803463935852,-106.01595306396484,0.6812373995780945,-0.1812051683664322,-4.79125452041626,-0.07564722582358945,-7.472205430563193,-14.214071197823532
2026-06-27T13:16:41.755309,1782576983.8031945,0.33394572138786316,-0.0893448069691658,-106.5156478881836,0.8080770373344421,-0.2147209197282791,-4.724315643310547,-0.1513265233125978,-8.078305862056643,-13.730805954981612
2026-06-27T13:16:41.863528,1782576983.908197,0.4258039891719818,-0.11374418437480927,-107.00757598876953,0.9428529739379883,-0.25036388635635376,-4.643674850463867,-0.17562348904349798,-8.66642012631956,-13.653633821463828
2026-06-27T13:16:41.973742,1782576984.013199,0.5321953296661377,-0.14198851585388184,-107.490234375,1.0848414897918701,-0.28794366121292114,-4.548226356506348,-0.15372869614590196,-9.23759721026239,-13.871410642061617
2026-06-27T13:16:42.082333,1782576984.1212015,0.657526433467865,-0.17524953186511993,-107.9752426147461,1.2371511459350586,-0.3282816708087921,-4.4305315017700195,-0.099555365373561,-9.811159391871763,-14.253253111613489
2026-06-27T13:16:42.190558,1782576984.2262037,0.7954450249671936,-0.21184349060058594,-108.43355560302734,1.390820026397705,-0.36900100111961365,-4.296810150146484,-0.0360496084286326,-10.362064787895726,-14.643519341421714
2026-06-27T13:16:42.302434,1782576984.3372061,0.959074079990387,-0.25525394082069397,-108.90164184570312,1.557936429977417,-0.41330066323280334,-4.131788730621338,0.023285000913510004,-10.92146935314913,-14.972166662250265
2026-06-27T13:16:42.408710,1782576984.4392083,1.1259506940841675,-0.2995230257511139,-109.31427001953125,1.7140952348709106,-0.45470669865608215,-3.953058958053589,0.05937437115429492,-11.436331403519835,-15.152360186294896
2026-06-27T13:16:42.516921,1782576984.5442104,1.3144330978393555,-0.34952205419540405,-109.71830749511719,1.8762139081954956,-0.4977003037929535,-3.73740553855896,0.0741441510669244,-11.981986122542859,-15.21268410170238
2026-06-27T13:16:42.627632,1782576984.6522126,1.5259613990783691,-0.4056335389614105,-110.10772705078125,2.040250778198242,-0.5412070155143738,-3.463928699493408,0.06832838903891064,-12.599120946747544,-15.170280879572186
2026-06-27T13:16:42.735480,1782576984.757215,1.7482129335403442,-0.46458879113197327,-110.45420837402344,2.190133571624756,-0.5809618830680847,-3.116239070892334,0.048908346843343616,-13.334882157252688,-15.0694875982714
2026-06-27T13:16:42.843871,1782576984.8592172,1.9781533479690552,-0.5255835652351379,-110.74940490722656,2.311788558959961,-0.6132304668426514,-2.6377933025360107,0.02415291529865173,-14.309881808534895,-14.954988448183245
2026-06-27T13:16:42.953584,1782576984.9672194,2.2344963550567627,-0.5935815572738647,-111.0037612915039,2.4579687118530273,-0.6520075798034668,-2.1551074981689453,-0.002229404136709102,-15.209668836027445,-14.84901448632607
2026-06-27T13:16:43.062305,1782576985.0722218,2.5044965744018555,-0.6652028560638428,-111.22193908691406,2.6874897480010986,-0.7128986716270447,-2.0150046348571777,-0.01967442455310167,-14.855299408487253,-14.780813169453095
2026-06-27T13:16:43.173038,1782576985.177224,2.798623561859131,-0.7432250380516052,-111.42764282226562,2.911912441253662,-0.7724400162696838,-1.903099536895752,-0.025042464493278273,-13.851306911183613,-14.752434367340921
2026-06-27T13:16:43.279574,1782576985.276226,3.0966644287109375,-0.8222862482070923,-111.61090850830078,3.1059675216674805,-0.8239251375198364,-1.8002203702926636,-0.0219027043416711,-12.658589879598031,-14.756470794059439
2026-06-27T13:16:43.387419,1782576985.3842285,3.4426324367523193,-0.9140621423721313,-111.7997055053711,3.2971320152282715,-0.8746427297592163,-1.698156714439392,-0.014338949288339545,-11.294842140112795,-14.78278302058943
2026-06-27T13:16:43.497470,1782576985.4892306,3.7977101802825928,-1.008255124092102,-111.973388671875,3.462841033935547,-0.9186046123504639,-1.6129016876220703,-0.006740452767838799,-10.015742749460609,-14.817143660672189
2026-06-27T13:16:43.607711,1782576985.5852327,4.136746406555176,-1.0981931686401367,-112.1249771118164,3.5976948738098145,-0.9543785452842712,-1.5470781326293945,-0.0014266862707106086,-8.932630355880976,-14.846938740696855
2026-06-27T13:16:43.717147,1782576985.690235,4.521509647369385,-1.2002613544464111,-112.2841567993164,3.7281064987182617,-0.9889712929725647,-1.4866710901260376,0.002020484274613609,-7.862323683246799,-14.87143430551176
2026-06-27T13:16:43.825861,1782576985.795237,4.91909122467041,-1.3057297468185425,-112.43753814697266,3.842139720916748,-1.0192179679870605,-1.436349868774414,0.0033002477384145115,-6.915573769526392,-14.884843596242659
2026-06-27T13:16:43.933091,1782576985.8972392,5.316038131713867,-1.4110289812088013,-112.58190155029297,3.9387807846069336,-1.0448509454727173,-1.3951202630996704,0.003136633148963391,-6.109544259348833,-14.88778509128507
2026-06-27T13:16:44.041407,1782576985.9962413,5.710133075714111,-1.5155712366104126,-112.71827697753906,4.020707130432129,-1.0665814876556396,-1.3607158660888672,0.0022964738786093743,-5.426082143962391,-14.883501003287346
2026-06-27T13:16:44.151690,1782576986.1012437,6.136382102966309,-1.6286431550979614,-112.85945892333984,4.096325874328613,-1.0866411924362183,-1.3289471864700317,0.0012173718193491901,-4.797101400643159,-14.874680077338079
2026-06-27T13:16:44.259990,1782576986.2002459,6.545063495635986,-1.7370551824569702,-112.98967742919922,4.158298969268799,-1.1030830144882202,-1.3023899793624878,0.000336473761129035,-4.284361567387149,-14.86534624868507
2026-06-27T13:16:44.369261,1782576986.305248,6.984765529632568,-1.8536961078643799,-113.12507629394531,4.215417385101318,-1.118239164352417,-1.2769007682800293,-0.00030523573425937585,-3.8152179401701627,-14.856847713379892
2026-06-27T13:16:44.479473,1782576986.4102502,7.430052280426025,-1.9718186855316162,-113.2579116821289,4.26485538482666,-1.1313594579696655,-1.2535277605056763,-0.0006308066616036731,-3.4130437279506003,-14.85118795145017
2026-06-27T13:16:44.586672,1782576986.5152526,7.88017463684082,-2.091224193572998,-113.38838958740234,4.307668209075928,-1.142723798751831,-1.2316343784332275,-0.0007070265726650574,-3.068824363999874,-14.848736512601025
2026-06-27T13:16:44.694856,1782576986.6202548,8.334485054016113,-2.211742401123047,-113.5166244506836,4.3448028564453125,-1.1525815725326538,-1.2111289501190186,-0.0006215128315210762,-2.774170401985026,-14.84900712123943
2026-06-27T13:16:44.804646,1782576986.7192569,8.766178131103516,-2.326260566711426,-113.6355972290039,4.375330448150635,-1.160685420036316,-1.1926404237747192,-0.00047576429912321117,-2.5355799500024827,-14.850931542301188
2026-06-27T13:16:44.912814,1782576986.827259,9.240326881408691,-2.452043294906616,-113.76333618164062,4.404365062713623,-1.168392539024353,-1.1731061935424805,-0.00030797399639008433,-2.3126014457078132,-14.853838170617907
2026-06-27T13:16:45.022551,1782576986.9292612,9.690827369689941,-2.571552276611328,-113.882080078125,4.428278923034668,-1.1747393608093262,-1.1552597284317017,-0.00018027809566064975,-2.1326604991988303,-14.856513627228914
2026-06-27T13:16:45.131821,1782576987.0342636,10.156966209411621,-2.6952085494995117,-114.00242614746094,4.449838638305664,-1.1804614067077637,-1.1372299194335938,-9.345088968887754e-05,-1.973989246387211,-14.858616094519977
2026-06-27T13:16:45.253629,1782576987.1332657,10.598413467407227,-2.812316417694092,-114.11418151855469,4.46772575378418,-1.1852079629898071,-1.120452642440796,-5.122378525068318e-05,-1.8456364719197775,-14.859764059548482
2026-06-27T13:16:45.363613,1782576987.2292676,11.02807903289795,-2.9262988567352295,-114.22098541259766,4.483127117156982,-1.1892950534820557,-1.1046704053878784,-4.111822190962884e-05,-1.7378671155058603,-14.860119798510397
2026-06-27T13:16:45.472299,1782576987.33427,11.499619483947754,-3.051389694213867,-114.3360824584961,4.498070240020752,-1.1932604312896729,-1.0875446796417236,-5.182136953307108e-05,-1.6364745177417461,-14.85983884586468
2026-06-27T13:16:45.583538,1782576987.4362721,11.959101676940918,-3.1732826232910156,-114.44617462158203,4.510946750640869,-1.196677803993225,-1.071153163909912,-7.78640027495785e-05,-1.551906844192964,-14.859173285380129
2026-06-27T13:16:45.691738,1782576987.5412743,12.433392524719238,-3.2991044521331787,-114.55776977539062,4.522749423980713,-1.1998107433319092,-1.0544047355651855,-0.00010450001876140674,-1.4773187564878094,-14.858370807437293
2026-06-27T13:16:45.804722,1782576987.6432765,12.895256042480469,-3.421627998352051,-114.66450500488281,4.533003330230713,-1.2025328874588013,-1.0383317470550537,-0.00012084949749126468,-1.4150429388745949,-14.857674647936838
2026-06-27T13:16:45.907237,1782576987.7362785,13.303607940673828,-3.5299577713012695,-114.75732421875,4.541189193725586,-1.2047065496444702,-1.024222493171692,-0.0001304866537041831,-1.3672871137149927,-14.857239562824468
2026-06-27T13:16:46.017519,1782576987.8352807,13.767257690429688,-3.652956247329712,-114.86099243164062,4.549620628356934,-1.206945538520813,-1.0084301233291626,-0.00013572549198051018,-1.320195007639666,-14.856978915021314
2026-06-27T13:16:46.126550,1782576987.9372828,14.231724739074707,-3.776172637939453,-114.96305084228516,4.557267189025879,-1.2089762687683105,-0.9927635788917542,-0.00013638164514418672,-1.2795307055723317,-14.856951117011315
2026-06-27T13:16:46.236309,1782576988.042285,14.710630416870117,-3.903218984603882,-115.06643676757812,4.564428806304932,-1.2108784914016724,-0.9767077565193176,-0.00012619816414646603,-1.2434476015093519,-14.857100208332067
2026-06-27T13:16:46.343445,1782576988.1472874,15.190254211425781,-4.03045654296875,-115.16815948486328,4.570968151092529,-1.212615728378296,-0.9608807563781738,-0.00011616234935577625,-1.2122522873504924,-14.85735932967456
2026-06-27T13:16:46.453203,1782576988.2492895,15.656804084777832,-4.154226779937744,-115.26538848876953,4.576799392700195,-1.2141648530960083,-0.9455751180648804,-0.00011125697978211871,-1.186011424231138,-14.857617210804268
2026-06-27T13:16:46.561924,1782576988.3482916,16.11018180847168,-4.274501323699951,-115.3582763671875,4.582034587860107,-1.2155553102493286,-0.9308092594146729,-0.00010367436416691033,-1.1638090145390905,-14.857805930330215
2026-06-27T13:16:46.671242,1782576988.4532938,16.59157943725586,-4.402209758758545,-115.4552001953125,4.587186813354492,-1.216923713684082,-0.9154052138328552,-9.334752290881373e-05,-1.1432277057998577,-14.85793256927811
2026-06-27T13:16:46.779520,1782576988.555296,17.059722900390625,-4.526402473449707,-115.54781341552734,4.59183931350708,-1.2181596755981445,-0.9003510475158691,-9.155910775046858e-05,-1.1258666954675045,-14.857985153328665
2026-06-27T13:16:46.888868,1782576988.648298,17.486957550048828,-4.639743328094482,-115.63092803955078,4.595822811126709,-1.2192180156707764,-0.8869104981422424,-9.150539272650918e-05,-1.1119054977788698,-14.857982134153152
2026-06-27T13:16:46.999516,1782576988.7473001,17.942153930664062,-4.760501384735107,-115.71802520751953,4.599815368652344,-1.2202789783477783,-0.8726418614387512,-9.211934210582306e-05,-1.0986601843128023,-14.857952494113182
2026-06-27T13:16:47.107228,1782576988.8493023,18.41154670715332,-4.885025978088379,-115.80631256103516,4.603693962097168,-1.2213091850280762,-0.8580992221832275,-9.29409226368511e-05,-1.086533366866345,-14.857906713165033
2026-06-27T13:16:47.215494,1782576988.9513044,18.881319046020508,-5.009652137756348,-115.89311218261719,4.607358455657959,-1.222283124923706,-0.8436801433563232,-9.329795103135954e-05,-1.0758586708833024,-14.857893695781687
2026-06-27T13:16:47.323300,1782576989.0563066,19.36528968811035,-5.138044357299805,-115.9809341430664,4.610930919647217,-1.2232327461242676,-0.828960657119751,-9.387153346057656e-05,-1.0660567967572894,-14.857904053567003
2026-06-27T13:16:47.432470,1782576989.1553087,19.821941375732422,-5.259188652038574,-116.06232452392578,4.614133834838867,-1.2240840196609497,-0.8152428865432739,-9.401507946505406e-05,-1.0577903690388433,-14.857910450447086
2026-06-27T13:16:47.542175,1782576989.2633111,20.32046127319336,-5.3914408683776855,-116.14956665039062,4.617462158203125,-1.224968671798706,-0.8003720045089722,-9.381817711065735e-05,-1.0496718692593012,-14.85791995422562
2026-06-27T13:16:47.652319,1782576989.3653133,20.79160499572754,-5.5164313316345215,-116.2304916381836,4.620460033416748,-1.2257657051086426,-0.7864913940429688,-9.387233214430736e-05,-1.0427617402259761,-14.857927213180215
2026-06-27T13:16:47.759489,1782576989.4703155,21.27692222595215,-5.645181179046631,-116.31233215332031,4.623414039611816,-1.2265511751174927,-0.7724477648735046,-9.39203701416262e-05,-1.0362272755905462,-14.857935449680877
2026-06-27T13:16:47.869708,1782576989.5753179,21.762540817260742,-5.774011135101318,-116.39269256591797,4.626239776611328,-1.2273026704788208,-0.7583334445953369,-9.235037824754443e-05,-1.030372428836676,-14.857940155170583
2026-06-27T13:16:47.979177,1782576989.67432,22.22067642211914,-5.895550727844238,-116.46710968017578,4.628798961639404,-1.2279832363128662,-0.7451487183570862,-9.144719501198569e-05,-1.0253053698598917,-14.85794673742118
2026-06-27T13:16:48.086791,1782576989.7793221,22.706850051879883,-6.024528503417969,-116.54463958740234,4.631412982940674,-1.228678584098816,-0.7315233945846558,-7.709633439892682e-05,-1.0202341297928323,-14.857950883699905
2026-06-27T13:16:48.196026,1782576989.8813243,23.17938995361328,-6.1498894691467285,-116.61857604980469,4.633855819702148,-1.2293280363082886,-0.7182829976081848,-6.711295292510607e-05,-1.0157471832157785,-14.857956374946012
2026-06-27T13:16:48.305500,1782576989.9863265,23.66608428955078,-6.279005527496338,-116.69329071044922,4.636281967163086,-1.2299728393554688,-0.7048659324645996,-6.615974639312239e-05,-1.011387353101222,-14.857962118372974
2026-06-27T13:16:48.413524,1782576990.0913289,24.153030395507812,-6.408188343048096,-116.76660919189453,4.638619899749756,-1.2305941581726074,-0.6916016340255737,-6.554054485952696e-05,-1.0073010524379644,-14.858008807875574
2026-06-27T13:16:48.523256,1782576990.199331,24.654136657714844,-6.541129112243652,-116.84058380126953,4.640938758850098,-1.2312108278274536,-0.6781309247016907,-6.501641606846862e-05,-1.0033420706856306,-14.85804182045552
2026-06-27T13:16:48.634484,1782576990.2983332,25.11370277404785,-6.66304874420166,-116.90711975097656,4.642993450164795,-1.2317566871643066,-0.6659157872200012,-6.475829991489359e-05,-0.9998974557643985,-14.858044517971884
2026-06-27T13:16:48.740111,1782576990.3973353,25.573467254638672,-6.7850213050842285,-116.9724349975586,4.644981861114502,-1.2322853803634644,-0.6538808941841125,-6.475122838726356e-05,-0.9966201439123339,-14.858047612837277
2026-06-27T13:16:48.851821,1782576990.5053377,26.07524871826172,-6.918140411376953,-117.04235076904297,4.647078037261963,-1.232843041419983,-0.6408506035804749,-6.453679828728969e-05,-0.9931960509743571,-14.858053010888746
2026-06-27T13:16:48.957471,1782576990.6073399,26.549358367919922,-7.043919563293457,-117.10710906982422,4.648993492126465,-1.233352541923523,-0.6287527680397034,-6.41535975967056e-05,-0.9901157155898861,-14.858053990893902
2026-06-27T13:16:49.068412,1782576990.715342,27.05156707763672,-7.17715311050415,-117.17433166503906,4.650954723358154,-1.233873963356018,-0.6160687804222107,-6.408306169334943e-05,-0.9869727314135242,-14.858057454605722
2026-06-27T13:16:49.174819,1782576990.8143442,27.51211166381836,-7.299332141876221,-117.23475646972656,4.652695178985596,-1.2343366146087646,-0.6046358942985535,-6.355449199274286e-05,-0.9841981264438244,-14.858085400184637
2026-06-27T13:16:49.284034,1782576990.9193463,28.000749588012695,-7.4289655685424805,-117.29759979248047,4.654480934143066,-1.234811544418335,-0.5926023125648499,-6.320441243508363e-05,-0.9813698805240243,-14.85810884761021
2026-06-27T13:16:49.392769,1782576991.0213487,28.475601196289062,-7.554941654205322,-117.35746002197266,4.656162261962891,-1.2352584600448608,-0.5811298489570618,-6.300654376718476e-05,-0.9786840643558039,-14.858110771102625
2026-06-27T13:16:49.502509,1782576991.1233509,28.950624465942383,-7.680962562561035,-117.41614532470703,4.6577887535095215,-1.235690951347351,-0.5697320699691772,-6.282940806376754e-05,-0.9760941564818143,-14.858112919980043
2026-06-27T13:16:49.610906,1782576991.225353,29.425809860229492,-7.807028293609619,-117.47369384765625,4.659364223480225,-1.236109972000122,-0.5586421489715576,-6.257573289181994e-05,-0.9735286732118126,-14.858115137705164
2026-06-27T13:16:49.720029,1782576991.3303552,29.915138244628906,-7.936844348907471,-117.53175354003906,4.660931587219238,-1.2365269660949707,-0.5472390651702881,-6.226993625455646e-05,-0.9710198122954644,-14.858122743264186
2026-06-27T13:16:49.828237,1782576991.4323573,30.390636444091797,-8.062995910644531,-117.5870132446289,4.662405967712402,-1.2369194030761719,-0.5363791584968567,-6.183445811663977e-05,-0.9686284705867719,-14.858154263480525
2026-06-27T13:16:49.937176,1782576991.5343595,30.866289138793945,-8.189183235168457,-117.64118957519531,4.663834571838379,-1.2372996807098389,-0.525749683380127,-6.172411498384616e-05,-0.9662931359066638,-14.858157020292543
2026-06-27T13:16:50.045720,1782576991.6393619,31.356077194213867,-8.319120407104492,-117.6958236694336,4.665253639221191,-1.2376779317855835,-0.5148285627365112,-6.129164038416111e-05,-0.9639774797488014,-14.858170333795712
2026-06-27T13:16:50.154403,1782576991.741364,31.83201026916504,-8.445384979248047,-117.747802734375,4.666591167449951,-1.2380332946777344,-0.5044604539871216,-6.110267583255851e-05,-0.9617643036793276,-14.858173378386835
2026-06-27T13:16:50.262687,1782576991.837366,32.28008270263672,-8.564254760742188,-117.79576873779297,4.667807579040527,-1.2383575439453125,-0.4948083758354187,-5.817779133653198e-05,-0.959743596581509,-14.858174266542258
2026-06-27T13:16:50.371993,1782576991.9393682,32.75627517700195,-8.690587997436523,-117.8457260131836,4.669061183929443,-1.2386912107467651,-0.4847772419452667,-5.467715472830794e-05,-0.9576234328733285,-14.858209953244133
2026-06-27T13:16:50.480770,1782576992.0383704,33.21857833862305,-8.813236236572266,-117.89323425292969,4.670237064361572,-1.2390038967132568,-0.4750956594944,-4.8452327185973596e-05,-0.9556437846501492,-14.858233723771864
2026-06-27T13:16:50.589596,1782576992.1343722,33.6669807434082,-8.932196617126465,-117.93840026855469,4.671342849731445,-1.2392979860305786,-0.46591153740882874,-4.374681814865964e-05,-0.9537567468152808,-14.85823493925491
2026-06-27T13:16:50.697445,1782576992.2363746,34.14352035522461,-9.058622360229492,-117.98542785644531,4.672479629516602,-1.2396001815795898,-0.45626792311668396,-4.028188101535609e-05,-0.9517931266313457,-14.858235989151119
2026-06-27T13:16:50.808837,1782576992.3443768,34.648216247558594,-9.19251823425293,-118.03416442871094,4.673640727996826,-1.2399091720581055,-0.44626420736312866,-3.862588111062628e-05,-0.9497643589638428,-14.858239497645334
2026-06-27T13:16:50.915008,1782576992.446379,35.12499237060547,-9.319007873535156,-118.0792007446289,4.674698829650879,-1.2401909828186035,-0.4369392395019531,-4.0429264214092176e-05,-0.9479006674858506,-14.858240733224228
2026-06-27T13:16:51.024299,1782576992.548381,35.60188293457031,-9.445526123046875,-118.12329864501953,4.675722599029541,-1.2404632568359375,-0.42777952551841736,-4.0630173968266146e-05,-0.9460794991525285,-14.858242079874337
2026-06-27T13:16:51.133536,1782576992.6443832,36.050811767578125,-9.564626693725586,-118.1639633178711,4.6766533851623535,-1.2407110929489136,-0.4193316698074341,-3.649433648613242e-05,-0.9444069495027262,-14.858243783707792
2026-06-27T13:16:51.241634,1782576992.7433853,36.51384735107422,-9.687471389770508,-118.20506286621094,4.677580833435059,-1.2409577369689941,-0.41065841913223267,-4.1154678459520104e-05,-0.9427258599659363,-14.858245403300709
2026-06-27T13:16:51.351825,1782576992.8483875,37.00504684448242,-9.817785263061523,-118.24771118164062,4.67853307723999,-1.241210699081421,-0.40175485610961914,-4.289540764503949e-05,-0.9409837339028516,-14.85829681793757
2026-06-27T13:16:51.459762,1782576992.9293892,37.38405990600586,-9.918335914611816,-118.27998352050781,4.679244041442871,-1.2413997650146484,-0.3950101435184479,-3.9256545719158615e-05,-0.9396392171055831,-14.858299226147492
2026-06-27T13:16:51.570036,1782576993.0283914,37.84734344482422,-10.04124927520752,-118.31867218017578,4.680083751678467,-1.241623878479004,-0.38680920004844666,-3.800357758011884e-05,-0.9380958268899758,-14.858298597778548
2026-06-27T13:16:51.677270,1782576993.1213934,38.28264236450195,-10.15672779083252,-118.35429382324219,4.680846214294434,-1.2418268918991089,-0.3791901171207428,-3.9006563015400305e-05,-0.9366624703902771,-14.85830079038771
2026-06-27T13:16:51.787029,1782576993.2173955,38.7320556640625,-10.275959968566895,-118.39031982421875,4.681607723236084,-1.2420293092727661,-0.3714900016784668,-3.8133276032559896e-05,-0.9352284389219749,-14.858303001519927
2026-06-27T13:16:51.900574,1782576993.3223977,39.223655700683594,-10.406387329101562,-118.42889404296875,4.682411193847656,-1.2422435283660889,-0.36323976516723633,-3.976498157256953e-05,-0.9336916191404728,-14.858304982073184
2026-06-27T13:16:52.006842,1782576993.4183998,39.67323684692383,-10.525650024414062,-118.46341705322266,4.683121204376221,-1.2424322366714478,-0.3558335304260254,-3.716631269594586e-05,-0.932326945813332,-14.858304757911128
2026-06-27T13:16:52.113780,1782576993.517402,40.13689041137695,-10.64866828918457,-118.4982681274414,4.683827877044678,-1.2426201105117798,-0.3482959568500519,-3.541270557547993e-05,-0.9309415593703265,-14.858307091373998
2026-06-27T13:16:52.222587,1782576993.6134038,40.58659744262695,-10.767966270446777,-118.53136444091797,4.6844892501831055,-1.2427960634231567,-0.34119436144828796,-4.0951729605350496e-05,-0.9296363439945854,-14.858309536679895
2026-06-27T13:16:52.331531,1782576993.709406,41.03633117675781,-10.887290000915527,-118.56378173828125,4.685126304626465,-1.2429660558700562,-0.3341764807701111,-3.897463158273528e-05,-0.9283665797196626,-14.858309516921125
2026-06-27T13:16:52.439656,1782576993.7964077,41.44398880004883,-10.995431900024414,-118.59257507324219,4.685685157775879,-1.2431148290634155,-0.32786720991134644,-3.9612690543753384e-05,-0.9272593923921583,-14.85832381593002
2026-06-27T13:16:52.549421,1782576993.8834097,41.851646423339844,-11.103596687316895,-118.62084197998047,4.6862263679504395,-1.2432588338851929,-0.32169321179389954,-3.8748404918662554e-05,-0.9261716739770375,-14.858374917803555
2026-06-27T13:16:52.657371,1782576993.9764116,42.28752899169922,-11.219221115112305,-118.65044403076172,4.6867852210998535,-1.2434077262878418,-0.3151819407939911,-3.739675371798567e-05,-0.9250408526127533,-14.858380439966483
2026-06-27T13:16:52.767569,1782576994.0694137,42.723419189453125,-11.334875106811523,-118.6794662475586,4.687326908111572,-1.2435516119003296,-0.30884993076324463,-3.614091054226382e-05,-0.9239271473236351,-14.85838074991406
2026-06-27T13:16:52.875322,1782576994.1714158,43.201576232910156,-11.461721420288086,-118.71060943603516,4.687897682189941,-1.243703842163086,-0.30195188522338867,-3.660109916659336e-05,-0.9227595252786579,-14.858380937470343
2026-06-27T13:16:52.987443,1782576994.264418,43.6375846862793,-11.577400207519531,-118.73841094970703,4.688399314880371,-1.243837594985962,-0.2958280146121979,-3.52286730690039e-05,-0.9217139956788389,-14.858383998136887
2026-06-27T13:16:53.093183,1782576994.3454194,44.017337799072266,-11.678156852722168,-118.76216125488281,4.688822269439697,-1.2439504861831665,-0.29057422280311584,-3.724948314530391e-05,-0.9208309507637183,-14.858384765172366
2026-06-27T13:16:53.201879,1782576994.4534218,44.523807525634766,-11.812512397766113,-118.79317474365234,4.689366817474365,-1.2440955638885498,-0.2837159037590027,-3.69559351591872e-05,-0.9196856191692148,-14.85838501275941
2026-06-27T13:16:53.310994,1782576994.552424,44.98807144165039,-11.935690879821777,-118.8209457397461,4.689846515655518,-1.2442233562469482,-0.27751198410987854,-3.6992026798603966e-05,-0.9186602367889555,-14.858385507171008
2026-06-27T13:16:53.421861,1782576994.6604261,45.4946174621582,-12.070067405700684,-118.8505630493164,4.690349102020264,-1.2443573474884033,-0.2708837687969208,-3.6628382668906954e-05,-0.9175904566141503,-14.858385915982135
2026-06-27T13:16:53.539219,1782576994.7594283,45.959007263183594,-12.193276405334473,-118.87706756591797,4.69079065322876,-1.2444751262664795,-0.2649272680282593,-3.665633407649373e-05,-0.9166364358565151,-14.85838656161777
2026-06-27T13:16:53.652988,1782576994.8674307,46.465614318847656,-12.32768726348877,-118.90534210205078,4.69125509262085,-1.2445987462997437,-0.2586207687854767,-3.648783956707008e-05,-0.9156035495407315,-14.85838965281789
2026-06-27T13:16:53.791325,1782576994.9694328,46.94417953491211,-12.45464038848877,-118.93142700195312,4.691673755645752,-1.2447104454040527,-0.252705454826355,-3.635802584404302e-05,-0.9147003633411369,-14.858387804458019
2026-06-27T13:16:53.872489,1782576995.0534346,47.338314056396484,-12.559208869934082,-118.95246124267578,4.6920061111450195,-1.244799256324768,-0.2479604184627533,-3.649265739123759e-05,-0.9139606590737278,-14.858388893630453
2026-06-27T13:16:53.980245,1782576995.1554368,47.8169059753418,-12.686184883117676,-118.97745513916016,4.69239616394043,-1.2449032068252563,-0.24227873980998993,-3.6157487844434086e-05,-0.9131049702501097,-14.858389750794851
