time,sim_t,x,y,z,vx,vy,vz,roll_deg,pitch_deg,yaw_deg
2026-06-27T14:37:27.294375,1782581697.3267477,0.0,0.0,2.0397043228149414,0.0,0.0,0.0,0.0,0.0,0.0003895640909249624
2026-06-27T14:37:27.403440,1782581697.4347498,0.0,0.0,2.0397043228149414,0.0,0.0,0.0,0.0,0.0,0.0003895640909249624
2026-06-27T14:37:27.512310,1782581697.5427523,0.0,0.0,2.0397043228149414,0.0,0.0,0.0,0.0,0.0,0.0003895640909249624
2026-06-27T14:37:27.620465,1782581697.6477544,0.0,0.0,2.0397043228149414,0.0,0.0,0.0,0.0,0.0,0.0003895640909249624
2026-06-27T14:37:27.729165,1782581697.7557569,0.0,0.0,2.0397043228149414,0.0,0.0,0.0,0.0,0.0,0.0003895640909249624
2026-06-27T14:37:27.837900,1782581697.860759,0.0,0.0,2.0397043228149414,0.0,0.0,0.0,0.0,0.0,0.0003895640909249624
2026-06-27T14:37:27.948483,1782581697.9717615,0.0,0.0,2.0397043228149414,0.0,0.0,0.0,0.0,0.0,0.0003895640909249624
2026-06-27T14:37:28.056289,1782581698.0737636,0.0,0.0,2.0397043228149414,0.0,0.0,0.0,0.0,0.0,0.0003895640909249624
2026-06-27T14:37:28.164975,1782581698.1817658,0.0,0.0,2.0397043228149414,0.0,0.0,0.0,0.0,0.0,0.0003895640909249624
2026-06-27T14:37:28.273232,1782581698.2897682,0.0,0.0,2.0397043228149414,0.0,0.0,0.0,0.0,0.0,0.0003895640909249624
2026-06-27T14:37:28.382423,1782581698.3977704,0.0,0.0,2.0397043228149414,0.0,0.0,0.0,0.0,0.0,0.0003895640909249624
2026-06-27T14:37:28.491595,1782581698.5057728,0.0,0.0,2.0397043228149414,0.0,0.0,0.0,0.0,0.0,0.0003895640909249624
2026-06-27T14:37:28.599182,1782581698.613775,0.0,0.0,2.0397043228149414,0.0,0.0,0.0,0.0,0.0,0.0003895640909249624
2026-06-27T14:37:28.707769,1782581698.7217774,0.0,0.0,2.0397043228149414,0.0,0.0,0.0,0.0,0.0,0.0003895640909249624
2026-06-27T14:37:28.816217,1782581698.8297796,0.0,0.0,2.033663034439087,0.0,0.0,-0.2483326643705368,0.0,0.0,0.0003895640909249624
2026-06-27T14:37:28.925297,1782581698.934782,0.0,0.0,1.9957401752471924,0.0,0.0,-0.41884979605674744,0.0,0.0,0.0003895640909249624
2026-06-27T14:37:29.034580,1782581699.0427842,0.0,0.0,1.948787808418274,0.0,0.0,-0.444001168012619,0.0,0.0,0.0003895640909249624
2026-06-27T14:37:29.142930,1782581699.1507866,0.0,0.0,1.9003779888153076,0.0,0.0,-0.4516517221927643,0.0,0.0,0.0003895640909249624
2026-06-27T14:37:29.252142,1782581699.2557888,0.0,0.0,1.8526772260665894,0.0,0.0,-0.4567452669143677,0.0,0.0,0.0003895640909249624
2026-06-27T14:37:29.362244,1782581699.363791,0.0,0.0,1.8031001091003418,0.0,0.0,-0.46123751997947693,0.0,0.0,0.0003895640909249624
2026-06-27T14:37:29.470982,1782581699.4717934,0.0,0.0,1.7530666589736938,0.0,0.0,-0.46521008014678955,0.0,0.0,0.0003895640909249624
2026-06-27T14:37:29.580994,1782581699.5827959,0.0,0.0,1.7012220621109009,0.0,0.0,-0.4688301384449005,0.0,0.0,0.0003895640909249624
2026-06-27T14:37:29.689158,1782581699.687798,0.0,0.0,1.651831030845642,0.0,0.0,-0.4718725383281708,0.0,0.0,0.0003895640909249624
2026-06-27T14:37:29.798344,1782581699.7958002,0.0,0.0,1.600714087486267,0.0,0.0,-0.4746578633785248,0.0,0.0,0.0003895640909249624
2026-06-27T14:37:29.906524,1782581699.9038026,0.0,0.0,1.5493136644363403,0.0,0.0,-0.4771329462528229,0.0,0.0,0.0003895640909249624
2026-06-27T14:37:30.015722,1782581700.0118048,0.0,0.0,1.4976609945297241,0.0,0.0,-0.47933244705200195,0.0,0.0,0.0003895640909249624
2026-06-27T14:37:30.124257,1782581700.1168072,0.0,0.0,1.4472283124923706,0.0,0.0,-0.4812358021736145,0.0,0.0,0.0003895640909249624
2026-06-27T14:37:30.232389,1782581700.2218094,0.0,0.0,1.3966065645217896,0.0,0.0,-0.4829326868057251,0.0,0.0,0.0003895640909249624
2026-06-27T14:37:30.341609,1782581700.3298118,0.0,0.0,1.3443632125854492,0.0,0.0,-0.48448625206947327,0.0,0.0,0.0003895640909249624
2026-06-27T14:37:30.450819,1782581700.434814,0.0,0.0,1.2934197187423706,0.0,0.0,-0.4858306050300598,0.0,0.0,0.0003895640909249624
2026-06-27T14:37:30.559494,1782581700.5428162,0.0,0.0,1.2408809661865234,0.0,0.0,-0.4870615005493164,0.0,0.0,0.0003895640909249624
2026-06-27T14:37:30.668318,1782581700.6508186,0.0,0.0,1.1882169246673584,0.0,0.0,-0.488155335187912,0.0,0.0,0.0003895640909249624
2026-06-27T14:37:30.776990,1782581700.7588208,0.0,0.0,1.135441541671753,0.0,0.0,-0.4891274571418762,0.0,0.0,0.0003895640909249624
2026-06-27T14:37:30.886698,1782581700.8668232,0.0,0.0,1.0825670957565308,0.0,0.0,-0.48999127745628357,0.0,0.0,0.0003895640909249624
2026-06-27T14:37:30.994422,1782581700.9688253,0.0,0.0,1.0325490236282349,0.0,0.0,-0.4907186031341553,0.0,0.0,0.0003895640909249624
2026-06-27T14:37:31.103128,1782581701.0768278,0.0,0.0,0.9809868931770325,0.0,0.0,-0.4913873076438904,0.0,0.0,0.0003895640909249624
2026-06-27T14:37:31.212799,1782581701.18483,0.0,0.0,0.92640620470047,0.0,0.0,-0.49201542139053345,0.0,0.0,0.0003895640909249624
2026-06-27T14:37:31.321323,1782581701.289832,0.0,0.0,0.8747152090072632,0.0,0.0,-0.4925435781478882,0.0,0.0,0.0003895640909249624
2026-06-27T14:37:31.431566,1782581701.3978345,0.0,0.0,0.8214926719665527,0.0,0.0,-0.49302709102630615,0.0,0.0,0.0003895640909249624
2026-06-27T14:37:31.539669,1782581701.5058367,0.0,0.0,0.7682209610939026,0.0,0.0,-0.49345678091049194,0.0,0.0,0.0003895640909249624
2026-06-27T14:37:31.647888,1782581701.6108391,0.0,0.0,0.716387152671814,0.0,0.0,-0.49382859468460083,0.0,0.0,0.0003895640909249624
2026-06-27T14:37:31.757111,1782581701.7188413,0.0,0.0,0.6630339622497559,0.0,0.0,-0.49416881799697876,0.0,0.0,0.0003895640909249624
2026-06-27T14:37:31.865826,1782581701.8268437,0.0,0.0,0.6096459627151489,0.0,0.0,-0.49447154998779297,0.0,0.0,0.0003895640909249624
2026-06-27T14:37:31.974439,1782581701.934846,0.0,0.0,0.5562272071838379,0.0,0.0,-0.4947402775287628,0.0,0.0,0.0003895640909249624
2026-06-27T14:37:32.083500,1782581702.0428483,0.0,0.0,0.5086544156074524,0.0,0.0,-0.25692036747932434,0.0,0.0,0.0003895640909249624
2026-06-27T14:37:32.193266,1782581702.1508505,0.0,0.0,0.4997221529483795,0.0,0.0,0.006575700361281633,0.0,0.0,0.0003895640909249624
2026-06-27T14:37:32.303767,1782581702.2558527,0.0,0.0,0.4839324653148651,0.0,0.0,-0.46637749671936035,0.0,0.0,0.0003660852057615732
2026-06-27T14:37:32.410436,1782581702.3638551,0.0,0.0,0.39481285214424133,0.0,0.0,-1.181153655052185,0.0,0.0,0.0002683526932272814
2026-06-27T14:37:32.519690,1782581702.4688573,0.0,0.0,0.23523832857608795,0.0,0.0,-1.853554129600525,0.0,0.0,0.00014337009848308261
2026-06-27T14:37:32.628444,1782581702.5738597,0.0,0.0,0.006740502547472715,0.0,0.0,-2.4922256469726562,0.0,0.0,2.6353864799999034e-05
2026-06-27T14:37:32.736641,1782581702.6818619,0.0,0.0,-0.2959299683570862,0.0,0.0,-3.1044435501098633,0.0,0.0,-6.111102823991489e-05
2026-06-27T14:37:32.845758,1782581702.786864,0.0,0.0,-0.6509838700294495,0.0,0.0,-3.649747371673584,0.0,0.0,-0.00010509625160777719
2026-06-27T14:37:32.954993,1782581702.8948665,0.0,0.0,-1.0729918479919434,0.0,0.0,-4.155564308166504,0.0,0.0,-0.0001110587211371594
2026-06-27T14:37:33.063692,1782581702.9998686,0.0,0.0,-1.532759666442871,0.0,0.0,-4.5927934646606445,0.0,0.0,-8.994941655979889e-05
2026-06-27T14:37:33.171921,1782581703.107871,0.0,0.0,-2.0506038665771484,0.0,0.0,-4.987614154815674,0.0,0.0,-5.43440129263148e-05
2026-06-27T14:37:33.281746,1782581703.2158732,0.0,0.0,-2.60253643989563,0.0,0.0,-5.1672797203063965,0.0,0.0,-1.7742496613718194e-05
2026-06-27T14:37:33.390252,1782581703.3208754,0.0,0.0,-3.1454176902770996,0.0,0.0,-5.166493892669678,0.0,0.0,1.0316296126614406e-05
2026-06-27T14:37:33.499409,1782581703.4288778,0.0,0.0,-3.7025299072265625,0.0,0.0,-5.1498613357543945,0.0,0.0,2.70802371301525e-05
2026-06-27T14:37:33.606832,1782581703.53388,0.0,0.0,-4.242428302764893,0.0,0.0,-5.133925437927246,0.0,0.0,3.190623025007773e-05
2026-06-27T14:37:33.716762,1782581703.6388824,0.0,0.0,-4.780729293823242,0.0,0.0,-5.119464874267578,0.0,0.0,2.8013529325217285e-05
2026-06-27T14:37:33.824812,1782581703.7468846,0.0,0.0,-5.3329081535339355,0.0,0.0,-5.106093883514404,0.0,0.0,1.8750265694981565e-05
2026-06-27T14:37:33.933147,1782581703.854887,0.0,0.0,-5.883718013763428,0.0,0.0,-5.094103813171387,0.0,0.0,8.06545676297632e-06
2026-06-27T14:37:34.042151,1782581703.9628892,0.0,0.0,-6.433300971984863,0.0,0.0,-5.08335018157959,0.0,0.0,-9.914226586445952e-07
2026-06-27T14:37:34.150901,1782581704.0708916,0.0,0.0,-6.981783866882324,0.0,0.0,-5.073709011077881,0.0,0.0,-7.16027965351828e-06
2026-06-27T14:37:34.259759,1782581704.1788938,0.0,0.0,-7.5292816162109375,0.0,0.0,-5.065064430236816,0.0,0.0,-1.1150404683159338e-05
2026-06-27T14:37:34.368477,1782581704.2868962,0.0,0.0,-8.075895309448242,0.0,0.0,-5.057313919067383,0.0,0.0,-1.3684811513755259e-05
2026-06-27T14:37:34.476594,1782581704.3918984,0.0,0.0,-8.606563568115234,0.0,0.0,-5.0505475997924805,0.0,0.0,-1.2758862786894625e-05
2026-06-27T14:37:34.586370,1782581704.4999006,0.0,0.0,-9.151691436767578,0.0,0.0,-5.0442986488342285,0.0,0.0,-1.0220322965434555e-05
2026-06-27T14:37:34.695056,1782581704.607903,0.0,0.0,-9.69618034362793,0.0,0.0,-5.038693904876709,0.0,0.0,-8.534498301628116e-06
2026-06-27T14:37:34.803286,1782581704.7099051,0.0,0.0,-10.209890365600586,0.0,0.0,-5.033937931060791,0.0,0.0,-7.530793816581071e-06
2026-06-27T14:37:34.912051,1782581704.8179076,0.0,0.0,-10.753317832946777,0.0,0.0,-5.029407978057861,0.0,0.0,-6.857249023909409e-06
2026-06-27T14:37:35.021245,1782581704.9229097,0.0,0.0,-11.281206130981445,0.0,0.0,-5.025453567504883,0.0,0.0,-6.207372036288829e-06
2026-06-27T14:37:35.131009,1782581705.0339122,0.0,0.0,-11.83883285522461,0.0,0.0,-5.021705150604248,0.0,0.0,-5.5203587904297315e-06
2026-06-27T14:37:35.239708,1782581705.1389143,0.0,0.0,-12.36595344543457,0.0,0.0,-5.018527507781982,0.0,0.0,-4.870481395698154e-06
2026-06-27T14:37:35.348421,1782581705.2469165,0.0,0.0,-12.907804489135742,0.0,0.0,-5.015592575073242,0.0,0.0,-4.202036075402816e-06
2026-06-27T14:37:35.457185,1782581705.351919,0.0,0.0,-13.434316635131836,0.0,0.0,-5.013031005859375,0.0,0.0,-3.552158680671239e-06
2026-06-27T14:37:35.565560,1782581705.453921,0.0,0.0,-13.945540428161621,0.0,0.0,-5.0107903480529785,0.0,0.0,-2.920854707501912e-06
2026-06-27T14:37:35.675034,1782581705.5589232,0.0,0.0,-14.471573829650879,0.0,0.0,-5.0087127685546875,0.0,0.0,-2.270984437212822e-06
2026-06-27T14:37:35.785253,1782581705.6639254,0.0,0.0,-14.997401237487793,0.0,0.0,-5.006844520568848,0.0,0.0,-1.6211141669237324e-06
2026-06-27T14:37:35.892005,1782581705.7689278,0.0,0.0,-15.523039817810059,0.0,0.0,-5.005165100097656,0.0,0.0,-9.712438966346431e-07
2026-06-27T14:37:36.002746,1782581705.87993,0.0,0.0,-16.07853126525879,0.0,0.0,-5.003573417663574,0.0,0.0,-2.8423680832941225e-07
2026-06-27T14:37:36.110687,1782581705.9849324,0.0,0.0,-16.603845596313477,0.0,0.0,-5.002223491668701,0.0,0.0,3.3738138350179736e-07
2026-06-27T14:37:36.219808,1782581706.0929346,0.0,0.0,-17.14402961730957,0.0,0.0,-5.000977039337158,0.0,0.0,7.031066489918e-07
2026-06-27T14:37:36.328612,1782581706.197937,0.0,0.0,-17.669086456298828,0.0,0.0,-4.999888896942139,0.0,0.0,8.72940737428466e-07
2026-06-27T14:37:36.436873,1782581706.3089392,0.0,0.0,-18.224027633666992,0.0,0.0,-4.998858451843262,0.0,0.0,9.685112658300794e-07
2026-06-27T14:37:36.545620,1782581706.4139416,0.0,0.0,-18.748872756958008,0.0,0.0,-4.997983455657959,0.0,0.0,1.0156449488766228e-06
2026-06-27T14:37:36.655372,1782581706.5219438,0.0,0.0,-19.288619995117188,0.0,0.0,-4.997175693511963,0.0,0.0,1.04475175687738e-06
2026-06-27T14:37:36.763453,1782581706.629946,0.0,0.0,-19.82828712463379,0.0,0.0,-4.996452331542969,0.0,0.0,1.0302688848576176e-06
2026-06-27T14:37:36.872529,1782581706.7349484,0.0,0.0,-20.35289192199707,0.0,0.0,-4.99582052230835,0.0,0.0,9.926447040865257e-07
2026-06-27T14:37:36.982481,1782581706.8429506,0.0,0.0,-20.892419815063477,0.0,0.0,-4.995236873626709,0.0,0.0,9.539455467219742e-07
2026-06-27T14:37:37.092203,1782581706.9389527,0.0,0.0,-21.371952056884766,0.0,0.0,-4.99476957321167,0.0,0.0,9.195462957312617e-07
2026-06-27T14:37:37.199425,1782581707.0409548,0.0,0.0,-21.881412506103516,0.0,0.0,-4.994319438934326,0.0,0.0,8.829970915536297e-07
2026-06-27T14:37:37.308687,1782581707.1489573,0.0,0.0,-22.420778274536133,0.0,0.0,-4.99389123916626,0.0,0.0,8.44297476189204e-07
2026-06-27T14:37:37.417886,1782581707.2569594,0.0,0.0,-22.960111618041992,0.0,0.0,-4.993507385253906,0.0,0.0,8.055964868251559e-07
2026-06-27T14:37:37.525523,1782581707.3619618,0.0,0.0,-23.48442268371582,0.0,0.0,-4.993172645568848,0.0,0.0,7.679705249434426e-07
2026-06-27T14:37:37.635224,1782581707.469964,0.0,0.0,-24.023679733276367,0.0,0.0,-4.992863178253174,0.0,0.0,7.292695355793944e-07
2026-06-27T14:37:37.743433,1782581707.5779665,0.0,0.0,-24.562902450561523,0.0,0.0,-4.992585182189941,0.0,0.0,6.905685462153464e-07
2026-06-27T14:37:37.852628,1782581707.6829686,0.0,0.0,-25.08713722229004,0.0,0.0,-4.992342948913574,0.0,0.0,6.52942584333633e-07
2026-06-27T14:37:37.961156,1782581707.7909708,0.0,0.0,-25.626291275024414,0.0,0.0,-4.9921183586120605,0.0,0.0,6.142415949695849e-07
2026-06-27T14:37:38.070368,1782581707.8989732,0.0,0.0,-26.16544532775879,0.0,0.0,-4.991918563842773,0.0,0.0,5.755406056055368e-07
2026-06-27T14:37:38.179676,1782581708.0069754,0.0,0.0,-26.70459747314453,0.0,0.0,-4.991738796234131,0.0,0.0,5.368396162414888e-07
2026-06-27T14:37:38.288401,1782581708.1149778,0.0,0.0,-27.243682861328125,0.0,0.0,-4.9915771484375,0.0,0.0,4.981386268774407e-07
2026-06-27T14:37:38.396917,1782581708.22298,0.0,0.0,-27.78276824951172,0.0,0.0,-4.991432189941406,0.0,0.0,4.5943763751339265e-07
2026-06-27T14:37:38.504729,1782581708.3309824,0.0,0.0,-28.321853637695312,0.0,0.0,-4.991302490234375,0.0,0.0,4.2073680081596926e-07
2026-06-27T14:37:38.614463,1782581708.4389846,0.0,0.0,-28.860939025878906,0.0,0.0,-4.991184234619141,0.0,0.0,3.8203672745166945e-07
2026-06-27T14:37:38.722217,1782581708.543987,0.0,0.0,-29.385034561157227,0.0,0.0,-4.991084098815918,0.0,0.0,3.444116561252669e-07
2026-06-27T14:37:38.830944,1782581708.6489892,0.0,0.0,-29.90907859802246,0.0,0.0,-4.990993022918701,0.0,0.0,3.0678658479886425e-07
2026-06-27T14:37:38.941685,1782581708.7569914,0.0,0.0,-30.448095321655273,0.0,0.0,-4.990907192230225,0.0,0.0,2.6808651143456444e-07
2026-06-27T14:37:39.049882,1782581708.8649938,0.0,0.0,-30.987112045288086,0.0,0.0,-4.990832328796387,0.0,0.0,2.2938643807026465e-07
2026-06-27T14:37:39.158063,1782581708.972996,0.0,0.0,-31.5261287689209,0.0,0.0,-4.9907636642456055,0.0,0.0,1.9068608481715289e-07
2026-06-27T14:37:39.266729,1782581709.0809984,0.0,0.0,-32.06514358520508,0.0,0.0,-4.990700721740723,0.0,0.0,1.5198555345297894e-07
2026-06-27T14:37:39.375938,1782581709.1890006,0.0,0.0,-32.60416030883789,0.0,0.0,-4.9906487464904785,0.0,0.0,1.13285022088805e-07
2026-06-27T14:37:39.485046,1782581709.297003,0.0,0.0,-33.1431770324707,0.0,0.0,-4.9906005859375,0.0,0.0,7.458468155791193e-08
2026-06-27T14:37:39.593241,1782581709.4050052,0.0,0.0,-33.682193756103516,0.0,0.0,-4.99055814743042,0.0,0.0,3.588432512424548e-08
2026-06-27T14:37:39.702239,1782581709.5130076,0.0,0.0,-34.22121047973633,0.0,0.0,-4.990520477294922,0.0,0.0,-2.8160885594052494e-09
2026-06-27T14:37:39.810898,1782581709.6210098,0.0,0.0,-34.76022720336914,0.0,0.0,-4.990484714508057,0.0,0.0,-4.151650224305598e-08
2026-06-27T14:37:39.921606,1782581709.7290123,0.0,0.0,-35.29924392700195,0.0,0.0,-4.990450382232666,0.0,0.0,-8.021683959339435e-08
2026-06-27T14:37:40.029241,1782581709.8340144,0.0,0.0,-35.82328796386719,0.0,0.0,-4.990419864654541,0.0,0.0,-1.1784219716971828e-07
2026-06-27T14:37:40.137920,1782581709.9420168,0.0,0.0,-36.3623046875,0.0,0.0,-4.99039363861084,0.0,0.0,-1.5654272853389222e-07
2026-06-27T14:37:40.247119,1782581710.050019,0.0,0.0,-36.90132141113281,0.0,0.0,-4.990370750427246,0.0,0.0,-1.9524325989806616e-07
2026-06-27T14:37:40.356378,1782581710.1580215,0.0,0.0,-37.440338134765625,0.0,0.0,-4.99035120010376,0.0,0.0,-2.3394353681786558e-07
2026-06-27T14:37:40.464567,1782581710.2630236,0.0,0.0,-37.96438217163086,0.0,0.0,-4.99033260345459,0.0,0.0,-2.7156860814426816e-07
2026-06-27T14:37:40.574363,1782581710.3680258,0.0,0.0,-38.488426208496094,0.0,0.0,-4.990315914154053,0.0,0.0,-3.091936794706708e-07
2026-06-27T14:37:40.682595,1782581710.4760282,0.0,0.0,-39.027442932128906,0.0,0.0,-4.990298748016357,0.0,0.0,-3.478937528349706e-07
2026-06-27T14:37:40.791617,1782581710.5840304,0.0,0.0,-39.56645965576172,0.0,0.0,-4.990281581878662,0.0,0.0,-3.865938261992704e-07
2026-06-27T14:37:40.900812,1782581710.6920328,0.0,0.0,-40.10547637939453,0.0,0.0,-4.9902663230896,0.0,0.0,-4.252938995635702e-07
2026-06-27T14:37:41.010517,1782581710.800035,0.0,0.0,-40.644493103027344,0.0,0.0,-4.9902544021606445,0.0,0.0,-4.639948380387434e-07
2026-06-27T14:37:41.118966,1782581710.8990371,0.0,0.0,-41.13859176635742,0.0,0.0,-4.990245819091797,0.0,0.0,-4.994707449557874e-07
2026-06-27T14:37:41.226666,1782581711.0070395,0.0,0.0,-41.677608489990234,0.0,0.0,-4.990235805511475,0.0,0.0,-5.381717343198355e-07
2026-06-27T14:37:41.335751,1782581711.1150417,0.0,0.0,-42.21662521362305,0.0,0.0,-4.990226745605469,0.0,0.0,-5.768727236838836e-07
2026-06-27T14:37:41.444558,1782581711.2230442,0.0,0.0,-42.75564193725586,0.0,0.0,-4.990218639373779,0.0,0.0,-6.155737130479316e-07
2026-06-27T14:37:41.553268,1782581711.3310463,0.0,0.0,-43.29465866088867,0.0,0.0,-4.990212917327881,0.0,0.0,-6.542747024119797e-07
2026-06-27T14:37:41.662457,1782581711.4390488,0.0,0.0,-43.833675384521484,0.0,0.0,-4.990206241607666,0.0,0.0,-6.929756917760278e-07
2026-06-27T14:37:41.771656,1782581711.544051,0.0,0.0,-44.35771942138672,0.0,0.0,-4.990200042724609,0.0,0.0,-7.306016536577412e-07
2026-06-27T14:37:41.880331,1782581711.6520534,0.0,0.0,-44.89673614501953,0.0,0.0,-4.990195274353027,0.0,0.0,-7.693026430217892e-07
2026-06-27T14:37:41.989517,1782581711.7600555,0.0,0.0,-45.435752868652344,0.0,0.0,-4.9901909828186035,0.0,0.0,-8.080036323858374e-07
2026-06-27T14:37:42.097200,1782581711.868058,0.0,0.0,-45.95979690551758,0.0,0.0,-4.990187168121338,0.0,0.0,-8.456295942675507e-07
2026-06-27T14:37:42.206379,1782581711.9760602,0.0,0.0,-46.51378631591797,0.0,0.0,-4.990182399749756,0.0,0.0,-8.854041353365613e-07
2026-06-27T14:37:42.315623,1782581712.0840626,0.0,0.0,-47.05280303955078,0.0,0.0,-4.990178108215332,0.0,0.0,-9.241032927011128e-07
2026-06-27T14:37:42.424487,1782581712.1920648,0.0,0.0,-47.591819763183594,0.0,0.0,-4.99017333984375,0.0,0.0,-9.628024500656644e-07
2026-06-27T14:37:42.533631,1782581712.3000672,0.0,0.0,-48.130836486816406,0.0,0.0,-4.990169525146484,0.0,0.0,-1.001501607430216e-06
2026-06-27T14:37:42.643390,1782581712.4080694,0.0,0.0,-48.66985321044922,0.0,0.0,-4.990166664123535,0.0,0.0,-1.0402007647947674e-06
2026-06-27T14:37:42.751092,1782581712.5130715,0.0,0.0,-49.19389724731445,0.0,0.0,-4.990164756774902,0.0,0.0,-1.0778249455658593e-06
2026-06-27T14:37:42.860832,1782581712.621074,0.0,0.0,-49.732913970947266,0.0,0.0,-4.990160942077637,0.0,0.0,-1.116524102930411e-06
2026-06-27T14:37:42.969029,1782581712.7260761,0.0,0.0,-50.2569580078125,0.0,0.0,-4.990159034729004,0.0,0.0,-1.1541482837015027e-06
2026-06-27T14:37:43.078099,1782581712.8340786,0.0,0.0,-50.79597473144531,0.0,0.0,-4.990157604217529,0.0,0.0,-1.1928474410660542e-06
2026-06-27T14:37:43.187206,1782581712.9420807,0.0,0.0,-51.334991455078125,0.0,0.0,-4.9901556968688965,0.0,0.0,-1.2315465984306057e-06
2026-06-27T14:37:43.295925,1782581713.0500832,0.0,0.0,-51.874000549316406,0.0,0.0,-4.990152835845947,0.0,0.0,-1.2702457557951573e-06
2026-06-27T14:37:43.404950,1782581713.1580853,0.0,0.0,-52.412879943847656,0.0,0.0,-4.9901509284973145,0.0,0.0,-1.3089449131597088e-06
2026-06-27T14:37:43.513836,1782581713.2660878,0.0,0.0,-52.951759338378906,0.0,0.0,-4.990147590637207,0.0,0.0,-1.3476440705242603e-06
2026-06-27T14:37:43.621907,1782581713.37409,0.0,0.0,-53.490638732910156,0.0,0.0,-4.990146160125732,0.0,0.0,-1.3863432278888122e-06
2026-06-27T14:37:43.731646,1782581713.4820924,0.0,0.0,-54.029518127441406,0.0,0.0,-4.990144729614258,0.0,0.0,-1.4250423852533637e-06
2026-06-27T14:37:43.840515,1782581713.5870945,0.0,0.0,-54.553428649902344,0.0,0.0,-4.990142345428467,0.0,0.0,-1.4626665660244556e-06
2026-06-27T14:37:43.949855,1782581713.6920967,0.0,0.0,-55.07733917236328,0.0,0.0,-4.990140438079834,0.0,0.0,-1.5002907467955473e-06
2026-06-27T14:37:44.056850,1782581713.8000991,0.0,0.0,-55.61621856689453,0.0,0.0,-4.990139007568359,0.0,0.0,-1.5389899041600988e-06
2026-06-27T14:37:44.166548,1782581713.9081013,0.0,0.0,-56.15509796142578,0.0,0.0,-4.990139007568359,0.0,0.0,-1.5776890615246505e-06
2026-06-27T14:37:44.276111,1782581714.0131037,0.0,0.0,-56.67900848388672,0.0,0.0,-4.990138053894043,0.0,0.0,-1.6153132422957422e-06
2026-06-27T14:37:44.384367,1782581714.121106,0.0,0.0,-57.21788787841797,0.0,0.0,-4.990136623382568,0.0,0.0,-1.6540123996602937e-06
2026-06-27T14:37:44.493043,1782581714.2291083,0.0,0.0,-57.75676727294922,0.0,0.0,-4.990135669708252,0.0,0.0,-1.6927115570248452e-06
2026-06-27T14:37:44.602105,1782581714.3371105,0.0,0.0,-58.29564666748047,0.0,0.0,-4.9901323318481445,0.0,0.0,-1.7314107143893969e-06
2026-06-27T14:37:44.711371,1782581714.448113,0.0,0.0,-58.84949493408203,0.0,0.0,-4.990131378173828,0.0,0.0,-1.7711848483474082e-06
2026-06-27T14:37:44.820635,1782581714.5561152,0.0,0.0,-59.38837432861328,0.0,0.0,-4.990129470825195,0.0,0.0,-1.8098840057119597e-06
2026-06-27T14:37:44.929376,1782581714.6581173,0.0,0.0,-59.897315979003906,0.0,0.0,-4.990129470825195,0.0,0.0,-1.8464332098895918e-06
2026-06-27T14:37:45.036782,1782581714.7631197,0.0,0.0,-60.421226501464844,0.0,0.0,-4.9901275634765625,0.0,0.0,-1.8840573906606835e-06
2026-06-27T14:37:45.146278,1782581714.871122,0.0,0.0,-60.960105895996094,0.0,0.0,-4.9901275634765625,0.0,0.0,-1.922756548025235e-06
2026-06-27T14:37:45.255962,1782581714.9791243,0.0,0.0,-61.498985290527344,0.0,0.0,-4.990126609802246,0.0,0.0,-1.9614557053897867e-06
2026-06-27T14:37:45.365723,1782581715.0841265,0.0,0.0,-62.02289581298828,0.0,0.0,-4.9901251792907715,0.0,0.0,-1.9990798861608784e-06
2026-06-27T14:37:45.474429,1782581715.1921287,0.0,0.0,-62.56177520751953,0.0,0.0,-4.990124702453613,0.0,0.0,-2.03777904352543e-06
2026-06-27T14:37:45.583152,1782581715.300131,0.0,0.0,-63.10065460205078,0.0,0.0,-4.9901227951049805,0.0,0.0,-2.0764782008899814e-06
2026-06-27T14:37:45.691862,1782581715.4081333,0.0,0.0,-63.63953399658203,0.0,0.0,-4.990121364593506,0.0,0.0,-2.115177358254533e-06
2026-06-27T14:37:45.800099,1782581715.5131357,0.0,0.0,-64.16344451904297,0.0,0.0,-4.990119934082031,0.0,0.0,-2.152801539025625e-06
2026-06-27T14:37:45.908735,1782581715.6241379,0.0,0.0,-64.71729278564453,0.0,0.0,-4.990119457244873,0.0,0.0,-2.1925756729836367e-06
2026-06-27T14:37:46.017922,1782581715.7291403,0.0,0.0,-65.24120330810547,0.0,0.0,-4.990118026733398,0.0,0.0,-2.2301998537547284e-06
2026-06-27T14:37:46.127117,1782581715.8371425,0.0,0.0,-65.78008270263672,0.0,0.0,-4.99011754989624,0.0,0.0,-2.26889901111928e-06
2026-06-27T14:37:46.235799,1782581715.945145,0.0,0.0,-66.31896209716797,0.0,0.0,-4.990116596221924,0.0,0.0,-2.307598168483831e-06
2026-06-27T14:37:46.345078,1782581716.053147,0.0,0.0,-66.85784149169922,0.0,0.0,-4.990114688873291,0.0,0.0,-2.346297325848383e-06
2026-06-27T14:37:46.453299,1782581716.1581495,0.0,0.0,-67.38175201416016,0.0,0.0,-4.990114688873291,0.0,0.0,-2.383921506619475e-06
2026-06-27T14:37:46.561678,1782581716.2661517,0.0,0.0,-67.9206314086914,0.0,0.0,-4.990113258361816,0.0,0.0,-2.4226206639840265e-06
2026-06-27T14:37:46.670378,1782581716.374154,0.0,0.0,-68.45951080322266,0.0,0.0,-4.990111351013184,0.0,0.0,-2.4613198213485776e-06
2026-06-27T14:37:46.780107,1782581716.4821563,0.0,0.0,-68.9983901977539,0.0,0.0,-4.990109920501709,0.0,0.0,-2.500018978713129e-06
2026-06-27T14:37:46.888521,1782581716.5901587,0.0,0.0,-69.53726959228516,0.0,0.0,-4.990109443664551,0.0,0.0,-2.5387181360776806e-06
2026-06-27T14:37:46.997224,1782581716.6951609,0.0,0.0,-70.0611801147461,0.0,0.0,-4.990108489990234,0.0,0.0,-2.5763423168487727e-06
2026-06-27T14:37:47.105400,1782581716.803163,0.0,0.0,-70.60005950927734,0.0,0.0,-4.990108013153076,0.0,0.0,-2.6150414742133242e-06
2026-06-27T14:37:47.214084,1782581716.9111655,0.0,0.0,-71.1389389038086,0.0,0.0,-4.990106582641602,0.0,0.0,-2.653740631577876e-06
2026-06-27T14:37:47.323262,1782581717.0161676,0.0,0.0,-71.66284942626953,0.0,0.0,-4.990105628967285,0.0,0.0,-2.691364812348968e-06
2026-06-27T14:37:47.432983,1782581717.12417,0.0,0.0,-72.20172882080078,0.0,0.0,-4.990104675292969,0.0,0.0,-2.7300639697135194e-06
2026-06-27T14:37:47.541666,1782581717.2321723,0.0,0.0,-72.74060821533203,0.0,0.0,-4.9901041984558105,0.0,0.0,-2.7687631270780713e-06
2026-06-27T14:37:47.649900,1782581717.3371744,0.0,0.0,-73.26451873779297,0.0,0.0,-4.990103244781494,0.0,0.0,-2.806387307849163e-06
2026-06-27T14:37:47.759406,1782581717.4451768,0.0,0.0,-73.80339813232422,0.0,0.0,-4.990101337432861,0.0,0.0,-2.8450864652137145e-06
2026-06-27T14:37:47.867253,1782581717.553179,0.0,0.0,-74.34227752685547,0.0,0.0,-4.990099906921387,0.0,0.0,-2.883785622578266e-06
2026-06-27T14:37:47.976524,1782581717.6611814,0.0,0.0,-74.88115692138672,0.0,0.0,-4.99009895324707,0.0,0.0,-2.922484779942818e-06
2026-06-27T14:37:48.085723,1782581717.7691836,0.0,0.0,-75.42003631591797,0.0,0.0,-4.990097999572754,0.0,0.0,-2.961183937307369e-06
2026-06-27T14:37:48.194596,1782581717.874186,0.0,0.0,-75.9439468383789,0.0,0.0,-4.990096569061279,0.0,0.0,-2.9988081180784607e-06
2026-06-27T14:37:48.303325,1782581717.9791882,0.0,0.0,-76.46785736083984,0.0,0.0,-4.990096569061279,0.0,0.0,-3.036432298849553e-06
2026-06-27T14:37:48.412423,1782581718.0901906,0.0,0.0,-77.0217056274414,0.0,0.0,-4.990095615386963,0.0,0.0,-3.0762064328075645e-06
2026-06-27T14:37:48.520287,1782581718.1951928,0.0,0.0,-77.54561614990234,0.0,0.0,-4.990094184875488,0.0,0.0,-3.113830613578656e-06
2026-06-27T14:37:48.629495,1782581718.3031952,0.0,0.0,-78.0844955444336,0.0,0.0,-4.990093231201172,0.0,0.0,-3.1525297709432085e-06
2026-06-27T14:37:48.738172,1782581718.4111974,0.0,0.0,-78.62337493896484,0.0,0.0,-4.990092754364014,0.0,0.0,-3.191228928307759e-06
2026-06-27T14:37:48.846856,1782581718.5191998,0.0,0.0,-79.1622543334961,0.0,0.0,-4.990091323852539,0.0,0.0,-3.229928085672311e-06
2026-06-27T14:37:48.956396,1782581718.627202,0.0,0.0,-79.70113372802734,0.0,0.0,-4.990089416503906,0.0,0.0,-3.268627243036863e-06
2026-06-27T14:37:49.065014,1782581718.7352045,0.0,0.0,-80.2400131225586,0.0,0.0,-4.990088939666748,0.0,0.0,-3.3073264004014146e-06
2026-06-27T14:37:49.173789,1782581718.8402066,0.0,0.0,-80.76392364501953,0.0,0.0,-4.990087985992432,0.0,0.0,-3.3449505811725062e-06
2026-06-27T14:37:49.282702,1782581718.9482088,0.0,0.0,-81.30280303955078,0.0,0.0,-4.990086555480957,0.0,0.0,-3.3836497385370577e-06
2026-06-27T14:37:49.392094,1782581719.0562112,0.0,0.0,-81.84168243408203,0.0,0.0,-4.990086078643799,0.0,0.0,-3.422350117234607e-06
2026-06-27T14:37:49.499562,1782581719.1612134,0.0,0.0,-82.36559295654297,0.0,0.0,-4.990084171295166,0.0,0.0,-3.4599814224481855e-06
2026-06-27T14:37:49.607258,1782581719.2722158,0.0,0.0,-82.91944122314453,0.0,0.0,-4.990084171295166,0.0,0.0,-3.4997630879596824e-06
2026-06-27T14:37:49.716512,1782581719.377218,0.0,0.0,-83.44335174560547,0.0,0.0,-4.99008321762085,0.0,0.0,-3.5373943931732607e-06
2026-06-27T14:37:49.825715,1782581719.4882205,0.0,0.0,-83.99720001220703,0.0,0.0,-4.990082263946533,0.0,0.0,-3.5771760586847575e-06
2026-06-27T14:37:49.934437,1782581719.5932226,0.0,0.0,-84.52111053466797,0.0,0.0,-4.9900803565979,0.0,0.0,-3.614807363898336e-06
2026-06-27T14:37:50.043673,1782581719.701225,0.0,0.0,-85.05998992919922,0.0,0.0,-4.990079402923584,0.0,0.0,-3.6535138492608734e-06
2026-06-27T14:37:50.153392,1782581719.8092272,0.0,0.0,-85.59886932373047,0.0,0.0,-4.990078449249268,0.0,0.0,-3.6922203346234123e-06
2026-06-27T14:37:50.261169,1782581719.9142294,0.0,0.0,-86.1227798461914,0.0,0.0,-4.990077495574951,0.0,0.0,-3.7298516398369893e-06
2026-06-27T14:37:50.370385,1782581720.0222318,0.0,0.0,-86.66165924072266,0.0,0.0,-4.990077018737793,0.0,0.0,-3.7685581251995273e-06
2026-06-27T14:37:50.479618,1782581720.130234,0.0,0.0,-87.2005386352539,0.0,0.0,-4.990076065063477,0.0,0.0,-3.8072646105620658e-06
2026-06-27T14:37:50.587904,1782581720.2382364,0.0,0.0,-87.73941802978516,0.0,0.0,-4.99007511138916,0.0,0.0,-3.845971095924603e-06
2026-06-27T14:37:50.696632,1782581720.3432386,0.0,0.0,-88.2633285522461,0.0,0.0,-4.9900736808776855,0.0,0.0,-3.883602401138182e-06
2026-06-27T14:37:50.805883,1782581720.451241,0.0,0.0,-88.80220794677734,0.0,0.0,-4.990072727203369,0.0,0.0,-3.922308886500719e-06
2026-06-27T14:37:50.915095,1782581720.5592432,0.0,0.0,-89.3410873413086,0.0,0.0,-4.9900712966918945,0.0,0.0,-3.961015371863257e-06
2026-06-27T14:37:51.023789,1782581720.6672456,0.0,0.0,-89.87996673583984,0.0,0.0,-4.990070819854736,0.0,0.0,-3.999721857225794e-06
2026-06-27T14:37:51.132496,1782581720.7752478,0.0,0.0,-90.4188461303711,0.0,0.0,-4.99006986618042,0.0,0.0,-4.038428342588332e-06
2026-06-27T14:37:51.241213,1782581720.8832502,0.0,0.0,-90.95772552490234,0.0,0.0,-4.990068435668945,0.0,0.0,-4.07713482795087e-06
2026-06-27T14:37:51.350953,1782581720.9882524,0.0,0.0,-91.48163604736328,0.0,0.0,-4.990067958831787,0.0,0.0,-4.114766133164449e-06
2026-06-27T14:37:51.460712,1782581721.0962548,0.0,0.0,-92.02051544189453,0.0,0.0,-4.9900665283203125,0.0,0.0,-4.153472618526986e-06
2026-06-27T14:37:51.567902,1782581721.201257,0.0,0.0,-92.54442596435547,0.0,0.0,-4.990065574645996,0.0,0.0,-4.191103923740565e-06
2026-06-27T14:37:51.676971,1782581721.3062592,0.0,0.0,-93.0683364868164,0.0,0.0,-4.99006462097168,0.0,0.0,-4.228735228954143e-06
2026-06-27T14:37:51.785752,1782581721.4142616,0.0,0.0,-93.60721588134766,0.0,0.0,-4.990063667297363,0.0,0.0,-4.2674417143166805e-06
2026-06-27T14:37:51.894469,1782581721.5192637,0.0,0.0,-94.1311264038086,0.0,0.0,-4.990062713623047,0.0,0.0,-4.305073019530259e-06
2026-06-27T14:37:52.004281,1782581721.621266,0.0,0.0,-94.64006805419922,0.0,0.0,-4.9900617599487305,0.0,0.0,-4.341629144594878e-06
2026-06-27T14:37:52.112516,1782581721.7292683,0.0,0.0,-95.17894744873047,0.0,0.0,-4.990060806274414,0.0,0.0,-4.3803356299574155e-06
2026-06-27T14:37:52.221202,1782581721.8372705,0.0,0.0,-95.71782684326172,0.0,0.0,-4.990059852600098,0.0,0.0,-4.419042115319954e-06
2026-06-27T14:37:52.330869,1782581721.945273,0.0,0.0,-96.25670623779297,0.0,0.0,-4.990058422088623,0.0,0.0,-4.4577486006824915e-06
2026-06-27T14:37:52.439065,1782581722.053275,0.0,0.0,-96.79558563232422,0.0,0.0,-4.990056991577148,0.0,0.0,-4.496455086045029e-06
2026-06-27T14:37:52.548271,1782581722.1612775,0.0,0.0,-97.33446502685547,0.0,0.0,-4.99005651473999,0.0,0.0,-4.535161571407567e-06
2026-06-27T14:37:52.656950,1782581722.2692797,0.0,0.0,-97.87334442138672,0.0,0.0,-4.990055561065674,0.0,0.0,-4.573868056770105e-06
2026-06-27T14:37:52.765600,1782581722.3772821,0.0,0.0,-98.41222381591797,0.0,0.0,-4.990054607391357,0.0,0.0,-4.612574542132642e-06
2026-06-27T14:37:52.874802,1782581722.4852843,0.0,0.0,-98.95110321044922,0.0,0.0,-4.990053653717041,0.0,0.0,-4.65128102749518e-06
2026-06-27T14:37:52.983494,1782581722.5932868,0.0,0.0,-99.47501373291016,0.0,0.0,-4.990052223205566,0.0,0.0,-4.688912332708759e-06
2026-06-27T14:37:53.092191,1782581722.698289,0.0,0.0,-99.9989242553711,0.0,0.0,-4.99005126953125,0.0,0.0,-4.726543637922337e-06
2026-06-27T14:37:53.200910,1782581722.803291,4.329697731009219e-06,-7.387697678495897e-06,-100.52587890625,0.00023831352882552892,-0.000400255317799747,-4.739516735076904,-0.12558463328701397,-0.08088070762519725,-1.2847312056098
2026-06-27T14:37:53.310552,1782581722.9112935,0.00015933548274915665,-0.0002570989017840475,-101.02848052978516,0.0034406352788209915,-0.005489271134138107,-4.589930057525635,-0.5200727664633544,-0.4122888091886233,-6.014601513263572
2026-06-27T14:37:53.419717,1782581723.0192957,0.0009730061865411699,-0.0015446064062416553,-101.52156066894531,0.012872586026787758,-0.02028733119368553,-4.55959939956665,-0.9197551785177507,-0.9586103892326995,-13.573561285454948
2026-06-27T14:37:53.528727,1782581723.127298,0.0032374553848057985,-0.005098741967231035,-102.0168228149414,0.030545145273208618,-0.047806266695261,-4.625948429107666,-1.1315109053309527,-1.688632473216629,-23.36502104293252
2026-06-27T14:37:53.637238,1782581723.2323003,0.007732917554676533,-0.01211250014603138,-102.50909423828125,0.05657947063446045,-0.0880560353398323,-4.7597551345825195,-1.0397425805352796,-2.5113916937478598,-34.51941218856016
2026-06-27T14:37:53.746007,1782581723.3403027,0.01581798493862152,-0.024657653644680977,-103.0366439819336,0.09375810623168945,-0.14513948559761047,-4.981947422027588,-0.5972750214129762,-3.372835268893914,-46.79292278129346
2026-06-27T14:37:53.855141,1782581723.448305,0.027863886207342148,-0.043266765773296356,-103.5726547241211,0.12926840782165527,-0.1993606835603714,-4.910073280334473,0.06194776778192212,-4.153907438548552,-57.56961327286364
2026-06-27T14:37:53.963773,1782581723.5563073,0.043834295123815536,-0.06785396486520767,-104.09355926513672,0.16711558401584625,-0.25687283277511597,-4.72666072845459,0.7541489007512364,-4.820712184738687,-65.47833113351028
2026-06-27T14:37:54.072204,1782581723.6613095,0.06353110820055008,-0.0980767235159874,-104.57958221435547,0.20919670164585114,-0.3204493820667267,-4.534613609313965,1.2975053474922738,-5.392550699586093,-69.9681332637594
2026-06-27T14:37:54.181396,1782581723.772312,0.08962681144475937,-0.13796815276145935,-105.0740737915039,0.26286935806274414,-0.4010504186153412,-4.390266418457031,1.596722924222718,-5.96776806177601,-71.27551002852682
2026-06-27T14:37:54.289682,1782581723.877314,0.12041814625263214,-0.18484953045845032,-105.5325698852539,0.3259410262107849,-0.4953215718269348,-4.365429401397705,1.5614557814710306,-6.529037385542097,-69.65228059831394
2026-06-27T14:37:54.397917,1782581723.9853163,0.15985168516635895,-0.24465419352054596,-106.00985717773438,0.4074499011039734,-0.616812527179718,-4.504270076751709,1.2225930825649978,-7.121378342718675,-65.88863645456024
2026-06-27T14:37:54.506413,1782581724.0933187,0.2091331034898758,-0.3191264867782593,-106.51216888427734,0.5065647959709167,-0.764366626739502,-4.801495552062988,0.6838985669566561,-7.713938105954556,-61.18713923678209
2026-06-27T14:37:54.615591,1782581724.201321,0.2684476971626282,-0.4085324704647064,-107.03300476074219,0.5895114541053772,-0.887816309928894,-4.801205635070801,0.10880901130482727,-8.319907098005597,-56.85768201107999
2026-06-27T14:37:54.725035,1782581724.3093233,0.3364022970199585,-0.510798990726471,-107.54573822021484,0.6693662405014038,-1.0067061185836792,-4.687702178955078,-0.36148881858359033,-8.953464277145306,-53.79894988793003
2026-06-27T14:37:54.833228,1782581724.4143255,0.4109143018722534,-0.6228030920028687,-108.03103637695312,0.7505527138710022,-1.1276851892471313,-4.552670955657959,-0.633651661367032,-9.580483422409552,-52.34291094410463
2026-06-27T14:37:54.942896,1782581724.522328,0.4966603219509125,-0.7515832781791687,-108.51431274414062,0.8379607200622559,-1.258083701133728,-4.393594741821289,-0.6978321603061054,-10.236198431554039,-52.25286094470828
2026-06-27T14:37:55.051577,1782581724.63033,0.5920284390449524,-0.8947264552116394,-108.9791488647461,0.9285984635353088,-1.3934593200683594,-4.210096836090088,-0.5770947408550492,-10.895124500443357,-53.15249397512696
2026-06-27T14:37:55.161178,1782581724.7383325,0.6973176598548889,-1.0526955127716064,-109.42259979248047,1.0214391946792603,-1.5322715044021606,-3.9963181018829346,-0.34486856404252264,-11.552786171824946,-54.50911121845007
2026-06-27T14:37:55.269919,1782581724.8463347,0.8126915097236633,-1.2257498502731323,-109.8409423828125,1.1149605512619019,-1.6722257137298584,-3.7422547340393066,-0.0854514506543787,-12.223772091420958,-55.85283081407642
2026-06-27T14:37:55.377140,1782581724.9543371,0.9380930066108704,-1.4138160943984985,-110.22888946533203,1.2064135074615479,-1.8091809749603271,-3.4276161193847656,0.1319474246489154,-12.959281052310436,-56.867971980608864
2026-06-27T14:37:55.486892,1782581725.0623393,1.0730012655258179,-1.6161231994628906,-110.57764434814453,1.2892895936965942,-1.933356761932373,-3.003706455230713,0.2686794238344506,-13.877017376856779,-57.41911884035326
2026-06-27T14:37:55.597087,1782581725.1673415,1.2117620706558228,-1.8241984844207764,-110.8634262084961,1.351745367050171,-2.026961088180542,-2.419351100921631,0.31597290219795626,-15.085058273023552,-57.5274207409374
2026-06-27T14:37:55.705837,1782581725.2693439,1.3548684120178223,-2.038790225982666,-111.09403991699219,1.463424801826477,-2.1944663524627686,-2.1616580486297607,0.2648115879499317,-15.348531211427735,-57.3246444048421
2026-06-27T14:37:55.814563,1782581725.377346,1.5203686952590942,-2.286970615386963,-111.3204116821289,1.600502610206604,-2.4001352787017822,-2.033149003982544,0.15279269273811774,-14.612330734878146,-56.93382513699479
2026-06-27T14:37:55.923748,1782581725.4823482,1.6950464248657227,-2.5489258766174316,-111.52758026123047,1.724748134613037,-2.5865793228149414,-1.913032054901123,0.047292649379557926,-13.436494431582988,-56.52950350131541
2026-06-27T14:37:56.031980,1782581725.5903506,1.8876888751983643,-2.8378355503082275,-111.72782897949219,1.8405736684799194,-2.7604000568389893,-1.7970823049545288,-0.025491059742358026,-12.064770745764354,-56.19728124444103
2026-06-27T14:37:56.141207,1782581725.6953528,2.086350202560425,-3.1357834339141846,-111.91117095947266,1.9414713382720947,-2.911817789077759,-1.6978344917297363,-0.05698749454709484,-10.733038411638436,-56.00456311863109
2026-06-27T14:37:56.251442,1782581725.8033552,2.3011128902435303,-3.45788836479187,-112.0897216796875,2.0335958003997803,-3.0500636100769043,-1.6113572120666504,-0.0589721004906005,-9.447867112562179,-55.94199667537789
2026-06-27T14:37:56.359742,1782581725.9113574,2.525214910507202,-3.7940070629119873,-112.2597427368164,2.114551067352295,-3.1715269088745117,-1.5393885374069214,-0.04422322137009298,-8.28502496068902,-55.98593678532693
2026-06-27T14:37:56.467893,1782581726.0163596,2.7509424686431885,-4.132566928863525,-112.41822814941406,2.1833839416503906,-3.274768829345703,-1.4811666011810303,-0.025237340569257773,-7.282206515202718,-56.087054131433035
2026-06-27T14:37:56.576644,1782581726.124362,2.990159273147583,-4.491357803344727,-112.57540130615234,2.2449991703033447,-3.3671438694000244,-1.4309217929840088,-0.008226602379962283,-6.379441918104632,-56.20735892843356
2026-06-27T14:37:56.686406,1782581726.2293642,3.2286808490753174,-4.849099159240723,-112.7234115600586,2.296950340270996,-3.444988965988159,-1.3894487619400024,0.0028567851934757013,-5.618060138761666,-56.30816956696301
2026-06-27T14:37:56.796606,1782581726.3403666,3.4793150424957275,-5.224997520446777,-112.8714370727539,2.3431849479675293,-3.514235019683838,-1.3525789976119995,0.008437964958979496,-4.942700703654133,-56.376739529850425
2026-06-27T14:37:56.903156,1782581726.4393687,3.7202982902526855,-5.58641242980957,-113.0078125,2.380988597869873,-3.5708348751068115,-1.3219356536865234,0.009520937743327233,-4.3937609432661615,-56.40475957004573
2026-06-27T14:37:57.012240,1782581726.544371,3.9721221923828125,-5.964073657989502,-113.14511108398438,2.414729118347168,-3.6213438510894775,-1.2935723066329956,0.008060506682017715,-3.90764545351947,-56.40191715517731
2026-06-27T14:37:57.121951,1782581726.6493733,4.2272443771362305,-6.346673011779785,-113.2795639038086,2.443920850753784,-3.665048837661743,-1.267712116241455,0.00549332124931356,-3.4910918242649323,-56.3778751087314
2026-06-27T14:37:57.230127,1782581726.7573755,4.492628574371338,-6.744656562805176,-113.4151382446289,2.4698574542999268,-3.703895330429077,-1.2430803775787354,0.0028281122605839744,-3.1252869045905136,-56.34381895367846
2026-06-27T14:37:57.339326,1782581726.8623776,4.753141403198242,-7.135330677032471,-113.54447937011719,2.4916610717773438,-3.7365663051605225,-1.2206368446350098,0.000812015203178507,-2.821900258249585,-56.312158182163316
2026-06-27T14:37:57.447170,1782581726.96738,5.015788555145264,-7.529202461242676,-113.67152404785156,2.510582685470581,-3.7649333477020264,-1.1993430852890015,-0.00044828286434775845,-2.5626576219129222,-56.288617978942796
2026-06-27T14:37:57.555855,1782581727.0723822,5.280289173126221,-7.925854682922363,-113.79637908935547,2.5270328521728516,-3.789607048034668,-1.1788899898529053,-0.0010149674857332358,-2.341192779579419,-56.27586658979066
2026-06-27T14:37:57.666405,1782581727.1803844,5.5540266036987305,-8.336362838745117,-113.92259979248047,2.5417540073394775,-3.811691999435425,-1.1586830615997314,-0.0010726429610337462,-2.147067741117256,-56.27340420145553
2026-06-27T14:37:57.773127,1782581727.2853868,5.8215861320495605,-8.737604141235352,-114.04325103759766,2.5542335510253906,-3.830416440963745,-1.1394782066345215,-0.0008436061477337044,-1.9862634085087787,-56.27857283157428
2026-06-27T14:37:57.882821,1782581727.390389,6.09037446975708,-9.140685081481934,-114.16193389892578,2.5651776790618896,-3.846836566925049,-1.1210072040557861,-0.0005148209335984415,-1.8486542844639695,-56.28765358354852
2026-06-27T14:37:57.991538,1782581727.4953911,6.360240459442139,-9.545385360717773,-114.2786865234375,2.5747995376586914,-3.8612704277038574,-1.1028196811676025,-0.0002144252767439026,-1.7310840141507984,-56.29739474571255
2026-06-27T14:37:58.100724,1782581727.6003935,6.63105583190918,-9.951509475708008,-114.39356231689453,2.583289861679077,-3.87400484085083,-1.0849589109420776,-9.112583472566478e-06,-1.63055200570582,-56.30543232096293
2026-06-27T14:37:58.208924,1782581727.7023957,6.894937515258789,-10.347237586975098,-114.50336456298828,2.5906083583831787,-3.8849799633026123,-1.0678972005844116,8.005648182948702e-05,-1.5468060504317962,-56.310429449806854
2026-06-27T14:37:58.318099,1782581727.8103979,7.175108909606934,-10.76739501953125,-114.61773681640625,2.597499132156372,-3.8953142166137695,-1.0500938892364502,7.822927560491778e-05,-1.4708741077900394,-56.31252140604239
2026-06-27T14:37:58.427880,1782581727.9154003,7.448169708251953,-11.176891326904297,-114.72711181640625,2.6034727096557617,-3.9042716026306152,-1.0330289602279663,3.615458816349091e-06,-1.4077324804931772,-56.31197153976836
2026-06-27T14:37:58.535192,1782581728.0204024,7.721826076507568,-11.58727741241455,-114.83470153808594,2.6088287830352783,-3.91230845451355,-1.0161857604980469,-0.00010884280425140867,-1.3535691241339185,-56.30983820189679
2026-06-27T14:37:58.643202,1782581728.1284046,8.00385856628418,-12.010224342346191,-114.94352722167969,2.6137855052948,-3.919748067855835,-0.9990828037261963,-0.00021976969783584066,-1.3058109146879902,-56.30709200462149
2026-06-27T14:37:58.753104,1782581728.230407,8.270689010620117,-12.410375595092773,-115.04462432861328,2.6180222034454346,-3.9261109828948975,-0.9830907583236694,-0.0003105365442275341,-1.266997763806673,-56.3046788677554
2026-06-27T14:37:58.861333,1782581728.3354092,8.545799255371094,-12.822944641113281,-115.14698791503906,2.6219940185546875,-3.9320781230926514,-0.9668187499046326,-0.00037422032105840683,-1.232491277568427,-56.302919641085346
2026-06-27T14:37:58.971609,1782581728.4404113,8.821306228637695,-13.236112594604492,-115.24766540527344,2.6256234645843506,-3.9375336170196533,-0.9507192373275757,-0.0004130227779886775,-1.2026746051075368,-56.30207552115182
2026-06-27T14:37:59.079351,1782581728.5424135,9.089293479919434,-13.638001441955566,-115.3438491821289,2.6288652420043945,-3.9424071311950684,-0.9352447986602783,-0.0004237228075711413,-1.1775982211108376,-56.30204324449592
2026-06-27T14:37:59.187117,1782581728.6474159,9.365493774414062,-14.052210807800293,-115.44121551513672,2.631946563720703,-3.9470417499542236,-0.9194751381874084,-0.00041968479887067667,-1.155190426189764,-56.30260343588914
2026-06-27T14:37:59.296804,1782581728.752418,9.64200496673584,-14.466888427734375,-115.53694915771484,2.6348016262054443,-3.9513368606567383,-0.9038447141647339,-0.0004216531292773361,-1.135634438348194,-56.30347237747248
2026-06-27T14:37:59.404511,1782581728.8544202,9.910894393920898,-14.870133399963379,-115.62837982177734,2.6373860836029053,-3.9552254676818848,-0.8888590335845947,-0.00041812716929320686,-1.1190244650718602,-56.30432607975544
2026-06-27T14:37:59.514085,1782581728.9624226,10.195878028869629,-15.297518730163574,-115.72352600097656,2.6399412155151367,-3.959073066711426,-0.8731034398078918,-0.0004049001148390406,-1.1036350402261463,-56.3051099771092
2026-06-27T14:37:59.622812,1782581729.0644248,10.465274810791016,-15.701528549194336,-115.81183624267578,2.642205238342285,-3.9624812602996826,-0.8583083748817444,-0.0003952327056488801,-1.0909403667017403,-56.30559553538592
2026-06-27T14:37:59.731447,1782581729.166427,10.734895706176758,-16.105876922607422,-115.89864349365234,2.644343137741089,-3.9656991958618164,-0.843847393989563,-0.00039998669833032354,-1.0795736976506167,-56.30583748182351
2026-06-27T14:37:59.839642,1782581729.271429,11.01266860961914,-16.522449493408203,-115.9864730834961,2.6464223861694336,-3.9688291549682617,-0.8290120363235474,-0.00039753541413695565,-1.0692126955436745,-56.305907714028216
2026-06-27T14:37:59.947281,1782581729.3734312,11.282708168029785,-16.92742919921875,-116.07030487060547,2.648336172103882,-3.971712589263916,-0.8146811723709106,-0.00040428599383112167,-1.0602897927660717,-56.30581508272866
2026-06-27T14:38:00.056846,1782581729.4754336,11.552937507629395,-17.332691192626953,-116.15267944335938,2.650158166885376,-3.9744579792022705,-0.8005994558334351,-0.0004237839689290554,-1.0522150019158754,-56.30561057016221
2026-06-27T14:38:00.165756,1782581729.5774357,11.823348999023438,-17.73822784423828,-116.23362731933594,2.65189528465271,-3.977076530456543,-0.7865971922874451,-0.0004272094497915574,-1.0449283430916787,-56.30548538959399
2026-06-27T14:38:00.274616,1782581729.685438,12.109854698181152,-18.16790771484375,-116.31779479980469,2.653650999069214,-3.979724407196045,-0.7720088958740234,-0.0004275837394623805,-1.0379127588961274,-56.30548148153901
2026-06-27T14:38:00.385321,1782581729.78744,12.380614280700684,-18.573970794677734,-116.39583587646484,2.65523624420166,-3.9821152687072754,-0.7582710981369019,-0.0004272068141547302,-1.0319601704452577,-56.305502290207684
2026-06-27T14:38:00.492268,1782581729.8924425,12.659502029418945,-18.99222755432129,-116.4747314453125,2.656801462173462,-3.984476327896118,-0.7443469166755676,-0.0004256715942402838,-1.026314045422215,-56.305612450522375
2026-06-27T14:38:00.600884,1782581729.9944446,12.93057632446289,-19.39876365661621,-116.54998016357422,2.658261775970459,-3.9866795539855957,-0.7309593558311462,-0.00042376396514349227,-1.0212562002359074,-56.30571671258992
2026-06-27T14:38:00.709585,1782581730.0964468,13.201797485351562,-19.805522918701172,-116.62386322021484,2.6596672534942627,-3.9888012409210205,-0.7177355885505676,-0.00042410462895796727,-1.0165653225275368,-56.30581770732999
2026-06-27T14:38:00.818831,1782581730.204449,13.489124298095703,-20.236438751220703,-116.70063781738281,2.6610989570617676,-3.990962028503418,-0.7038789987564087,-0.00042518627879370354,-1.0119408730013064,-56.305928046902025
2026-06-27T14:38:00.927043,1782581730.3094513,13.76861572265625,-20.655607223510742,-116.77385711669922,2.6624393463134766,-3.992985725402832,-0.6905948519706726,-0.00042335646809109036,-1.0077498452430684,-56.306031244925
2026-06-27T14:38:01.036267,1782581730.4114535,14.040254592895508,-21.06299591064453,-116.84364318847656,2.6636948585510254,-3.994882345199585,-0.6778420209884644,-0.0004247495147452139,-1.0039089780537513,-56.3061388806795
2026-06-27T14:38:01.144440,1782581730.5164557,14.320014953613281,-21.482566833496094,-116.91413879394531,2.664942741394043,-3.996767044067383,-0.6648653745651245,-0.00042371144739595883,-1.0001841293211118,-56.30623955932653
2026-06-27T14:38:01.253148,1782581730.6214578,14.59990406036377,-21.902334213256836,-116.9832763671875,2.6661486625671387,-3.998589038848877,-0.6521391272544861,-0.00042173175249290556,-0.9966081635250643,-56.30634756332534
2026-06-27T14:38:01.362888,1782581730.7264602,14.87991714477539,-22.322288513183594,-117.05107116699219,2.667311191558838,-4.000345706939697,-0.6394132375717163,-0.0004208484332952216,-0.9932546783364533,-56.30645725408824
2026-06-27T14:38:01.473175,1782581730.8254623,15.144039154052734,-22.718408584594727,-117.1137924194336,2.668372631072998,-4.001949310302734,-0.6276857256889343,-0.0004186793995981678,-0.9901716689792532,-56.3065541374147
2026-06-27T14:38:01.580396,1782581730.9244645,15.408263206481934,-23.114688873291016,-117.17535400390625,2.669400215148926,-4.003503322601318,-0.6160458922386169,-0.0004173806942295506,-0.9872863805323283,-56.30664635894751
2026-06-27T14:38:01.689699,1782581731.0324667,15.696623802185059,-23.547164916992188,-117.24121856689453,2.670485019683838,-4.005144119262695,-0.603594958782196,-0.0004162639562237764,-0.9841888830514185,-56.30675631886839
2026-06-27T14:38:01.797895,1782581731.1314688,15.961055755615234,-23.943756103515625,-117.30040740966797,2.671445608139038,-4.00659704208374,-0.5921996235847473,-0.00041376900247826074,-0.9814775263414269,-56.306868333910536
2026-06-27T14:38:01.906243,1782581731.236471,16.24161148071289,-24.364534378051758,-117.36196899414062,2.6724319458007812,-4.008090496063232,-0.5803270936012268,-0.00040077787231240786,-0.9787282224782345,-56.306881140529754
2026-06-27T14:38:02.015372,1782581731.3414733,16.52227783203125,-24.78546714782715,-117.42229461669922,2.6733860969543457,-4.009535789489746,-0.5686105489730835,-0.00039328236722017235,-0.9760305890153261,-56.3069004603467
2026-06-27T14:38:02.123569,1782581731.4464755,16.80303382873535,-25.206554412841797,-117.48139190673828,2.6743099689483643,-4.010932922363281,-0.5571603775024414,-0.0003921733489356696,-0.9734206730577933,-56.3070036246708
2026-06-27T14:38:02.233242,1782581731.5514777,17.083892822265625,-25.627782821655273,-117.53929901123047,2.6752026081085205,-4.012284755706787,-0.5458441972732544,-0.00038691621840318985,-0.970857200235246,-56.307107200804104
2026-06-27T14:38:02.341445,1782581731.65348,17.356813430786133,-26.037109375,-117.59442138671875,2.6760411262512207,-4.013554573059082,-0.5349889397621155,-0.0003720631625417426,-0.9684516798565677,-56.30717129617988
2026-06-27T14:38:02.449798,1782581731.7614822,17.6458740234375,-26.470653533935547,-117.65158081054688,2.6768996715545654,-4.0148539543151855,-0.5236815810203552,-0.0003677069014054001,-0.9659841791984918,-56.307172431051846
2026-06-27T14:38:02.559017,1782581731.8664844,17.927001953125,-26.89228630065918,-117.70600891113281,2.677706003189087,-4.016075611114502,-0.5128495097160339,-0.00036679125255239425,-0.9636469555393864,-56.30727947825781
2026-06-27T14:38:02.668226,1782581731.9744868,18.216245651245117,-27.326095581054688,-117.76080322265625,2.6785073280334473,-4.0172905921936035,-0.5019043684005737,-0.0003622067072938954,-0.9613092684645211,-56.30738301698765
2026-06-27T14:38:02.776881,1782581732.082489,18.505571365356445,-27.760034561157227,-117.81442260742188,2.6792807579040527,-4.018462181091309,-0.49112510681152344,-0.0003481665765861928,-0.9590222029912611,-56.307468842899745
2026-06-27T14:38:02.884626,1782581732.1844912,18.778898239135742,-28.16998291015625,-117.86399841308594,2.6799864768981934,-4.019532680511475,-0.4810870289802551,-0.00034048769017856414,-0.9569321306902471,-56.30747279434058
2026-06-27T14:38:02.993386,1782581732.2864935,19.052295684814453,-28.58003807067871,-117.91256713867188,2.680669069290161,-4.020566940307617,-0.47119638323783875,-0.0003393391998866865,-0.9548865173960768,-56.30750648257889
2026-06-27T14:38:03.102095,1782581732.3884957,19.325761795043945,-28.990190505981445,-117.96014404296875,2.6813290119171143,-4.021566867828369,-0.4614750146865845,-0.00033722352521741003,-0.9528900205359656,-56.307609943830684
2026-06-27T14:38:03.211794,1782581732.4934978,19.607341766357422,-29.412521362304688,-118.00808715820312,2.6819851398468018,-4.022561550140381,-0.45163676142692566,-0.0003296368729695692,-0.9508868685088568,-56.30771778535267
2026-06-27T14:38:03.320049,1782581732.6015003,19.897037506103516,-29.847017288208008,-118.05632019042969,2.68263578414917,-4.0235490798950195,-0.44169679284095764,-0.0003114569005390701,-0.9488799525041398,-56.307727647067
2026-06-27T14:38:03.429753,1782581732.7065024,20.178752899169922,-30.269550323486328,-118.10220336914062,2.683246374130249,-4.024474620819092,-0.4321797788143158,-0.0003116263925845879,-0.9469857145297805,-56.307769399757284
2026-06-27T14:38:03.538150,1782581732.8085046,20.452482223510742,-30.680095672607422,-118.14582824707031,2.683819055557251,-4.0253424644470215,-0.4231029450893402,-0.00031012587553119595,-0.9451773589962735,-56.30786812077552
2026-06-27T14:38:03.646788,1782581732.9135067,20.73432159423828,-31.102815628051758,-118.18976593017578,2.6843888759613037,-4.026205539703369,-0.41392436623573303,-0.00030967287017667007,-0.9433751331750563,-56.30788545968031
2026-06-27T14:38:03.754993,1782581733.015509,21.00816535949707,-31.513540267944336,-118.23153686523438,2.684921979904175,-4.027013778686523,-0.40516072511672974,-0.00030869136457238356,-0.9416673933683875,-56.307908600393134
2026-06-27T14:38:03.864414,1782581733.1205113,21.290117263793945,-31.936426162719727,-118.27360534667969,2.6854500770568848,-4.027815818786621,-0.3962385058403015,-0.00030224355011349355,-0.9399756541915776,-56.308012579213155
2026-06-27T14:38:03.973125,1782581733.2225134,21.564062118530273,-32.34730529785156,-118.3135986328125,2.6859467029571533,-4.028570175170898,-0.38784003257751465,-0.0002955729932751063,-0.9383280722979571,-56.308076161589796
2026-06-27T14:38:04.082355,1782581733.3275156,21.846111297607422,-32.77035903930664,-118.3538589477539,2.68643856048584,-4.029317378997803,-0.3792839050292969,-0.00028959166492614324,-0.9367081175334623,-56.30807746653469
2026-06-27T14:38:04.191623,1782581733.432518,22.12822723388672,-33.19346618652344,-118.39324188232422,2.686912775039673,-4.0300374031066895,-0.37088385224342346,-0.0002835524879318193,-0.9351242899891122,-56.308170966964305
2026-06-27T14:38:04.302152,1782581733.5345201,22.39426040649414,-33.59250259399414,-118.42957305908203,2.6873435974121094,-4.030691623687744,-0.3631231188774109,-0.0002851286949967303,-0.9336726287424455,-56.308229727566356
2026-06-27T14:38:04.410383,1782581733.6335223,22.66839027404785,-34.0036506652832,-118.4662094116211,2.6877715587615967,-4.031342029571533,-0.35526514053344727,-0.00028268923438662743,-0.9322056464079507,-56.30823209303208
2026-06-27T14:38:04.518663,1782581733.7385244,22.950639724731445,-34.42700958251953,-118.50308990478516,2.6881959438323975,-4.031987190246582,-0.3473067879676819,-0.000280804635214054,-0.9307514241697098,-56.3083039509552
2026-06-27T14:38:04.627894,1782581733.8435266,23.23293113708496,-34.85038375854492,-118.53914642333984,2.688603401184082,-4.032606601715088,-0.3394775092601776,-0.00026283684816138077,-0.9293451777653025,-56.30835451869342
2026-06-27T14:38:04.736120,1782581733.9425287,23.499114990234375,-35.249671936035156,-118.5723876953125,2.688973903656006,-4.033170223236084,-0.3322356641292572,-0.0002566410731481405,-0.9280536534623256,-56.30840064963935
2026-06-27T14:38:04.844361,1782581734.0445309,23.773427963256836,-35.66107940673828,-118.60589599609375,2.6893415451049805,-4.033730506896973,-0.3249339461326599,-0.00025432898045675345,-0.9267565884575015,-56.30841369644011
2026-06-27T14:38:04.954052,1782581734.1495333,24.05582618713379,-36.08466720581055,-118.6396255493164,2.6897058486938477,-4.034285068511963,-0.3175604045391083,-0.0002571153761236557,-0.9254542115679482,-56.30848480591218
2026-06-27T14:38:05.062316,1782581734.2545354,24.338275909423828,-36.50830841064453,-118.67259216308594,2.690056324005127,-4.034817695617676,-0.3103245198726654,-0.00023987546921325713,-0.9242028804039384,-56.30851827604407
2026-06-27T14:38:05.171862,1782581734.3595376,24.620752334594727,-36.931976318359375,-118.7048110961914,2.6903932094573975,-4.035330295562744,-0.3032333254814148,-0.0002312064808836155,-0.922984540511853,-56.30851631762955
2026-06-27T14:38:05.280167,1782581734.46454,24.903268814086914,-37.355751037597656,-118.73628997802734,2.6907167434692383,-4.035823345184326,-0.29628312587738037,-0.00022704749399776405,-0.9218018268356025,-56.30859267103745
2026-06-27T14:38:05.389361,1782581734.5695422,25.185813903808594,-37.77952575683594,-118.76702880859375,2.6910271644592285,-4.036296844482422,-0.2894706428050995,-0.00021994986487846506,-0.9206574536964252,-56.30863115869872
2026-06-27T14:38:05.496886,1782581734.6745443,25.46839714050293,-38.20337677001953,-118.79707336425781,2.6913259029388428,-4.036751747131348,-0.2827977240085602,-0.00022893446414318583,-0.9195486049237206,-56.30865056836579
2026-06-27T14:38:05.608118,1782581734.7765465,25.742923736572266,-38.61517333984375,-118.82559967041016,2.6916046142578125,-4.037176132202148,-0.27644890546798706,-0.00021380870014543881,-0.9185033674561515,-56.30872282739683
2026-06-27T14:38:05.716015,1782581734.881549,26.02557373046875,-39.03908157348633,-118.85429382324219,2.691880464553833,-4.037596702575684,-0.2700384557247162,-0.00020648626102126344,-0.9174646072584804,-56.308722103777804
2026-06-27T14:38:05.824799,1782581734.986551,26.308223724365234,-39.46306610107422,-118.88232421875,2.6921448707580566,-4.038000583648682,-0.2637573778629303,-0.00020811717611054966,-0.9164533882150553,-56.30873020331135
2026-06-27T14:38:05.934488,1782581735.0915532,26.59093475341797,-39.887107849121094,-118.9096908569336,2.6923985481262207,-4.038387775421143,-0.25760751962661743,-0.00018625509198046055,-0.9154770660269886,-56.308788153479405
2026-06-27T14:38:06.042677,1782581735.1905553,26.85749626159668,-40.28691864013672,-118.9349136352539,2.692628860473633,-4.038737773895264,-0.25193899869918823,-0.00018299853535754136,-0.9145885329640199,-56.30878227739655
2026-06-27T14:38:06.151364,1782581735.2955577,27.140230178833008,-40.71097946166992,-118.96105194091797,2.6928629875183105,-4.039095401763916,-0.2460351139307022,-0.00017630158992809812,-0.9136775157256845,-56.308849256302175
2026-06-27T14:38:06.260104,1782581735.39756,27.414934158325195,-41.1230354309082,-118.98587036132812,2.6930813789367676,-4.039428234100342,-0.24041211605072021,-0.00017569590998858098,-0.9128211189849262,-56.30894857058586
2026-06-27T14:38:06.369651,1782581735.502562,27.697717666625977,-41.547210693359375,-119.01081085205078,2.6932969093322754,-4.03975772857666,-0.23476733267307281,-0.00017460237646334394,-0.9119615156546146,-56.308957729333336
2026-06-27T14:38:06.479684,1782581735.6105645,27.988605499267578,-41.98350524902344,-119.03585052490234,2.693509101867676,-4.0400824546813965,-0.2290574014186859,-0.00015977987180772915,-0.9111242932783409,-56.30895844677389
2026-06-27T14:38:06.586958,1782581735.7125666,28.26337432861328,-42.39558792114258,-119.0589370727539,2.6937010288238525,-4.04037618637085,-0.22375622391700745,-0.00016676001488187073,-0.9103609010303811,-56.30895948381991
2026-06-27T14:38:06.695527,1782581735.8175688,28.54622459411621,-42.81989669799805,-119.0821533203125,2.6938908100128174,-4.040665626525879,-0.21847444772720337,-0.00017248370364954065,-0.9095873397157821,-56.30901245581329
2026-06-27T14:38:06.804647,1782581735.925571,28.837158203125,-43.25632858276367,-119.10546112060547,2.694077968597412,-4.040952205657959,-0.213144913315773,-0.0001496183632014647,-0.9088239507463581,-56.30906238564358
2026-06-27T14:38:06.913352,1782581736.0305734,29.120075225830078,-43.68063735961914,-119.12757110595703,2.6942522525787354,-4.0412187576293945,-0.20806853473186493,-0.00013385820996117653,-0.908112487998225,-56.30905781831413
2026-06-27T14:38:07.022019,1782581736.1385756,29.411075592041016,-44.117069244384766,-119.14976501464844,2.6944236755371094,-4.041478633880615,-0.20295649766921997,-0.00014438475277063994,-0.9074071632480145,-56.30905922648819
2026-06-27T14:38:07.132196,1782581736.2405777,29.685909271240234,-44.529327392578125,-119.17022705078125,2.6945786476135254,-4.041716575622559,-0.19824270904064178,-0.00016629234237098132,-0.9067631105500099,-56.30909654332975
