time,sim_t,x,y,z,vx,vy,vz,roll_deg,pitch_deg,yaw_deg
2026-06-27T15:11:49.034094,1782583704.8945749,0.0,0.0,2.0397229194641113,0.0,0.0,0.0,0.0,0.0,0.0003895640909249624
2026-06-27T15:11:49.138414,1782583704.999577,0.0,0.0,2.0397229194641113,0.0,0.0,0.0,0.0,0.0,0.0003895640909249624
2026-06-27T15:11:49.247395,1782583705.1045792,0.0,0.0,2.0397229194641113,0.0,0.0,0.0,0.0,0.0,0.0003895640909249624
2026-06-27T15:11:49.357488,1782583705.2155817,0.0,0.0,2.0397229194641113,0.0,0.0,0.0,0.0,0.0,0.0003895640909249624
2026-06-27T15:11:49.464191,1782583705.3205838,0.0,0.0,2.0397229194641113,0.0,0.0,0.0,0.0,0.0,0.0003895640909249624
2026-06-27T15:11:49.573793,1782583705.4315863,0.0,0.0,2.0397229194641113,0.0,0.0,0.0,0.0,0.0,0.0003895640909249624
2026-06-27T15:11:49.682636,1782583705.5335884,0.0,0.0,2.0397229194641113,0.0,0.0,0.0,0.0,0.0,0.0003895640909249624
2026-06-27T15:11:49.792002,1782583705.6415908,0.0,0.0,2.0397229194641113,0.0,0.0,0.0,0.0,0.0,0.0003895640909249624
2026-06-27T15:11:49.900234,1782583705.749593,0.0,0.0,2.0397229194641113,0.0,0.0,0.0,0.0,0.0,0.0003895640909249624
2026-06-27T15:11:50.009222,1782583705.8545954,0.0,0.0,2.0397229194641113,0.0,0.0,0.0,0.0,0.0,0.0003895640909249624
2026-06-27T15:11:50.117929,1782583705.9625976,0.0,0.0,2.0397229194641113,0.0,0.0,0.0,0.0,0.0,0.0003895640909249624
2026-06-27T15:11:50.227170,1782583706.0706,0.0,0.0,2.0397229194641113,0.0,0.0,0.0,0.0,0.0,0.0003895640909249624
2026-06-27T15:11:50.335868,1782583706.1786022,0.0,0.0,2.0397229194641113,0.0,0.0,0.0,0.0,0.0,0.0003895640909249624
2026-06-27T15:11:50.445547,1782583706.2866046,0.0,0.0,2.0397229194641113,0.0,0.0,0.0,0.0,0.0,0.0003895640909249624
2026-06-27T15:11:50.553810,1782583706.3946068,0.0,0.0,2.0369272232055664,0.0,0.0,-0.18093353509902954,0.0,0.0,0.0003895640909249624
2026-06-27T15:11:50.662498,1782583706.5026093,0.0,0.0,2.000746488571167,0.0,0.0,-0.41216111183166504,0.0,0.0,0.0003895640909249624
2026-06-27T15:11:50.771558,1782583706.6076114,0.0,0.0,1.9554544687271118,0.0,0.0,-0.4423440396785736,0.0,0.0,0.0003895640909249624
2026-06-27T15:11:50.880449,1782583706.7126136,0.0,0.0,1.9085174798965454,0.0,0.0,-0.4506487548351288,0.0,0.0,0.0003895640909249624
2026-06-27T15:11:50.989407,1782583706.8146157,0.0,0.0,1.862277865409851,0.0,0.0,-0.4557986557483673,0.0,0.0,0.0003895640909249624
2026-06-27T15:11:51.098601,1782583706.9196181,0.0,0.0,1.8141770362854004,0.0,0.0,-0.460287868976593,0.0,0.0,0.0003895640909249624
2026-06-27T15:11:51.208066,1782583707.0246203,0.0,0.0,1.7656333446502686,0.0,0.0,-0.46426084637641907,0.0,0.0,0.0003895640909249624
2026-06-27T15:11:51.315884,1782583707.1326225,0.0,0.0,1.715291976928711,0.0,0.0,-0.46789464354515076,0.0,0.0,0.0003895640909249624
2026-06-27T15:11:51.424124,1782583707.240625,0.0,0.0,1.6645804643630981,0.0,0.0,-0.47112321853637695,0.0,0.0,0.0003895640909249624
2026-06-27T15:11:51.533807,1782583707.348627,0.0,0.0,1.613539695739746,0.0,0.0,-0.47399210929870605,0.0,0.0,0.0003895640909249624
2026-06-27T15:11:51.643881,1782583707.4566295,0.0,0.0,1.5622072219848633,0.0,0.0,-0.47654134035110474,0.0,0.0,0.0003895640909249624
2026-06-27T15:11:51.752631,1782583707.5616317,0.0,0.0,1.5120511054992676,0.0,0.0,-0.4787473678588867,0.0,0.0,0.0003895640909249624
2026-06-27T15:11:51.860263,1782583707.669634,0.0,0.0,1.4602341651916504,0.0,0.0,-0.48076701164245605,0.0,0.0,0.0003895640909249624
2026-06-27T15:11:51.969475,1782583707.7776363,0.0,0.0,1.408211350440979,0.0,0.0,-0.48256176710128784,0.0,0.0,0.0003895640909249624
2026-06-27T15:11:52.078988,1782583707.8856387,0.0,0.0,1.3560056686401367,0.0,0.0,-0.48415669798851013,0.0,0.0,0.0003895640909249624
2026-06-27T15:11:52.187270,1782583707.9906409,0.0,0.0,1.3050949573516846,0.0,0.0,-0.4855368435382843,0.0,0.0,0.0003895640909249624
2026-06-27T15:11:52.296000,1782583708.1016433,0.0,0.0,1.251125693321228,0.0,0.0,-0.48683345317840576,0.0,0.0,0.0003895640909249624
2026-06-27T15:11:52.405203,1782583708.2096455,0.0,0.0,1.1984848976135254,0.0,0.0,-0.48795267939567566,0.0,0.0,0.0003895640909249624
2026-06-27T15:11:52.514934,1782583708.314648,0.0,0.0,1.1471970081329346,0.0,0.0,-0.488921195268631,0.0,0.0,0.0003895640909249624
2026-06-27T15:11:52.622688,1782583708.42265,0.0,0.0,1.0943435430526733,0.0,0.0,-0.48980802297592163,0.0,0.0,0.0003895640909249624
2026-06-27T15:11:52.731426,1782583708.5306525,0.0,0.0,1.041399598121643,0.0,0.0,-0.49059605598449707,0.0,0.0,0.0003895640909249624
2026-06-27T15:11:52.840260,1782583708.6356547,0.0,0.0,0.9898496866226196,0.0,0.0,-0.4912780523300171,0.0,0.0,0.0003895640909249624
2026-06-27T15:11:52.949450,1782583708.7436569,0.0,0.0,0.9367561340332031,0.0,0.0,-0.4919023811817169,0.0,0.0,0.0003895640909249624
2026-06-27T15:11:53.058625,1782583708.8516593,0.0,0.0,0.883599042892456,0.0,0.0,-0.49245721101760864,0.0,0.0,0.0003895640909249624
2026-06-27T15:11:53.168156,1782583708.9596615,0.0,0.0,0.8303852677345276,0.0,0.0,-0.4929503798484802,0.0,0.0,0.0003895640909249624
2026-06-27T15:11:53.276372,1782583709.064664,0.0,0.0,0.7786015272140503,0.0,0.0,-0.493377149105072,0.0,0.0,0.0003895640909249624
2026-06-27T15:11:53.383830,1782583709.172666,0.0,0.0,0.7252942323684692,0.0,0.0,-0.4937678873538971,0.0,0.0,0.0003895640909249624
2026-06-27T15:11:53.494165,1782583709.2806685,0.0,0.0,0.6719473004341125,0.0,0.0,-0.49411487579345703,0.0,0.0,0.0003895640909249624
2026-06-27T15:11:53.602473,1782583709.3856707,0.0,0.0,0.6200481057167053,0.0,0.0,-0.49441543221473694,0.0,0.0,0.0003895640909249624
2026-06-27T15:11:53.713272,1782583709.4936728,0.0,0.0,0.5681191086769104,0.0,0.0,-0.49468326568603516,0.0,0.0,0.0003895640909249624
2026-06-27T15:11:53.820553,1782583709.5956752,0.0,0.0,0.5173822641372681,0.0,0.0,-0.3881809711456299,0.0,0.0,0.0003895640909249624
2026-06-27T15:11:53.929756,1782583709.7036774,0.0,0.0,0.49985983967781067,0.0,0.0,-0.017793212085962296,0.0,0.0,0.0003895640909249624
2026-06-27T15:11:54.039009,1782583709.8086796,0.0,0.0,0.4941045343875885,0.0,0.0,-0.2856346070766449,0.0,0.0,0.0003798857345060412
2026-06-27T15:11:54.147208,1782583709.916682,0.0,0.0,0.4243367612361908,0.0,0.0,-1.004142165184021,0.0,0.0,0.0002975501990452468
2026-06-27T15:11:54.256454,1782583710.0216842,0.0,0.0,0.2830125391483307,0.0,0.0,-1.6834526062011719,0.0,0.0,0.00017600128920249397
2026-06-27T15:11:54.365188,1782583710.1266866,0.0,0.0,0.07189077138900757,0.0,0.0,-2.331765651702881,0.0,0.0,5.412038848288311e-05
2026-06-27T15:11:54.473978,1782583710.2346888,0.0,0.0,-0.2140854001045227,0.0,0.0,-2.956059217453003,0.0,0.0,-4.313548826267976e-05
2026-06-27T15:11:54.582651,1782583710.3426912,0.0,0.0,-0.56480473279953,0.0,0.0,-3.529674530029297,0.0,0.0,-9.858132268177978e-05
2026-06-27T15:11:54.691483,1782583710.4506934,0.0,0.0,-0.9745215773582458,0.0,0.0,-4.048078536987305,0.0,0.0,-0.00011258816876661153
2026-06-27T15:11:54.800091,1782583710.5556955,0.0,0.0,-1.423648715019226,0.0,0.0,-4.4975666999816895,0.0,0.0,-9.655774651968147e-05
2026-06-27T15:11:54.909309,1782583710.660698,0.0,0.0,-1.917172908782959,0.0,0.0,-4.8939924240112305,0.0,0.0,-6.380673489107221e-05
2026-06-27T15:11:55.018514,1782583710.7687001,0.0,0.0,-2.463139772415161,0.0,0.0,-5.154980182647705,0.0,0.0,-2.6375371659866214e-05
2026-06-27T15:11:55.127322,1782583710.8737023,0.0,0.0,-3.005854845046997,0.0,0.0,-5.169768810272217,0.0,0.0,4.164869690950355e-06
2026-06-27T15:11:55.236033,1782583710.9787047,0.0,0.0,-3.547941207885742,0.0,0.0,-5.154614448547363,0.0,0.0,2.368901879102848e-05
2026-06-27T15:11:55.345487,1782583711.0867069,0.0,0.0,-4.1037373542785645,0.0,0.0,-5.137888431549072,0.0,0.0,3.163606487721444e-05
2026-06-27T15:11:55.453682,1782583711.188709,0.0,0.0,-4.627063751220703,0.0,0.0,-5.123444080352783,0.0,0.0,2.9800736841161507e-05
2026-06-27T15:11:55.563781,1782583711.2937114,0.0,0.0,-5.16431999206543,0.0,0.0,-5.1100263595581055,0.0,0.0,2.1908701221635263e-05
2026-06-27T15:11:55.672167,1782583711.4017136,0.0,0.0,-5.715532302856445,0.0,0.0,-5.097628593444824,0.0,0.0,1.1273131550764413e-05
2026-06-27T15:11:55.780900,1782583711.509716,0.0,0.0,-6.265476226806641,0.0,0.0,-5.086512565612793,0.0,0.0,1.4770929513930751e-06
2026-06-27T15:11:55.889633,1782583711.6177182,0.0,0.0,-6.814282417297363,0.0,0.0,-5.076544284820557,0.0,0.0,-5.553892930547086e-06
2026-06-27T15:11:55.998744,1782583711.7257206,0.0,0.0,-7.362070083618164,0.0,0.0,-5.067606449127197,0.0,0.0,-1.0115540736453422e-05
2026-06-27T15:11:56.107335,1782583711.8337228,0.0,0.0,-7.9089436531066895,0.0,0.0,-5.0595927238464355,0.0,0.0,-1.3040112163822838e-05
2026-06-27T15:11:56.216523,1782583711.9417253,0.0,0.0,-8.454997062683105,0.0,0.0,-5.052408218383789,0.0,0.0,-1.3631230006702952e-05
2026-06-27T15:11:56.324763,1782583712.0467274,0.0,0.0,-8.985176086425781,0.0,0.0,-5.046135902404785,0.0,0.0,-1.0872855130992103e-05
2026-06-27T15:11:56.433956,1782583712.1547298,0.0,0.0,-9.529853820800781,0.0,0.0,-5.040340900421143,0.0,0.0,-8.984948709389196e-06
2026-06-27T15:11:56.542432,1782583712.262732,0.0,0.0,-10.073936462402344,0.0,0.0,-5.035150051116943,0.0,0.0,-7.739071803785773e-06
2026-06-27T15:11:56.651770,1782583712.3707345,0.0,0.0,-10.617486953735352,0.0,0.0,-5.030494689941406,0.0,0.0,-7.024356689984252e-06
2026-06-27T15:11:56.760456,1782583712.4787366,0.0,0.0,-11.160562515258789,0.0,0.0,-5.026320934295654,0.0,0.0,-6.355915440798904e-06
2026-06-27T15:11:56.869125,1782583712.5867388,0.0,0.0,-11.70321273803711,0.0,0.0,-5.022578239440918,0.0,0.0,-5.687470120503565e-06
2026-06-27T15:11:56.978739,1782583712.6947412,0.0,0.0,-12.245479583740234,0.0,0.0,-5.019224643707275,0.0,0.0,-5.019024800208228e-06
2026-06-27T15:11:57.087795,1782583712.7997434,0.0,0.0,-12.77235221862793,0.0,0.0,-5.01629638671875,0.0,0.0,-4.36914740547665e-06
2026-06-27T15:11:57.196477,1782583712.9077458,0.0,0.0,-13.31397533416748,0.0,0.0,-5.013592720031738,0.0,0.0,-3.7007020851813144e-06
2026-06-27T15:11:57.305156,1782583713.015748,0.0,0.0,-13.855321884155273,0.0,0.0,-5.011168956756592,0.0,0.0,-3.03226103955147e-06
2026-06-27T15:11:57.413814,1782583713.1237504,0.0,0.0,-14.3964204788208,0.0,0.0,-5.008996486663818,0.0,0.0,-2.3638230472541205e-06
2026-06-27T15:11:57.522460,1782583713.2317526,0.0,0.0,-14.937296867370605,0.0,0.0,-5.0070481300354,0.0,0.0,-1.6953850549567712e-06
2026-06-27T15:11:57.631663,1782583713.339755,0.0,0.0,-15.477972984313965,0.0,0.0,-5.005302429199219,0.0,0.0,-1.026947062659422e-06
2026-06-27T15:11:57.740350,1782583713.4477572,0.0,0.0,-16.018468856811523,0.0,0.0,-5.003736972808838,0.0,0.0,-3.5850779814020085e-07
2026-06-27T15:11:57.848588,1782583713.5527596,0.0,0.0,-16.543798446655273,0.0,0.0,-5.002370357513428,0.0,0.0,2.8033141795826195e-07
2026-06-27T15:11:57.958291,1782583713.6607618,0.0,0.0,-17.08399772644043,0.0,0.0,-5.001108646392822,0.0,0.0,6.764626080919935e-07
2026-06-27T15:11:58.066507,1782583713.765764,0.0,0.0,-17.60906982421875,0.0,0.0,-5.000007152557373,0.0,0.0,8.589434470530319e-07
2026-06-27T15:11:58.173812,1782583713.8707664,0.0,0.0,-18.134023666381836,0.0,0.0,-4.999017715454102,0.0,0.0,9.57202332938043e-07
2026-06-27T15:11:58.284023,1782583713.9787686,0.0,0.0,-18.673885345458984,0.0,0.0,-4.99810266494751,0.0,0.0,1.0116023366542955e-06
2026-06-27T15:11:58.392563,1782583714.086771,0.0,0.0,-19.213642120361328,0.0,0.0,-4.997282981872559,0.0,0.0,1.0407091446550527e-06
2026-06-27T15:11:58.502220,1782583714.1977732,0.0,0.0,-19.768308639526367,0.0,0.0,-4.996528625488281,0.0,0.0,1.0345687912314566e-06
2026-06-27T15:11:58.611483,1782583714.3027756,0.0,0.0,-20.29292106628418,0.0,0.0,-4.995889186859131,0.0,0.0,9.96944610460365e-07
2026-06-27T15:11:58.719179,1782583714.4107778,0.0,0.0,-20.832456588745117,0.0,0.0,-4.995298385620117,0.0,0.0,9.582454530958132e-07
2026-06-27T15:11:58.828467,1782583714.5187802,0.0,0.0,-21.371932983398438,0.0,0.0,-4.99476957321167,0.0,0.0,9.195462957312617e-07
2026-06-27T15:11:58.937764,1782583714.6267824,0.0,0.0,-21.911361694335938,0.0,0.0,-4.9942946434021,0.0,0.0,8.808471383667102e-07
2026-06-27T15:11:59.046380,1782583714.7317848,0.0,0.0,-22.435741424560547,0.0,0.0,-4.993879795074463,0.0,0.0,8.432224487068694e-07
2026-06-27T15:11:59.154109,1782583714.839787,0.0,0.0,-22.975072860717773,0.0,0.0,-4.993497371673584,0.0,0.0,8.045214593428212e-07
2026-06-27T15:11:59.262949,1782583714.9417892,0.0,0.0,-23.484403610229492,0.0,0.0,-4.993172645568848,0.0,0.0,7.679705249434426e-07
2026-06-27T15:11:59.371919,1782583715.0497916,0.0,0.0,-24.02366065979004,0.0,0.0,-4.992863178253174,0.0,0.0,7.292695355793944e-07
2026-06-27T15:11:59.480062,1782583715.1547937,0.0,0.0,-24.54790496826172,0.0,0.0,-4.9925923347473145,0.0,0.0,6.916435736976811e-07
2026-06-27T15:11:59.589154,1782583715.262796,0.0,0.0,-25.08711814880371,0.0,0.0,-4.992342948913574,0.0,0.0,6.52942584333633e-07
2026-06-27T15:11:59.698085,1782583715.3707983,0.0,0.0,-25.626272201538086,0.0,0.0,-4.9921183586120605,0.0,0.0,6.142415949695849e-07
2026-06-27T15:11:59.807261,1782583715.4788005,0.0,0.0,-26.16542625427246,0.0,0.0,-4.991918563842773,0.0,0.0,5.755406056055368e-07
2026-06-27T15:11:59.916483,1782583715.589803,0.0,0.0,-26.719552993774414,0.0,0.0,-4.991734027862549,0.0,0.0,5.357645887591541e-07
2026-06-27T15:12:00.025173,1782583715.6948051,0.0,0.0,-27.243663787841797,0.0,0.0,-4.9915771484375,0.0,0.0,4.981386268774407e-07
2026-06-27T15:12:00.133835,1782583715.8028076,0.0,0.0,-27.78274917602539,0.0,0.0,-4.991432189941406,0.0,0.0,4.5943763751339265e-07
2026-06-27T15:12:00.242574,1782583715.9108098,0.0,0.0,-28.321834564208984,0.0,0.0,-4.991302490234375,0.0,0.0,4.2073680081596926e-07
2026-06-27T15:12:00.351308,1782583716.0188122,0.0,0.0,-28.860919952392578,0.0,0.0,-4.991184234619141,0.0,0.0,3.8203672745166945e-07
2026-06-27T15:12:00.459919,1782583716.1268144,0.0,0.0,-29.399988174438477,0.0,0.0,-4.991081237792969,0.0,0.0,3.4333665408736964e-07
2026-06-27T15:12:00.569707,1782583716.2348168,0.0,0.0,-29.93900489807129,0.0,0.0,-4.990988254547119,0.0,0.0,3.046365807230698e-07
2026-06-27T15:12:00.677945,1782583716.342819,0.0,0.0,-30.4780216217041,0.0,0.0,-4.990902423858643,0.0,0.0,2.6593650735877e-07
2026-06-27T15:12:00.786816,1782583716.4508214,0.0,0.0,-31.017038345336914,0.0,0.0,-4.990828514099121,0.0,0.0,2.2723643399447022e-07
2026-06-27T15:12:00.895461,1782583716.5588236,0.0,0.0,-31.556055068969727,0.0,0.0,-4.99075984954834,0.0,0.0,1.88536055296921e-07
2026-06-27T15:12:01.003977,1782583716.666826,0.0,0.0,-32.095069885253906,0.0,0.0,-4.990696907043457,0.0,0.0,1.4983552393274705e-07
2026-06-27T15:12:01.113660,1782583716.7748282,0.0,0.0,-32.63408660888672,0.0,0.0,-4.990644454956055,0.0,0.0,1.1113499256857311e-07
2026-06-27T15:12:01.221405,1782583716.8828306,0.0,0.0,-33.17310333251953,0.0,0.0,-4.990592956542969,0.0,0.0,7.243466475989877e-08
2026-06-27T15:12:01.330235,1782583716.9908328,0.0,0.0,-33.712120056152344,0.0,0.0,-4.990548610687256,0.0,0.0,3.3734301965122955e-08
2026-06-27T15:12:01.441537,1782583717.0988352,0.0,0.0,-34.251136779785156,0.0,0.0,-4.990511894226074,0.0,0.0,-4.966110923389102e-09
2026-06-27T15:12:01.548356,1782583717.2068374,0.0,0.0,-34.79015350341797,0.0,0.0,-4.990477085113525,0.0,0.0,-4.36665254021785e-08
2026-06-27T15:12:01.657589,1782583717.3118398,0.0,0.0,-35.3141975402832,0.0,0.0,-4.990443706512451,0.0,0.0,-8.129184799240093e-08
2026-06-27T15:12:01.766272,1782583717.419842,0.0,0.0,-35.853214263916016,0.0,0.0,-4.990412712097168,0.0,0.0,-1.1999222668995016e-07
2026-06-27T15:12:01.874941,1782583717.5278444,0.0,0.0,-36.39223098754883,0.0,0.0,-4.990387916564941,0.0,0.0,-1.586927580541241e-07
2026-06-27T15:12:01.983490,1782583717.6358466,0.0,0.0,-36.93124771118164,0.0,0.0,-4.990365505218506,0.0,0.0,-1.9739328941829805e-07
2026-06-27T15:12:02.094039,1782583717.743849,0.0,0.0,-37.47026443481445,0.0,0.0,-4.990346431732178,0.0,0.0,-2.3609354089366002e-07
2026-06-27T15:12:02.201730,1782583717.8488512,0.0,0.0,-37.99430847167969,0.0,0.0,-4.990328311920166,0.0,0.0,-2.737186122200626e-07
2026-06-27T15:12:02.311143,1782583717.9508533,0.0,0.0,-38.503379821777344,0.0,0.0,-4.990312099456787,0.0,0.0,-3.1026868150856797e-07
2026-06-27T15:12:02.419330,1782583718.0558555,0.0,0.0,-39.02742385864258,0.0,0.0,-4.99029541015625,0.0,0.0,-3.478937528349706e-07
2026-06-27T15:12:02.528110,1782583718.163858,0.0,0.0,-39.56644058227539,0.0,0.0,-4.990278244018555,0.0,0.0,-3.865938261992704e-07
2026-06-27T15:12:02.637300,1782583718.2718601,0.0,0.0,-40.1054573059082,0.0,0.0,-4.99026346206665,0.0,0.0,-4.252938995635702e-07
2026-06-27T15:12:02.746297,1782583718.3798625,0.0,0.0,-40.644474029541016,0.0,0.0,-4.99025297164917,0.0,0.0,-4.639948380387434e-07
2026-06-27T15:12:02.854807,1782583718.4878647,0.0,0.0,-41.18349075317383,0.0,0.0,-4.9902424812316895,0.0,0.0,-5.026958274027915e-07
2026-06-27T15:12:02.963483,1782583718.5958672,0.0,0.0,-41.72250747680664,0.0,0.0,-4.990233421325684,0.0,0.0,-5.413968167668395e-07
2026-06-27T15:12:03.072533,1782583718.7038693,0.0,0.0,-42.26152420043945,0.0,0.0,-4.990225791931152,0.0,0.0,-5.800978061308876e-07
2026-06-27T15:12:03.181713,1782583718.8118718,0.0,0.0,-42.800540924072266,0.0,0.0,-4.990218639373779,0.0,0.0,-6.187987954949356e-07
2026-06-27T15:12:03.290416,1782583718.919874,0.0,0.0,-43.33955764770508,0.0,0.0,-4.990211486816406,0.0,0.0,-6.574997848589838e-07
2026-06-27T15:12:03.399602,1782583719.0278764,0.0,0.0,-43.87857437133789,0.0,0.0,-4.990204334259033,0.0,0.0,-6.962007742230318e-07
2026-06-27T15:12:03.507967,1782583719.1358786,0.0,0.0,-44.4175910949707,0.0,0.0,-4.990198612213135,0.0,0.0,-7.349017635870799e-07
2026-06-27T15:12:03.618177,1782583719.240881,0.0,0.0,-44.94163513183594,0.0,0.0,-4.990194320678711,0.0,0.0,-7.725277254687932e-07
2026-06-27T15:12:03.726456,1782583719.3488832,0.0,0.0,-45.48065185546875,0.0,0.0,-4.990189552307129,0.0,0.0,-8.112287148328414e-07
2026-06-27T15:12:03.835169,1782583719.4568856,0.0,0.0,-46.01966857910156,0.0,0.0,-4.990185260772705,0.0,0.0,-8.499297041968894e-07
2026-06-27T15:12:03.943907,1782583719.5648878,0.0,0.0,-46.558685302734375,0.0,0.0,-4.990180492401123,0.0,0.0,-8.886290651169406e-07
2026-06-27T15:12:04.052569,1782583719.6728902,0.0,0.0,-47.09770202636719,0.0,0.0,-4.990177154541016,0.0,0.0,-9.273282224814922e-07
2026-06-27T15:12:04.161749,1782583719.7778924,0.0,0.0,-47.62174606323242,0.0,0.0,-4.990172863006592,0.0,0.0,-9.649524032525839e-07
2026-06-27T15:12:04.271001,1782583719.8858945,0.0,0.0,-48.160762786865234,0.0,0.0,-4.990169048309326,0.0,0.0,-1.0036515606171356e-06
2026-06-27T15:12:04.379721,1782583719.993897,0.0,0.0,-48.69977951049805,0.0,0.0,-4.990167140960693,0.0,0.0,-1.042350717981687e-06
2026-06-27T15:12:04.488457,1782583720.1018991,0.0,0.0,-49.23879623413086,0.0,0.0,-4.990163803100586,0.0,0.0,-1.0810498753462388e-06
2026-06-27T15:12:04.597309,1782583720.2099016,0.0,0.0,-49.77781295776367,0.0,0.0,-4.990160942077637,0.0,0.0,-1.1197490327107903e-06
2026-06-27T15:12:04.707000,1782583720.3179038,0.0,0.0,-50.316829681396484,0.0,0.0,-4.990159034729004,0.0,0.0,-1.1584481900753418e-06
2026-06-27T15:12:04.814175,1782583720.4199061,0.0,0.0,-50.82590103149414,0.0,0.0,-4.990157127380371,0.0,0.0,-1.1949973942529737e-06
2026-06-27T15:12:04.924283,1782583720.5309083,0.0,0.0,-51.37989044189453,0.0,0.0,-4.990155220031738,0.0,0.0,-1.234771528210985e-06
2026-06-27T15:12:05.033269,1782583720.6389108,0.0,0.0,-51.9188232421875,0.0,0.0,-4.9901533126831055,0.0,0.0,-1.2734706855755365e-06
2026-06-27T15:12:05.141450,1782583720.746913,0.0,0.0,-52.45770263671875,0.0,0.0,-4.99014949798584,0.0,0.0,-1.3121698429400882e-06
2026-06-27T15:12:05.251079,1782583720.8519154,0.0,0.0,-52.98161315917969,0.0,0.0,-4.990147590637207,0.0,0.0,-1.3497940237111799e-06
2026-06-27T15:12:05.359247,1782583720.9599175,0.0,0.0,-53.52049255371094,0.0,0.0,-4.990147113800049,0.0,0.0,-1.3884931810757318e-06
2026-06-27T15:12:05.468849,1782583721.06792,0.0,0.0,-54.05937194824219,0.0,0.0,-4.990145206451416,0.0,0.0,-1.4271923384402833e-06
2026-06-27T15:12:05.577564,1782583721.1729221,0.0,0.0,-54.583282470703125,0.0,0.0,-4.990142822265625,0.0,0.0,-1.464816519211375e-06
2026-06-27T15:12:05.686256,1782583721.2809243,0.0,0.0,-55.122161865234375,0.0,0.0,-4.99014139175415,0.0,0.0,-1.5035156765759265e-06
2026-06-27T15:12:05.795976,1782583721.3889267,0.0,0.0,-55.661041259765625,0.0,0.0,-4.990139961242676,0.0,0.0,-1.5422148339404782e-06
2026-06-27T15:12:05.903652,1782583721.496929,0.0,0.0,-56.199920654296875,0.0,0.0,-4.990138530731201,0.0,0.0,-1.5809139913050297e-06
2026-06-27T15:12:06.013024,1782583721.6049314,0.0,0.0,-56.738800048828125,0.0,0.0,-4.990138053894043,0.0,0.0,-1.6196131486695812e-06
2026-06-27T15:12:06.122231,1782583721.7129335,0.0,0.0,-57.277679443359375,0.0,0.0,-4.990137100219727,0.0,0.0,-1.6583123060341327e-06
2026-06-27T15:12:06.230655,1782583721.820936,0.0,0.0,-57.816558837890625,0.0,0.0,-4.99013614654541,0.0,0.0,-1.6970114633986844e-06
2026-06-27T15:12:06.339845,1782583721.9259381,0.0,0.0,-58.34046936035156,0.0,0.0,-4.990133762359619,0.0,0.0,-1.7346356441697761e-06
2026-06-27T15:12:06.448524,1782583722.0339406,0.0,0.0,-58.87934875488281,0.0,0.0,-4.9901323318481445,0.0,0.0,-1.7733348015343276e-06
2026-06-27T15:12:06.557807,1782583722.1419427,0.0,0.0,-59.41822814941406,0.0,0.0,-4.990129470825195,0.0,0.0,-1.8120339588988791e-06
2026-06-27T15:12:06.666028,1782583722.2469451,0.0,0.0,-59.92716979980469,0.0,0.0,-4.990129470825195,0.0,0.0,-1.8485831630765112e-06
2026-06-27T15:12:06.775144,1782583722.3489473,0.0,0.0,-60.451080322265625,0.0,0.0,-4.990128517150879,0.0,0.0,-1.886207343847603e-06
2026-06-27T15:12:06.883384,1782583722.4569495,0.0,0.0,-60.989959716796875,0.0,0.0,-4.9901275634765625,0.0,0.0,-1.9249065012121544e-06
2026-06-27T15:12:06.992124,1782583722.564952,0.0,0.0,-61.528839111328125,0.0,0.0,-4.990126609802246,0.0,0.0,-1.9636056585767063e-06
2026-06-27T15:12:07.100799,1782583722.672954,0.0,0.0,-62.067718505859375,0.0,0.0,-4.99012565612793,0.0,0.0,-2.002304815941258e-06
2026-06-27T15:12:07.208953,1782583722.7779562,0.0,0.0,-62.59162902832031,0.0,0.0,-4.990124702453613,0.0,0.0,-2.0399289967123495e-06
2026-06-27T15:12:07.319198,1782583722.8889587,0.0,0.0,-63.145477294921875,0.0,0.0,-4.9901227951049805,0.0,0.0,-2.079703130670361e-06
2026-06-27T15:12:07.427718,1782583722.996961,0.0,0.0,-63.684356689453125,0.0,0.0,-4.990121364593506,0.0,0.0,-2.1184022880349123e-06
2026-06-27T15:12:07.535932,1782583723.1019633,0.0,0.0,-64.20826721191406,0.0,0.0,-4.990119934082031,0.0,0.0,-2.156026468806004e-06
2026-06-27T15:12:07.645336,1782583723.2129657,0.0,0.0,-64.76211547851562,0.0,0.0,-4.990119457244873,0.0,0.0,-2.1958006027640157e-06
2026-06-27T15:12:07.754027,1782583723.317968,0.0,0.0,-65.28602600097656,0.0,0.0,-4.990118026733398,0.0,0.0,-2.233424783535108e-06
2026-06-27T15:12:07.863109,1782583723.42597,0.0,0.0,-65.82490539550781,0.0,0.0,-4.99011754989624,0.0,0.0,-2.2721239408996594e-06
2026-06-27T15:12:07.971802,1782583723.5309725,0.0,0.0,-66.34881591796875,0.0,0.0,-4.990116596221924,0.0,0.0,-2.3097481216707506e-06
2026-06-27T15:12:08.082061,1782583723.6389747,0.0,0.0,-66.8876953125,0.0,0.0,-4.990114688873291,0.0,0.0,-2.3484472790353026e-06
2026-06-27T15:12:08.189551,1782583723.746977,0.0,0.0,-67.42657470703125,0.0,0.0,-4.990114688873291,0.0,0.0,-2.387146436399854e-06
2026-06-27T15:12:08.298745,1782583723.8549793,0.0,0.0,-67.9654541015625,0.0,0.0,-4.990113735198975,0.0,0.0,-2.4258455937644056e-06
2026-06-27T15:12:08.407952,1782583723.9629817,0.0,0.0,-68.50433349609375,0.0,0.0,-4.9901123046875,0.0,0.0,-2.464544751128957e-06
2026-06-27T15:12:08.517651,1782583724.070984,0.0,0.0,-69.043212890625,0.0,0.0,-4.990110397338867,0.0,0.0,-2.5032439084935086e-06
2026-06-27T15:12:08.625875,1782583724.1789863,0.0,0.0,-69.58209228515625,0.0,0.0,-4.990109443664551,0.0,0.0,-2.54194306585806e-06
2026-06-27T15:12:08.733622,1782583724.2869885,0.0,0.0,-70.1209716796875,0.0,0.0,-4.990108966827393,0.0,0.0,-2.5806422232226116e-06
2026-06-27T15:12:08.842808,1782583724.394991,0.0,0.0,-70.65985107421875,0.0,0.0,-4.990108013153076,0.0,0.0,-2.619341380587163e-06
2026-06-27T15:12:08.952206,1782583724.502993,0.0,0.0,-71.19873046875,0.0,0.0,-4.99010705947876,0.0,0.0,-2.6580405379517154e-06
2026-06-27T15:12:09.060921,1782583724.6109955,0.0,0.0,-71.73760986328125,0.0,0.0,-4.990106105804443,0.0,0.0,-2.696739695316267e-06
2026-06-27T15:12:09.170178,1782583724.7189977,0.0,0.0,-72.2764892578125,0.0,0.0,-4.990105152130127,0.0,0.0,-2.7354388526808184e-06
2026-06-27T15:12:09.278461,1782583724.8270001,0.0,0.0,-72.81536865234375,0.0,0.0,-4.990103721618652,0.0,0.0,-2.77413801004537e-06
2026-06-27T15:12:09.387631,1782583724.9350023,0.0,0.0,-73.354248046875,0.0,0.0,-4.990106105804443,0.0,0.0,-2.8128371674099214e-06
2026-06-27T15:12:09.496397,1782583725.0430048,0.0,0.0,-73.89312744140625,0.0,0.0,-4.990106105804443,0.0,0.0,-2.851536324774473e-06
2026-06-27T15:12:09.604074,1782583725.151007,0.0,0.0,-74.4320068359375,0.0,0.0,-4.990106105804443,0.0,0.0,-2.8902354821390244e-06
2026-06-27T15:12:09.713436,1782583725.2590094,0.0,0.0,-74.97088623046875,0.0,0.0,-4.990106105804443,0.0,0.0,-2.9289346395035768e-06
2026-06-27T15:12:09.823161,1782583725.3670115,0.0,0.0,-75.509765625,0.0,0.0,-4.990104675292969,0.0,0.0,-2.967633796868128e-06
2026-06-27T15:12:09.932777,1782583725.475014,0.0,0.0,-76.03367614746094,0.0,0.0,-4.990102767944336,0.0,0.0,-3.0052579776392195e-06
2026-06-27T15:12:10.040458,1782583725.5800161,0.0,0.0,-76.55758666992188,0.0,0.0,-4.990100383758545,0.0,0.0,-3.0428821584103116e-06
2026-06-27T15:12:10.149685,1782583725.6850183,0.0,0.0,-77.09646606445312,0.0,0.0,-4.990100383758545,0.0,0.0,-3.081581315774863e-06
2026-06-27T15:12:10.258671,1782583725.7930207,0.0,0.0,-77.63534545898438,0.0,0.0,-4.9900994300842285,0.0,0.0,-3.120280473139415e-06
2026-06-27T15:12:10.367360,1782583725.901023,0.0,0.0,-78.17422485351562,0.0,0.0,-4.990097999572754,0.0,0.0,-3.158979630503967e-06
2026-06-27T15:12:10.476049,1782583726.0090253,0.0,0.0,-78.71310424804688,0.0,0.0,-4.990097522735596,0.0,0.0,-3.197678787868518e-06
2026-06-27T15:12:10.585838,1782583726.1200275,0.0,0.0,-79.26695251464844,0.0,0.0,-4.990096092224121,0.0,0.0,-3.2374529218265294e-06
2026-06-27T15:12:10.693508,1782583726.22503,0.0,0.0,-79.79086303710938,0.0,0.0,-4.990093231201172,0.0,0.0,-3.2750771025976215e-06
2026-06-27T15:12:10.803232,1782583726.3360322,0.0,0.0,-80.34471130371094,0.0,0.0,-4.990091323852539,0.0,0.0,-3.314851236555633e-06
2026-06-27T15:12:10.912403,1782583726.4410346,0.0,0.0,-80.86862182617188,0.0,0.0,-4.990090370178223,0.0,0.0,-3.352475417326725e-06
2026-06-27T15:12:11.022122,1782583726.5460367,0.0,0.0,-81.39253234863281,0.0,0.0,-4.990089416503906,0.0,0.0,-3.3900995980978166e-06
2026-06-27T15:12:11.129326,1782583726.6540391,0.0,0.0,-81.93141174316406,0.0,0.0,-4.990087985992432,0.0,0.0,-3.4288011981283636e-06
2026-06-27T15:12:11.238982,1782583726.7620413,0.0,0.0,-82.47029113769531,0.0,0.0,-4.990087032318115,0.0,0.0,-3.467507683490901e-06
2026-06-27T15:12:11.348748,1782583726.8670435,0.0,0.0,-82.99420166015625,0.0,0.0,-4.990086078643799,0.0,0.0,-3.5051389887044795e-06
2026-06-27T15:12:11.455936,1782583726.972046,0.0,0.0,-83.51811218261719,0.0,0.0,-4.990085124969482,0.0,0.0,-3.5427702939180574e-06
2026-06-27T15:12:11.565123,1782583727.080048,0.0,0.0,-84.05699157714844,0.0,0.0,-4.990084648132324,0.0,0.0,-3.5814767792805954e-06
2026-06-27T15:12:11.673523,1782583727.1880505,0.0,0.0,-84.59587097167969,0.0,0.0,-4.99008321762085,0.0,0.0,-3.620183264643133e-06
2026-06-27T15:12:11.782752,1782583727.2960527,0.0,0.0,-85.13475036621094,0.0,0.0,-4.990079879760742,0.0,0.0,-3.6588897500056706e-06
2026-06-27T15:12:11.893451,1782583727.4010549,0.0,0.0,-85.65866088867188,0.0,0.0,-4.990079879760742,0.0,0.0,-3.6965210552192497e-06
2026-06-27T15:12:12.001153,1782583727.5060573,0.0,0.0,-86.18257141113281,0.0,0.0,-4.990078449249268,0.0,0.0,-3.7341523604328272e-06
2026-06-27T15:12:12.109967,1782583727.6140594,0.0,0.0,-86.72145080566406,0.0,0.0,-4.990077495574951,0.0,0.0,-3.7728588457953656e-06
2026-06-27T15:12:12.218691,1782583727.7190619,0.0,0.0,-87.245361328125,0.0,0.0,-4.990076541900635,0.0,0.0,-3.810490151008944e-06
2026-06-27T15:12:12.327367,1782583727.827064,0.0,0.0,-87.78424072265625,0.0,0.0,-4.990075588226318,0.0,0.0,-3.849196636371482e-06
2026-06-27T15:12:12.436053,1782583727.9350665,0.0,0.0,-88.3231201171875,0.0,0.0,-4.990074634552002,0.0,0.0,-3.8879031217340196e-06
2026-06-27T15:12:12.544218,1782583728.0430686,0.0,0.0,-88.86199951171875,0.0,0.0,-4.990073204040527,0.0,0.0,-3.926609607096557e-06
2026-06-27T15:12:12.653909,1782583728.1480708,0.0,0.0,-89.38591003417969,0.0,0.0,-4.990073204040527,0.0,0.0,-3.9642409123101355e-06
2026-06-27T15:12:12.763100,1782583728.2560732,0.0,0.0,-89.92478942871094,0.0,0.0,-4.990071773529053,0.0,0.0,-4.002947397672673e-06
2026-06-27T15:12:12.872370,1782583728.3640754,0.0,0.0,-90.46366882324219,0.0,0.0,-4.99006986618042,0.0,0.0,-4.041653883035211e-06
2026-06-27T15:12:12.980537,1782583728.4720778,0.0,0.0,-91.00254821777344,0.0,0.0,-4.990069389343262,0.0,0.0,-4.080360368397749e-06
2026-06-27T15:12:13.089052,1782583728.58008,0.0,0.0,-91.54142761230469,0.0,0.0,-4.990067481994629,0.0,0.0,-4.119066853760287e-06
2026-06-27T15:12:13.198057,1782583728.6880825,0.0,0.0,-92.08030700683594,0.0,0.0,-4.990067481994629,0.0,0.0,-4.157773339122824e-06
2026-06-27T15:12:13.307323,1782583728.7960846,0.0,0.0,-92.61918640136719,0.0,0.0,-4.990066051483154,0.0,0.0,-4.196479824485362e-06
2026-06-27T15:12:13.415987,1782583728.904087,0.0,0.0,-93.15806579589844,0.0,0.0,-4.990065574645996,0.0,0.0,-4.235186309847899e-06
2026-06-27T15:12:13.525029,1782583729.0090892,0.0,0.0,-93.68197631835938,0.0,0.0,-4.9900641441345215,0.0,0.0,-4.272817615061478e-06
2026-06-27T15:12:13.632712,1782583729.1170917,0.0,0.0,-94.22085571289062,0.0,0.0,-4.990063190460205,0.0,0.0,-4.311524100424015e-06
2026-06-27T15:12:13.741889,1782583729.2250938,0.0,0.0,-94.75973510742188,0.0,0.0,-4.990062236785889,0.0,0.0,-4.350230585786554e-06
2026-06-27T15:12:13.850422,1782583729.3330963,0.0,0.0,-95.29861450195312,0.0,0.0,-4.990060806274414,0.0,0.0,-4.3889370711490904e-06
2026-06-27T15:12:13.959603,1782583729.4410985,0.0,0.0,-95.83749389648438,0.0,0.0,-4.990059852600098,0.0,0.0,-4.427643556511629e-06
2026-06-27T15:12:14.068592,1782583729.5491009,0.0,0.0,-96.37637329101562,0.0,0.0,-4.990058898925781,0.0,0.0,-4.4663500418741664e-06
2026-06-27T15:12:14.177345,1782583729.657103,0.0,0.0,-96.91525268554688,0.0,0.0,-4.990057945251465,0.0,0.0,-4.505056527236704e-06
2026-06-27T15:12:14.286674,1782583729.7651055,0.0,0.0,-97.45413208007812,0.0,0.0,-4.990056991577148,0.0,0.0,-4.543763012599242e-06
2026-06-27T15:12:14.395371,1782583729.8701077,0.0,0.0,-97.97804260253906,0.0,0.0,-4.990055561065674,0.0,0.0,-4.581394317812821e-06
2026-06-27T15:12:14.503687,1782583729.9751098,0.0,0.0,-98.501953125,0.0,0.0,-4.990054607391357,0.0,0.0,-4.619025623026398e-06
2026-06-27T15:12:14.613878,1782583730.0861123,0.0,0.0,-99.05580139160156,0.0,0.0,-4.990053653717041,0.0,0.0,-4.658807288537896e-06
2026-06-27T15:12:14.721934,1782583730.1941144,0.0,0.0,-99.59468078613281,0.0,0.0,-4.990053176879883,0.0,0.0,-4.6975137739004335e-06
2026-06-27T15:12:14.830684,1782583730.3021169,0.0,0.0,-100.13350677490234,9.931774513916025e-09,-1.781822511759401e-08,-4.97166109085083,-0.0003686534507176125,-0.00020550835330421965,-0.005510419128591776
2026-06-27T15:12:14.939375,1782583730.410119,1.5507161151617765e-05,-2.586305527074728e-05,-100.65306854248047,0.0006141533376649022,-0.0010067821713164449,-4.689724922180176,-0.20980922848838918,-0.14225966460373776,-2.167838966325503
2026-06-27T15:12:15.048647,1782583730.5181215,0.0002745254896581173,-0.00044034168240614235,-101.15206909179688,0.005120657384395599,-0.008134376257658005,-4.572028160095215,-0.6290514759275834,-0.53001307173364,-7.663209650740251
2026-06-27T15:12:15.157295,1782583730.6261237,0.001369371311739087,-0.002168450504541397,-101.64470672607422,0.01647326722741127,-0.025910386815667152,-4.568169593811035,-0.9962089662014697,-1.1258754345317372,-15.834381736461436
2026-06-27T15:12:15.266535,1782583730.734126,0.004034301266074181,-0.006343339569866657,-102.12809753417969,0.03572404384613037,-0.05579976364970207,-4.651507377624512,-1.1383462343360058,-1.8697901047948284,-25.789303302145143
2026-06-27T15:12:15.375264,1782583730.8391283,0.009376700036227703,-0.014661535620689392,-102.63824462890625,0.0650792270898819,-0.10107705742120743,-4.81494140625,-0.9597076545640475,-2.729731814725366,-37.59051244776434
2026-06-27T15:12:15.485008,1782583730.9471307,0.018477628007531166,-0.028757665306329727,-103.17122650146484,0.10274793952703476,-0.15881836414337158,-4.9856767654418945,-0.4452559937751926,-3.57859009810286,-49.707847862513596
2026-06-27T15:12:15.593065,1782583731.0551329,0.03148559480905533,-0.04882708191871643,-103.70466613769531,0.13841670751571655,-0.21321821212768555,-4.870276927947998,0.23862831975037338,-4.331538236009176,-59.842293131182345
2026-06-27T15:12:15.702758,1782583731.1601353,0.04796421900391579,-0.0741695985198021,-104.2064208984375,0.17618036270141602,-0.2705344557762146,-4.681193828582764,0.8946941955090081,-4.955848797142065,-66.7895661916731
2026-06-27T15:12:15.810782,1782583731.2651374,0.06869204342365265,-0.10594223439693451,-104.68790435791016,0.21987859904766083,-0.33646705746650696,-4.496155738830566,1.3886391965345475,-5.514147438375597,-70.54188493313379
2026-06-27T15:12:15.919551,1782583731.3731396,0.09527941048145294,-0.1465456485748291,-105.16606140136719,0.27438580989837646,-0.4182347059249878,-4.37497091293335,1.6144853453433365,-6.077361105732373,-71.15335753242272
2026-06-27T15:12:16.029230,1782583731.481142,0.12844708561897278,-0.19699665904045105,-105.6374740600586,0.34242692589759827,-0.5198658108711243,-4.380426406860352,1.5099682971335389,-6.6599515170215895,-68.96292958793344
2026-06-27T15:12:16.137389,1782583731.5891442,0.16988368332386017,-0.2597813606262207,-106.11859130859375,0.428202360868454,-0.6476742029190063,-4.561410427093506,1.1145342818080466,-7.253425907870994,-64.87696066215781
2026-06-27T15:12:16.246074,1782583731.6971467,0.22153706848621368,-0.33778059482574463,-106.62774658203125,0.5264886617660522,-0.7939861416816711,-4.82779598236084,0.5534442113935392,-7.84784449505808,-60.15185301179857
2026-06-27T15:12:16.355303,1782583731.8021488,0.28098827600479126,-0.42735540866851807,-107.13359069824219,0.6048325300216675,-0.9105941653251648,-4.782439231872559,0.005511842917980613,-8.444333528801168,-56.14597069109428
2026-06-27T15:12:16.464005,1782583731.9071512,0.34857290983200073,-0.5290385484695435,-107.62989807128906,0.68302983045578,-1.0270373821258545,-4.666470527648926,-0.42243397473099686,-9.054840240695356,-53.44281100805509
2026-06-27T15:12:16.573210,1782583732.0151534,0.426845908164978,-0.646673321723938,-108.12628936767578,0.7672077417373657,-1.1525040864944458,-4.523303508758545,-0.663137959643516,-9.708301710455672,-52.22473137119749
2026-06-27T15:12:16.681406,1782583732.1201556,0.5118685364723206,-0.7743489742279053,-108.59310150146484,0.852820098400116,-1.2802555561065674,-4.364705562591553,-0.6890513901552265,-10.346877229461027,-52.34869017201691
2026-06-27T15:12:16.790665,1782583732.231158,0.6117050647735596,-0.9241849184036255,-109.0671157836914,0.946494996547699,-1.4201992750167847,-4.171226501464844,-0.5380869728173995,-11.023329850953163,-53.397178467434976
2026-06-27T15:12:16.898863,1782583732.3361602,0.7158297896385193,-1.080397129058838,-109.49415588378906,1.0370477437973022,-1.5556179285049438,-3.95756196975708,-0.30140600528021466,-11.663145741046522,-54.745011166414024
2026-06-27T15:12:17.008603,1782583732.4441626,0.8328844308853149,-1.2559666633605957,-109.90785217285156,1.1304702758789062,-1.695444941520691,-3.6952390670776367,-0.04488189521416287,-12.339583031454925,-56.05095076290606
2026-06-27T15:12:17.117412,1782583732.5521648,0.9599233269691467,-1.4464850425720215,-110.29003143310547,1.2210907936096191,-1.8311699628829956,-3.3667922019958496,0.16082787182144365,-13.094434344338202,-56.99337238398317
2026-06-27T15:12:17.227230,1782583732.6601672,1.0963046550750732,-1.6509989500045776,-110.63096618652344,1.301904559135437,-1.9522651433944702,-2.92020320892334,0.2825137585545493,-14.052393520205586,-57.46550737773678
2026-06-27T15:12:17.334923,1782583732.7681694,1.2403348684310913,-1.8669757843017578,-110.91352844238281,1.3690495491027832,-2.0529096126556396,-2.330808162689209,0.3130953758209775,-15.255795267895158,-57.50651798238953
2026-06-27T15:12:17.444096,1782583732.8761718,1.3948500156402588,-2.0986757278442383,-111.15227508544922,1.497870683670044,-2.246147871017456,-2.1272714138031006,0.23954305469199028,-15.233636809238428,-57.2374266491139
2026-06-27T15:12:17.552783,1782583732.984174,1.5640161037445068,-2.3523573875427246,-111.37521362304688,1.6333755254745483,-2.449467897415161,-2.0021307468414307,0.12352613890786342,-14.338248069638755,-56.82704700527355
2026-06-27T15:12:17.661897,1782583733.0921764,1.7472649812698364,-2.627171039581299,-111.58479309082031,1.7580312490463257,-2.6365325450897217,-1.8797608613967896,0.022825614503183187,-13.063622845691196,-56.42553511427868
2026-06-27T15:12:17.770147,1782583733.2001786,1.943317174911499,-2.9211978912353516,-111.78160858154297,1.8704386949539185,-2.8052239418029785,-1.7671728134155273,-0.03819393558549337,-11.680685980268047,-56.128325414887826
2026-06-27T15:12:17.880287,1782583733.308181,2.1508524417877197,-3.2324578762054443,-111.96704864501953,1.9707304239273071,-2.95573353767395,-1.669681429862976,-0.060240674839975944,-10.330222358778245,-55.971858878134015
2026-06-27T15:12:17.988568,1782583733.4131832,2.362410306930542,-3.5497593879699707,-112.13804626464844,2.057063341140747,-3.085282564163208,-1.5899142026901245,-0.055983522128476904,-9.113084104466681,-55.94546647349685
2026-06-27T15:12:18.099271,1782583733.5211856,2.588886022567749,-3.8894400596618652,-112.30596923828125,2.1350789070129395,-3.202326774597168,-1.5215914249420166,-0.038892077292157226,-7.986855784617644,-56.010997083218165
2026-06-27T15:12:18.206492,1782583733.6261878,2.8166303634643555,-4.231026649475098,-112.46275329589844,2.201308012008667,-3.30165433883667,-1.466229796409607,-0.020064512338283207,-7.019840103467648,-56.12057403829861
2026-06-27T15:12:18.313998,1782583733.73119,3.050872325897217,-4.582355976104736,-112.61417388916016,2.258998155593872,-3.3881335258483887,-1.4195646047592163,-0.0048207055637871895,-6.174143208536806,-56.235858886222026
2026-06-27T15:12:18.423509,1782583733.8361924,3.2907655239105225,-4.94215202331543,-112.76109313964844,2.309095621109009,-3.4631917476654053,-1.379669189453125,0.004767582267672655,-5.440350881827972,-56.329125902227645
2026-06-27T15:12:18.533509,1782583733.9411945,3.535560369491577,-5.309291839599609,-112.90410614013672,2.352511405944824,-3.528209686279297,-1.344985008239746,0.009001776199975501,-4.806960662471616,-56.38653856382756
2026-06-27T15:12:18.642256,1782583734.0461967,3.784599781036377,-5.682786464691162,-113.04369354248047,2.390092372894287,-3.5844733715057373,-1.3142890930175781,0.009333234046867771,-4.262206363304866,-56.406795407755666
2026-06-27T15:12:18.751373,1782583734.1541991,4.044582366943359,-6.072683334350586,-113.18407440185547,2.4234704971313477,-3.634441375732422,-1.2859731912612915,0.007387625348156634,-3.7824325259774385,-56.39673602415285
2026-06-27T15:12:18.859584,1782583734.2622013,4.307914733886719,-6.467594146728516,-113.32154083251953,2.452226400375366,-3.677497625350952,-1.2599676847457886,0.004649543211658712,-3.3735111110864278,-56.36797611533683
2026-06-27T15:12:18.968836,1782583734.3672035,4.566701889038086,-6.855685234069824,-113.45259094238281,2.47638201713562,-3.7136809825897217,-1.236522912979126,0.002186288720827216,-3.034099078427565,-56.33432756442552
2026-06-27T15:12:19.077609,1782583734.4692059,4.8203606605529785,-7.236083030700684,-113.57762145996094,2.496762275695801,-3.744222402572632,-1.2150193452835083,0.000420448276440317,-2.751672315102695,-56.305229733060024
2026-06-27T15:12:19.186307,1782583734.574208,5.0835065841674805,-7.630703926086426,-113.70409393310547,2.5150153636932373,-3.7715904712677,-1.193979024887085,-0.0006512449569217204,-2.5026272237977896,-56.284350588754315
2026-06-27T15:12:19.296011,1782583734.6762102,5.340849876403809,-8.016624450683594,-113.82487487792969,2.5304698944091797,-3.7947726249694824,-1.17433762550354,-0.0010625740771143238,-2.2955169184604003,-56.2745365583922
2026-06-27T15:12:19.405097,1782583734.7782123,5.599668502807617,-8.40475845336914,-113.94368743896484,2.5440011024475098,-3.815075635910034,-1.1554733514785767,-0.0010407405220643363,-2.117655820975919,-56.27390887343669
2026-06-27T15:12:19.513435,1782583734.8862147,5.875117778778076,-8.81783390045166,-114.06742095947266,2.556525230407715,-3.8338682651519775,-1.135837197303772,-0.0007689851275565854,-1.956985270949805,-56.280237370409644
2026-06-27T15:12:19.622587,1782583734.9882169,6.136430740356445,-9.20970630645752,-114.18235778808594,2.5669000148773193,-3.8494341373443604,-1.1178371906280518,-0.0004430630339593879,-1.8272586403050812,-56.28940500087842
2026-06-27T15:12:19.730363,1782583735.093219,6.40646505355835,-9.614662170410156,-114.29878234863281,2.5763161182403564,-3.8635594844818115,-1.0996960401535034,-0.00015299150798397506,-1.7128335092290061,-56.29899438440097
2026-06-27T15:12:19.840212,1782583735.1952212,6.669676303863525,-10.009385108947754,-114.41008758544922,2.584407091140747,-3.875694990158081,-1.0824105739593506,3.2153072447624474e-05,-1.6175544067467236,-56.30640829095592
2026-06-27T15:12:19.948918,1782583735.3002236,6.941441059112549,-10.416937828063965,-114.5228271484375,2.5918025970458984,-3.886784553527832,-1.0648823976516724,0.00011001728524884644,-1.533409006619302,-56.31105376939909
2026-06-27T15:12:20.056625,1782583735.4022257,7.198348045349121,-10.802206993103027,-114.62744903564453,2.598027467727661,-3.896120071411133,-1.0486387014389038,9.582032175450886e-05,-1.4651975675426092,-56.31261266444578
2026-06-27T15:12:20.164085,1782583735.5042279,7.471461296081543,-11.211782455444336,-114.73665618896484,2.603945255279541,-3.9049949645996094,-1.031596302986145,1.7970879505946925e-05,-1.4028795679902495,-56.311890644272005
2026-06-27T15:12:20.273892,1782583735.60923,7.745162010192871,-11.622241020202637,-114.84408569335938,2.6092541217803955,-3.9129600524902344,-1.014805555343628,-9.187746849611276e-05,-1.3494025084178114,-56.309668669983395
2026-06-27T15:12:20.383411,1782583735.7142322,8.01939582824707,-12.033493995666504,-114.94977569580078,2.6140389442443848,-3.9201407432556152,-0.9981776475906372,-0.00020020668289190372,-1.3034518546175526,-56.306993806749524
2026-06-27T15:12:20.492154,1782583735.8162346,8.286251068115234,-12.433683395385742,-115.05076599121094,2.618252992630005,-3.9264683723449707,-0.982154369354248,-0.00028865305097725046,-1.2649650714652885,-56.30460510245577
2026-06-27T15:12:20.600336,1782583735.9212368,8.561384201049805,-12.846287727355957,-115.15303802490234,2.622204303741455,-3.932405948638916,-0.9658941626548767,-0.0003587459174988266,-1.2307435995032863,-56.30288957692119
2026-06-27T15:12:20.709061,1782583736.029239,8.8447904586792,-13.271302223205566,-115.25646209716797,2.625916004180908,-3.937983512878418,-0.949364960193634,-0.00039569053461611074,-1.2004006924333233,-56.302078644816206
2026-06-27T15:12:20.817464,1782583736.1312413,9.11280632019043,-13.673234939575195,-115.35250091552734,2.6291351318359375,-3.9428234100341797,-0.9338828921318054,-0.00040986613447596736,-1.1756078282094728,-56.30210985136042
2026-06-27T15:12:20.926172,1782583736.2332435,9.38113784790039,-14.075643539428711,-115.44697570800781,2.6321120262145996,-3.9472999572753906,-0.9185413122177124,-0.00041269799075230074,-1.1540052125160902,-56.30268216370973
2026-06-27T15:12:21.036679,1782583736.3412457,9.665571212768555,-14.502202033996582,-115.54532623291016,2.6350343227386475,-3.9516959190368652,-0.9025630354881287,-0.0004027436599200228,-1.1340588097519066,-56.30358120378213
2026-06-27T15:12:21.143874,1782583736.4432478,9.934483528137207,-14.90548324584961,-115.63661193847656,2.6376020908355713,-3.9555587768554688,-0.887493371963501,-0.00039522549050716746,-1.1176739116010064,-56.30441955065214
2026-06-27T15:12:21.252147,1782583736.5482502,10.211569786071777,-15.321024894714355,-115.72899627685547,2.640075445175171,-3.959282398223877,-0.8721988797187805,-0.0003940151827592551,-1.1028688566634894,-56.305168213566084
2026-06-27T15:12:21.362380,1782583736.6532524,10.488906860351562,-15.736944198608398,-115.81978607177734,2.6423964500427246,-3.9627766609191895,-0.8570622205734253,-0.0003925381408951975,-1.089844190715882,-56.30565908051811
2026-06-27T15:12:21.470935,1782583736.7552545,10.75854778289795,-16.14132308959961,-115.90646362304688,2.6445212364196777,-3.965974807739258,-0.8424108028411865,-0.0003972011114001927,-1.078713502438294,-56.305881205854945
2026-06-27T15:12:21.579213,1782583736.8602567,11.036337852478027,-16.557924270629883,-115.9941635131836,2.6465909481048584,-3.9690918922424316,-0.8276553750038147,-0.0003982058443022973,-1.0684365376515237,-56.30593727832105
2026-06-27T15:12:21.691545,1782583736.968259,11.322286605834961,-16.98676109313965,-116.0827407836914,2.648607015609741,-3.972127914428711,-0.8125789761543274,-0.00040110068516713857,-1.0590490210254835,-56.305826553214075
2026-06-27T15:12:21.797250,1782583737.0702612,11.59254264831543,-17.392065048217773,-116.16490173339844,2.6504154205322266,-3.9748520851135254,-0.7983962297439575,-0.00040803068718396184,-1.0511225119131236,-56.30561721993159
2026-06-27T15:12:21.905952,1782583737.1752634,11.870936393737793,-17.809574127197266,-116.24798583984375,2.6521921157836914,-3.9775288105010986,-0.7840666770935059,-0.0004269143687574214,-1.0437696538692298,-56.30551398945526
2026-06-27T15:12:22.014202,1782583737.2772655,12.141549110412598,-18.21541976928711,-116.32725524902344,2.6538400650024414,-3.980013608932495,-0.770289421081543,-0.0004261184215017781,-1.0372546185958544,-56.30551391800506
2026-06-27T15:12:22.124119,1782583737.385268,12.428260803222656,-18.645408630371094,-116.40966796875,2.6555094718933105,-3.9825308322906494,-0.7558273673057556,-0.00042536490071119835,-1.0309869841318016,-56.30555416021878
2026-06-27T15:12:22.233860,1782583737.4902701,12.70717716217041,-19.06370735168457,-116.4883041381836,2.65706467628479,-3.984876871109009,-0.7420063018798828,-0.00042363706998740913,-1.0253805150712205,-56.30565851738943
2026-06-27T15:12:22.343212,1782583737.5952725,12.98625373840332,-19.48224449157715,-116.56548309326172,2.658555746078491,-3.987126588821411,-0.7281873822212219,-0.00042487948288955475,-1.020282255847462,-56.30576683823117
2026-06-27T15:12:22.450479,1782583737.7002747,13.265483856201172,-19.901016235351562,-116.6412353515625,2.6599905490875244,-3.9892923831939697,-0.7146031260490417,-0.0004256809690246846,-1.0155368744662954,-56.30587181229539
2026-06-27T15:12:22.559333,1782583737.8052769,13.54486083984375,-20.320011138916016,-116.71556854248047,2.6613707542419434,-3.9913763999938965,-0.7011854648590088,-0.0004241927931803626,-1.0110957520400254,-56.30597920235332
2026-06-27T15:12:22.669108,1782583737.9132793,13.832368850708008,-20.751201629638672,-116.79056549072266,2.66273832321167,-3.993441581726074,-0.6875560283660889,-0.00042661742441434206,-1.0068313683166952,-56.3060862045521
2026-06-27T15:12:22.777824,1782583738.0182815,14.112029075622559,-21.170623779296875,-116.86207580566406,2.6640193462371826,-3.995377779006958,-0.6745103597640991,-0.0004252263361544004,-1.0029116782894696,-56.306191528831285
2026-06-27T15:12:22.887121,1782583738.1202836,14.383828163146973,-21.57825469970703,-116.93023681640625,2.6652207374572754,-3.9971930980682373,-0.6618941426277161,-0.0004195204647673342,-0.9993468861085736,-56.306295223742126
2026-06-27T15:12:22.995285,1782583738.225286,14.663745880126953,-21.998064041137695,-116.99905395507812,2.6664164066314697,-3.9989993572235107,-0.649117648601532,-0.000417658175274657,-0.9958491747103199,-56.306391534374285
2026-06-27T15:12:23.103994,1782583738.3302882,14.943785667419434,-22.418058395385742,-117.06654357910156,2.6675713062286377,-4.000743389129639,-0.6365119218826294,-0.00041584335676881636,-0.9925114165833628,-56.30650750460285
2026-06-27T15:12:23.213394,1782583738.4352903,15.223945617675781,-22.838232040405273,-117.13272857666016,2.668686628341675,-4.002429485321045,-0.6240695118904114,-0.00041447892000113243,-0.9893166739077596,-56.30661229900501
2026-06-27T15:12:23.322025,1782583738.5432928,15.512228965759277,-23.270597457885742,-117.19944763183594,2.6697957515716553,-4.004106521606445,-0.6114548444747925,-0.0004128745965586249,-0.9861643197026468,-56.30672182478012
2026-06-27T15:12:23.430785,1782583738.645295,15.784605979919434,-23.679101943969727,-117.26121520996094,2.670807361602783,-4.0056376457214355,-0.5996847152709961,-0.00040943978016361383,-0.983295289228659,-56.30682475609883
2026-06-27T15:12:23.540009,1782583738.747297,16.05708122253418,-24.0877628326416,-117.32179260253906,2.6717870235443115,-4.007119655609131,-0.5880844593048096,-0.0003934095111193954,-0.980520819802869,-56.306888584451436
2026-06-27T15:12:23.648738,1782583738.8492992,16.329662322998047,-24.496570587158203,-117.38119506835938,2.6727356910705566,-4.008553981781006,-0.5766504406929016,-0.0003944759202660144,-0.9778437671668478,-56.30688797052748
2026-06-27T15:12:23.757960,1782583738.9513013,16.602331161499023,-24.905521392822266,-117.43943786621094,2.6736538410186768,-4.009943008422852,-0.5653796195983887,-0.00039356711432050797,-0.9752504904858463,-56.306943581296494
2026-06-27T15:12:23.866195,1782583739.0563035,16.883121490478516,-25.32664680480957,-117.49819946289062,2.674567937850952,-4.011327266693115,-0.5539245009422302,-0.00039210401976194257,-0.9726568480363984,-56.30704687829873
2026-06-27T15:12:23.975628,1782583739.158306,17.155977249145508,-25.735876083374023,-117.55413818359375,2.6754274368286133,-4.012627124786377,-0.5429674983024597,-0.0003857315165402313,-0.970212175071563,-56.30715310236916
2026-06-27T15:12:24.084333,1782583739.263308,17.43694496154785,-26.157278060913086,-117.61055755615234,2.676283121109009,-4.013922691345215,-0.5318413376808167,-0.00037725583375012824,-0.9677562395989436,-56.30722192906018
2026-06-27T15:12:24.193666,1782583739.3653102,17.709978103637695,-26.566770553588867,-117.66425323486328,2.677086591720581,-4.015140056610107,-0.5211855173110962,-0.00036854723205072916,-0.9654457187159239,-56.30722421296209
2026-06-27T15:12:24.301966,1782583739.4703124,17.991121292114258,-26.988433837890625,-117.71841430664062,2.677887201309204,-4.01635217666626,-0.510425329208374,-0.0003653104699129329,-0.9631033883816215,-56.307295661795415
2026-06-27T15:12:24.411208,1782583739.5753148,18.2723445892334,-27.41022300720215,-117.77145385742188,2.6786601543426514,-4.017524242401123,-0.4997631013393402,-0.0003631095072457389,-0.9608667625626527,-56.307401682296266
2026-06-27T15:12:24.519997,1782583739.677317,18.545608520507812,-27.82007598876953,-117.82191467285156,2.6793856620788574,-4.018624782562256,-0.4895816743373871,-0.0003541755733450838,-0.9587189916273702,-56.30750406173003
2026-06-27T15:12:24.629677,1782583739.785319,18.83502769470215,-28.2541561126709,-117.87421417236328,2.680129051208496,-4.01975154876709,-0.479047030210495,-0.0003395754957826654,-0.95648846048287,-56.30753911619005
2026-06-27T15:12:24.738380,1782583739.8903215,19.116485595703125,-28.676294326782227,-117.92398071289062,2.680826425552368,-4.020808219909668,-0.46888911724090576,-0.0003391906877961193,-0.9544167488300211,-56.30754573625434
2026-06-27T15:12:24.846099,1782583739.9923236,19.389970779418945,-29.086477279663086,-117.97132110595703,2.681480646133423,-4.0218000411987305,-0.4591922461986542,-0.00033600297413680774,-0.952428817539112,-56.30764927244539
2026-06-27T15:12:24.954286,1782583740.0973258,19.671567916870117,-29.50882339477539,-118.01902770996094,2.68213152885437,-4.022787094116211,-0.4493914246559143,-0.00032557002880174253,-0.9504373936923769,-56.307732901586995
2026-06-27T15:12:25.064037,1782583740.2053282,19.961278915405273,-29.943349838256836,-118.06702423095703,2.6827776432037354,-4.023767471313477,-0.43951958417892456,-0.00031199130607970207,-0.9484264848909918,-56.30776189957648
2026-06-27T15:12:25.172783,1782583740.3133304,20.25105857849121,-30.377971649169922,-118.11396026611328,2.6834003925323486,-4.024710178375244,-0.42978036403656006,-0.0003109703601892468,-0.9464930283749621,-56.30781723085749
2026-06-27T15:12:25.281524,1782583740.4153326,20.524797439575195,-30.788549423217773,-118.15734100341797,2.6839680671691895,-4.025570869445801,-0.42073124647140503,-0.0003099330434838879,-0.9447100893601129,-56.30788846491489
2026-06-27T15:12:25.390451,1782583740.5173347,20.798593521118164,-31.199209213256836,-118.19979858398438,2.684515953063965,-4.026401996612549,-0.41187018156051636,-0.00030913071790969465,-0.9429532096884471,-56.30791894351083
2026-06-27T15:12:25.499144,1782583740.6193368,21.072452545166016,-31.609949111938477,-118.24136352539062,2.685044050216675,-4.027202606201172,-0.4030901789665222,-0.0003082296942793014,-0.941270481835517,-56.3079952587326
2026-06-27T15:12:25.608319,1782583740.7243392,21.354419708251953,-32.03285598754883,-118.28321075439453,2.685568332672119,-4.027999401092529,-0.3942597806453705,-0.00029929416896920335,-0.9395693521515431,-56.307996000023266
2026-06-27T15:12:25.717008,1782583740.8293414,21.636438369750977,-32.45582962036133,-118.32415771484375,2.6860740184783936,-4.028766632080078,-0.38558781147003174,-0.00028740520918691016,-0.9379125638048943,-56.30808389080721
2026-06-27T15:12:25.827210,1782583740.9313436,21.910444259643555,-32.86682891845703,-118.36306762695312,2.6865479946136475,-4.029486179351807,-0.377334326505661,-0.000283173420261238,-0.9363339582013736,-56.30818431414164
2026-06-27T15:12:25.935366,1782583741.036346,22.19256019592285,-33.289947509765625,-118.4022445678711,2.6870174407958984,-4.0301995277404785,-0.36894482374191284,-0.0002851237166864509,-0.9347737788298535,-56.3082085189121
2026-06-27T15:12:26.044073,1782583741.1413481,22.474733352661133,-33.71318817138672,-118.4405517578125,2.687469482421875,-4.030886173248291,-0.3607373535633087,-0.0002830610236578926,-0.9332457433035035,-56.30820431630169
2026-06-27T15:12:26.153286,1782583741.2433503,22.74888038635254,-34.124359130859375,-118.4769515991211,2.6878926753997803,-4.031530380249023,-0.35291627049446106,-0.00028209403088423586,-0.9318035444773689,-56.308223237988784
2026-06-27T15:12:26.261995,1782583741.3423524,23.01500129699707,-34.52354049682617,-118.51152038574219,2.688289165496826,-4.032133102416992,-0.3454694449901581,-0.00027800410822605837,-0.930438952750167,-56.30833310267397
2026-06-27T15:12:26.370688,1782583741.4473546,23.29730796813965,-34.946929931640625,-118.5473861694336,2.6886937618255615,-4.032748699188232,-0.33769896626472473,-0.00026112005736928716,-0.9290340908760572,-56.30839672980314
2026-06-27T15:12:26.479337,1782583741.552357,23.579641342163086,-35.37043762207031,-118.58244323730469,2.6890830993652344,-4.033341407775879,-0.33007609844207764,-0.0002549014806618226,-0.9276671350648885,-56.30839370861413
2026-06-27T15:12:26.588041,1782583741.654359,23.85395622253418,-35.78184509277344,-118.61573028564453,2.6894466876983643,-4.033895492553711,-0.32280299067497253,-0.00024327550474057203,-0.9263801927226066,-56.30845119772823
2026-06-27T15:12:26.698921,1782583741.7593613,24.13637351989746,-36.20547103881836,-118.64923858642578,2.689807176589966,-4.034442901611328,-0.3154689371585846,-0.00023439507961236952,-0.9250919093641484,-56.30854068338172
2026-06-27T15:12:26.806675,1782583741.8613634,24.41075325012207,-36.617008209228516,-118.68106079101562,2.6901445388793945,-4.03495454788208,-0.3084656596183777,-0.0002300189303093082,-0.9238816168093854,-56.30854487619814
2026-06-27T15:12:26.913923,1782583741.9633656,24.6851749420166,-37.028602600097656,-118.7121810913086,2.6904685497283936,-4.0354485511779785,-0.3016064763069153,-0.00023597806131009415,-0.9227022770542477,-56.30854306394125
2026-06-27T15:12:27.023598,1782583742.071368,24.97576332092285,-37.46448516845703,-118.7443618774414,2.690798044204712,-4.035951137542725,-0.2944972813129425,-0.00022831145398611062,-0.9214981096942405,-56.30859062895658
2026-06-27T15:12:27.132805,1782583742.1733701,25.25025177001953,-37.87615203857422,-118.77406311035156,2.6910974979400635,-4.03640604019165,-0.28790736198425293,-0.0002148777763643856,-0.92039009502031,-56.30864068084544
2026-06-27T15:12:27.243618,1782583742.2783723,25.532835006713867,-38.30003356933594,-118.803955078125,2.6913931369781494,-4.036856174468994,-0.2812652587890625,-0.0002209418109327715,-0.9192886668000168,-56.30867679693829
2026-06-27T15:12:27.350174,1782583742.3803744,25.807376861572266,-38.711830139160156,-118.83231353759766,2.691669225692749,-4.0372772216796875,-0.27494311332702637,-0.00019905838741304547,-0.9182511925274012,-56.308718700342176
2026-06-27T15:12:27.458936,1782583742.4853768,26.09002685546875,-39.135738372802734,-118.86084747314453,2.6919424533843994,-4.037693500518799,-0.26856476068496704,-0.0002054820522592529,-0.9172126466178239,-56.30871786989428
2026-06-27T15:12:27.568151,1782583742.590379,26.3726863861084,-39.55975341796875,-118.88871002197266,2.692204236984253,-4.038093090057373,-0.2623152732849121,-0.0001994826513625528,-0.9162210343364547,-56.3088093900855
2026-06-27T15:12:27.678290,1782583742.6923811,26.64732551574707,-39.9716796875,-118.9151611328125,2.692448616027832,-4.0384674072265625,-0.2563745677471161,-0.000182367241164771,-0.9152777931789866,-56.308844987831066
2026-06-27T15:12:27.785929,1782583742.7973833,26.930042266845703,-40.395721435546875,-118.94178009033203,2.692690372467041,-4.038835525512695,-0.250376433134079,-0.00017682122943153813,-0.9143454226947677,-56.30884498000079
2026-06-27T15:12:27.894380,1782583742.9023857,27.21279525756836,-40.819820404052734,-118.9677505493164,2.6929218769073486,-4.039188861846924,-0.2445065677165985,-0.00018090312986290897,-0.9134360605624076,-56.308845054223994
2026-06-27T15:12:28.003383,1782583743.0013878,27.479419708251953,-41.219757080078125,-118.99169158935547,2.693131685256958,-4.039507865905762,-0.23910963535308838,-0.0001735501812047766,-0.9126107540631057,-56.30889699386672
2026-06-27T15:12:28.111561,1782583743.10639,27.762203216552734,-41.6439323425293,-119.0165023803711,2.693345308303833,-4.03983211517334,-0.2334609478712082,-0.00017119716488828688,-0.9117660403819482,-56.30893392657535
2026-06-27T15:12:28.220799,1782583743.2113922,28.045024871826172,-42.06810760498047,-119.04073333740234,2.693549633026123,-4.040145397186279,-0.22794713079929352,-0.00015624770041419164,-0.9109548981045219,-56.308934818634064
2026-06-27T15:12:28.330049,1782583743.3193946,28.335956573486328,-42.50446319580078,-119.06504821777344,2.693751096725464,-4.040454387664795,-0.22237713634967804,-0.00017260030127899106,-0.9101512192603101,-56.30897367172195
2026-06-27T15:12:28.438764,1782583743.4243968,28.618806838989258,-42.92877197265625,-119.08811950683594,2.693938732147217,-4.040740013122559,-0.2171429991722107,-0.00017464852617994641,-0.9093886319497247,-56.30907795807306
2026-06-27T15:12:28.547512,1782583743.526399,28.893590927124023,-43.34095764160156,-119.1100082397461,2.6941134929656982,-4.041006088256836,-0.21210327744483948,-0.00014522369845309212,-0.9086774458682633,-56.309102173848125
2026-06-27T15:12:28.659252,1782583743.6314013,29.1765079498291,-43.76526641845703,-119.13201141357422,2.6942858695983887,-4.0412702560424805,-0.20700785517692566,-0.00013783159571650622,-0.9079768763830804,-56.3091037524541
2026-06-27T15:12:28.765260,1782583743.7304034,29.44325828552246,-44.16532897949219,-119.15227508544922,2.6944420337677,-4.041508197784424,-0.20236191153526306,-0.00015334393830591242,-0.9073336578914232,-56.30910553096085
2026-06-27T15:12:28.873957,1782583743.8324056,29.71809196472168,-44.57760238647461,-119.17266845703125,2.6945960521698,-4.041744709014893,-0.19768144190311432,-0.00017028684614459953,-0.9066844864683874,-56.30910726214725
