time,sim_t,x,y,z,vx,vy,vz,roll_deg,pitch_deg,yaw_deg
2026-06-27T13:53:12.072535,1782579102.4153907,0.0,0.0,2.0412683486938477,0.0,0.0,0.0,0.0,0.0,0.0003895640909249624
2026-06-27T13:53:12.175157,1782579102.5173929,0.0,0.0,2.0412683486938477,0.0,0.0,0.0,0.0,0.0,0.0003895640909249624
2026-06-27T13:53:12.285383,1782579102.6253953,0.0,0.0,2.0412683486938477,0.0,0.0,0.0,0.0,0.0,0.0003895640909249624
2026-06-27T13:53:12.394602,1782579102.7333975,0.0,0.0,2.0412683486938477,0.0,0.0,0.0,0.0,0.0,0.0003895640909249624
2026-06-27T13:53:12.504296,1782579102.8414,0.0,0.0,2.0412683486938477,0.0,0.0,0.0,0.0,0.0,0.0003895640909249624
2026-06-27T13:53:12.613207,1782579102.946402,0.0,0.0,2.0412683486938477,0.0,0.0,0.0,0.0,0.0,0.0003895640909249624
2026-06-27T13:53:12.721487,1782579103.0514042,0.0,0.0,2.0412683486938477,0.0,0.0,0.0,0.0,0.0,0.0003895640909249624
2026-06-27T13:53:12.830222,1782579103.1594067,0.0,0.0,2.0412683486938477,0.0,0.0,0.0,0.0,0.0,0.0003895640909249624
2026-06-27T13:53:12.939476,1782579103.2674088,0.0,0.0,2.0412683486938477,0.0,0.0,0.0,0.0,0.0,0.0003895640909249624
2026-06-27T13:53:13.050396,1782579103.3724113,0.0,0.0,2.0412683486938477,0.0,0.0,0.0,0.0,0.0,0.0003895640909249624
2026-06-27T13:53:13.158583,1782579103.4804134,0.0,0.0,2.0412683486938477,0.0,0.0,0.0,0.0,0.0,0.0003895640909249624
2026-06-27T13:53:13.266211,1782579103.5884159,0.0,0.0,2.0412683486938477,0.0,0.0,0.0,0.0,0.0,0.0003895640909249624
2026-06-27T13:53:13.374761,1782579103.696418,0.0,0.0,2.0412683486938477,0.0,0.0,0.0,0.0,0.0,0.0003895640909249624
2026-06-27T13:53:13.483325,1782579103.8044205,0.0,0.0,2.0412683486938477,0.0,0.0,0.0,0.0,0.0,0.0003895640909249624
2026-06-27T13:53:13.592441,1782579103.9124227,0.0,0.0,2.040558099746704,0.0,0.0,-0.09387190639972687,0.0,0.0,0.0003895640909249624
2026-06-27T13:53:13.701138,1782579104.0174248,0.0,0.0,2.0095982551574707,0.0,0.0,-0.39883047342300415,0.0,0.0,0.0003895640909249624
2026-06-27T13:53:13.810867,1782579104.1254272,0.0,0.0,1.9636210203170776,0.0,0.0,-0.44037458300590515,0.0,0.0,0.0003895640909249624
2026-06-27T13:53:13.919061,1782579104.2304294,0.0,0.0,1.916816234588623,0.0,0.0,-0.449762761592865,0.0,0.0,0.0003895640909249624
2026-06-27T13:53:14.027764,1782579104.3354316,0.0,0.0,1.869289755821228,0.0,0.0,-0.45524469017982483,0.0,0.0,0.0003895640909249624
2026-06-27T13:53:14.136328,1782579104.443434,0.0,0.0,1.8198634386062622,0.0,0.0,-0.4599251449108124,0.0,0.0,0.0003895640909249624
2026-06-27T13:53:14.246252,1782579104.5514362,0.0,0.0,1.7713557481765747,0.0,0.0,-0.4639382064342499,0.0,0.0,0.0003895640909249624
2026-06-27T13:53:14.354536,1782579104.6564386,0.0,0.0,1.721047282218933,0.0,0.0,-0.46760794520378113,0.0,0.0,0.0003895640909249624
2026-06-27T13:53:14.462700,1782579104.7644408,0.0,0.0,1.6703648567199707,0.0,0.0,-0.4708685278892517,0.0,0.0,0.0003895640909249624
2026-06-27T13:53:14.570769,1782579104.8694432,0.0,0.0,1.6207714080810547,0.0,0.0,-0.47368982434272766,0.0,0.0,0.0003895640909249624
2026-06-27T13:53:14.679385,1782579104.9774454,0.0,0.0,1.569469690322876,0.0,0.0,-0.4762728214263916,0.0,0.0,0.0003895640909249624
2026-06-27T13:53:14.789113,1782579105.0824475,0.0,0.0,1.5193402767181396,0.0,0.0,-0.4785078763961792,0.0,0.0,0.0003895640909249624
2026-06-27T13:53:14.897950,1782579105.18745,0.0,0.0,1.4689891338348389,0.0,0.0,-0.48050063848495483,0.0,0.0,0.0003895640909249624
2026-06-27T13:53:15.006133,1782579105.295452,0.0,0.0,1.4169936180114746,0.0,0.0,-0.4823249876499176,0.0,0.0,0.0003895640909249624
2026-06-27T13:53:15.115310,1782579105.4034545,0.0,0.0,1.3648121356964111,0.0,0.0,-0.48394620418548584,0.0,0.0,0.0003895640909249624
2026-06-27T13:53:15.223424,1782579105.5084567,0.0,0.0,1.3139222860336304,0.0,0.0,-0.48534920811653137,0.0,0.0,0.0003895640909249624
2026-06-27T13:53:15.333530,1782579105.616459,0.0,0.0,1.2614325284957886,0.0,0.0,-0.4866337776184082,0.0,0.0,0.0003895640909249624
2026-06-27T13:53:15.441196,1782579105.7244613,0.0,0.0,1.2088121175765991,0.0,0.0,-0.4877752363681793,0.0,0.0,0.0003895640909249624
2026-06-27T13:53:15.550416,1782579105.8324635,0.0,0.0,1.156075358390808,0.0,0.0,-0.48878955841064453,0.0,0.0,0.0003895640909249624
2026-06-27T13:53:15.659611,1782579105.943466,0.0,0.0,1.1017662286758423,0.0,0.0,-0.4897145628929138,0.0,0.0,0.0003895640909249624
2026-06-27T13:53:15.768873,1782579106.0514684,0.0,0.0,1.048831820487976,0.0,0.0,-0.49051302671432495,0.0,0.0,0.0003895640909249624
2026-06-27T13:53:15.878054,1782579106.1594706,0.0,0.0,0.9958164095878601,0.0,0.0,-0.491222620010376,0.0,0.0,0.0003895640909249624
2026-06-27T13:53:15.986729,1782579106.267473,0.0,0.0,0.9427285194396973,0.0,0.0,-0.4918532073497772,0.0,0.0,0.0003895640909249624
2026-06-27T13:53:16.095380,1782579106.3724751,0.0,0.0,0.8910536766052246,0.0,0.0,-0.49239882826805115,0.0,0.0,0.0003895640909249624
2026-06-27T13:53:16.204017,1782579106.4804773,0.0,0.0,0.8378458619117737,0.0,0.0,-0.4928984045982361,0.0,0.0,0.0003895640909249624
2026-06-27T13:53:16.312795,1782579106.5854797,0.0,0.0,0.7860673069953918,0.0,0.0,-0.49333077669143677,0.0,0.0,0.0003895640909249624
2026-06-27T13:53:16.421491,1782579106.693482,0.0,0.0,0.7327646613121033,0.0,0.0,-0.4937267005443573,0.0,0.0,0.0003895640909249624
2026-06-27T13:53:16.530221,1782579106.8014843,0.0,0.0,0.6794219613075256,0.0,0.0,-0.49407830834388733,0.0,0.0,0.0003895640909249624
2026-06-27T13:53:16.639410,1782579106.9064865,0.0,0.0,0.6275264024734497,0.0,0.0,-0.49438273906707764,0.0,0.0,0.0003895640909249624
2026-06-27T13:53:16.748349,1782579107.014489,0.0,0.0,0.5741167068481445,0.0,0.0,-0.49466145038604736,0.0,0.0,0.0003895640909249624
2026-06-27T13:53:16.858067,1782579107.119491,0.0,0.0,0.5228285789489746,0.0,0.0,-0.41715124249458313,0.0,0.0,0.0003895640909249624
2026-06-27T13:53:16.966300,1782579107.2274933,0.0,0.0,0.5030192732810974,0.0,0.0,-0.025386907160282135,0.0,0.0,0.0003895640909249624
2026-06-27T13:53:17.074975,1782579107.3324957,0.0,0.0,0.4995369613170624,0.0,0.0,-0.22436127066612244,0.0,0.0,0.00038321174669071447
2026-06-27T13:53:17.184690,1782579107.4404979,0.0,0.0,0.43634161353111267,0.0,0.0,-0.9439203143119812,0.0,0.0,0.0003066762336999891
2026-06-27T13:53:17.293399,1782579107.5485003,0.0,0.0,0.2963315546512604,0.0,0.0,-1.6444752216339111,0.0,0.0,0.00018319963699136332
2026-06-27T13:53:17.401821,1782579107.6535025,0.0,0.0,0.0891970843076706,0.0,0.0,-2.2948930263519287,0.0,0.0,6.0451150163486905e-05
2026-06-27T13:53:17.510197,1782579107.7585046,0.0,0.0,-0.18419697880744934,0.0,0.0,-2.9051027297973633,0.0,0.0,-3.663147968213436e-05
2026-06-27T13:53:17.618615,1782579107.863507,0.0,0.0,-0.5192258954048157,0.0,0.0,-3.467893362045288,0.0,0.0,-9.446460974381118e-05
2026-06-27T13:53:17.727857,1782579107.9685092,0.0,0.0,-0.9106535315513611,0.0,0.0,-3.978823661804199,0.0,0.0,-0.00011262230095278681
2026-06-27T13:53:17.836045,1782579108.0765114,0.0,0.0,-1.3662434816360474,0.0,0.0,-4.448339462280273,0.0,0.0,-9.927462294280098e-05
2026-06-27T13:53:17.944743,1782579108.1815138,0.0,0.0,-1.8549182415008545,0.0,0.0,-4.85080623626709,0.0,0.0,-6.782222375018972e-05
2026-06-27T13:53:18.054423,1782579108.289516,0.0,0.0,-2.3975112438201904,0.0,0.0,-5.145200729370117,0.0,0.0,-3.030371108159897e-05
2026-06-27T13:53:18.162563,1782579108.3975184,0.0,0.0,-2.9554970264434814,0.0,0.0,-5.170637607574463,0.0,0.0,1.910442254520607e-06
2026-06-27T13:53:18.271221,1782579108.5025206,0.0,0.0,-3.49772047996521,0.0,0.0,-5.156066417694092,0.0,0.0,2.2354007374810133e-05
2026-06-27T13:53:18.380020,1782579108.610523,0.0,0.0,-4.053670406341553,0.0,0.0,-5.139252662658691,0.0,0.0,3.123094709343927e-05
2026-06-27T13:53:18.489745,1782579108.7155252,0.0,0.0,-4.592503547668457,0.0,0.0,-5.124273300170898,0.0,0.0,2.9975980213444938e-05
2026-06-27T13:53:18.599976,1782579108.8205273,0.0,0.0,-5.1298418045043945,0.0,0.0,-5.110773086547852,0.0,0.0,2.239173516533053e-05
2026-06-27T13:53:18.708223,1782579108.9285297,0.0,0.0,-5.681131362915039,0.0,0.0,-5.098299026489258,0.0,0.0,1.1906286861202736e-05
2026-06-27T13:53:18.817461,1782579109.036532,0.0,0.0,-6.231142997741699,0.0,0.0,-5.087112903594971,0.0,0.0,2.0728111485644412e-06
2026-06-27T13:53:18.924645,1782579109.141534,0.0,0.0,-6.764779567718506,0.0,0.0,-5.0773468017578125,0.0,0.0,-4.92780343861136e-06
2026-06-27T13:53:19.033881,1782579109.2495365,0.0,0.0,-7.312649726867676,0.0,0.0,-5.068325519561768,0.0,0.0,-9.610572466341811e-06
2026-06-27T13:53:19.143077,1782579109.360539,0.0,0.0,-7.874776840209961,0.0,0.0,-5.060025691986084,0.0,0.0,-1.2741295947277966e-05
2026-06-27T13:53:19.251688,1782579109.4655411,0.0,0.0,-8.405715942382812,0.0,0.0,-5.0529866218566895,0.0,0.0,-1.393922494783641e-05
2026-06-27T13:53:19.360396,1782579109.5735433,0.0,0.0,-8.951092720031738,0.0,0.0,-5.046485424041748,0.0,0.0,-1.1319458339810486e-05
2026-06-27T13:53:19.469093,1782579109.6815457,0.0,0.0,-9.495808601379395,0.0,0.0,-5.04065465927124,0.0,0.0,-9.464416360731204e-06
2026-06-27T13:53:19.578199,1782579109.786548,0.0,0.0,-10.024816513061523,0.0,0.0,-5.0355682373046875,0.0,0.0,-8.283147156483161e-06
2026-06-27T13:53:19.688207,1782579109.8945503,0.0,0.0,-10.568410873413086,0.0,0.0,-5.030869483947754,0.0,0.0,-7.5784095190507005e-06
2026-06-27T13:53:19.795045,1782579110.0025525,0.0,0.0,-11.11152458190918,0.0,0.0,-5.0266571044921875,0.0,0.0,-6.919681124084917e-06
2026-06-27T13:53:19.904702,1782579110.107555,0.0,0.0,-11.639140129089355,0.0,0.0,-5.022979736328125,0.0,0.0,-6.279263360531384e-06
2026-06-27T13:53:20.013877,1782579110.215557,0.0,0.0,-12.18144702911377,0.0,0.0,-5.0195841789245605,0.0,0.0,-5.620549621561576e-06
2026-06-27T13:53:20.122613,1782579110.3205593,0.0,0.0,-12.708354949951172,0.0,0.0,-5.016619682312012,0.0,0.0,-4.980133486452041e-06
2026-06-27T13:53:20.231878,1782579110.4285617,0.0,0.0,-13.25001049041748,0.0,0.0,-5.013882637023926,0.0,0.0,-4.321419747482234e-06
2026-06-27T13:53:20.339905,1782579110.5365639,0.0,0.0,-13.791386604309082,0.0,0.0,-5.0114288330078125,0.0,0.0,-3.6627060085124277e-06
2026-06-27T13:53:20.449489,1782579110.6445663,0.0,0.0,-14.332510948181152,0.0,0.0,-5.0092291831970215,0.0,0.0,-3.0039922695426218e-06
2026-06-27T13:53:20.557452,1782579110.7525685,0.0,0.0,-14.873411178588867,0.0,0.0,-5.007256507873535,0.0,0.0,-2.3452785305728167e-06
2026-06-27T13:53:20.666117,1782579110.860571,0.0,0.0,-15.414109230041504,0.0,0.0,-5.005489349365234,0.0,0.0,-1.6865645880475117e-06
2026-06-27T13:53:20.775314,1782579110.968573,0.0,0.0,-15.954626083374023,0.0,0.0,-5.003904819488525,0.0,0.0,-1.0278471850787138e-06
2026-06-27T13:53:20.883515,1782579111.0735755,0.0,0.0,-16.4799747467041,0.0,0.0,-5.002521514892578,0.0,0.0,-3.874287345253733e-07
2026-06-27T13:53:20.992790,1782579111.1845777,0.0,0.0,-17.035192489624023,0.0,0.0,-5.001210689544678,0.0,0.0,2.812438554852802e-07
2026-06-27T13:53:21.101717,1782579111.28958,0.0,0.0,-17.560270309448242,0.0,0.0,-5.000099182128906,0.0,0.0,6.716880102930554e-07
2026-06-27T13:53:21.210402,1782579111.3945823,0.0,0.0,-18.085235595703125,0.0,0.0,-4.9990997314453125,0.0,0.0,8.541341430414097e-07
2026-06-27T13:53:21.320147,1782579111.5025845,0.0,0.0,-18.625102996826172,0.0,0.0,-4.998176574707031,0.0,0.0,9.50205316194323e-07
2026-06-27T13:53:21.428649,1782579111.610587,0.0,0.0,-19.164871215820312,0.0,0.0,-4.997348785400391,0.0,0.0,9.69591534866529e-07
2026-06-27T13:53:21.537331,1782579111.718589,0.0,0.0,-19.704553604125977,0.0,0.0,-4.996607780456543,0.0,0.0,9.889777535387355e-07
2026-06-27T13:53:21.646115,1782579111.8265915,0.0,0.0,-20.24416160583496,0.0,0.0,-4.995942115783691,0.0,0.0,1.0083639722109416e-06
2026-06-27T13:53:21.755267,1782579111.9345937,0.0,0.0,-20.783702850341797,0.0,0.0,-4.9953460693359375,0.0,0.0,1.0277501908831478e-06
2026-06-27T13:53:21.863956,1782579112.039596,0.0,0.0,-21.30820083618164,0.0,0.0,-4.99482536315918,0.0,0.0,1.0465979034811263e-06
2026-06-27T13:53:21.973246,1782579112.1475983,0.0,0.0,-21.84762954711914,0.0,0.0,-4.994344711303711,0.0,0.0,1.0659841221533325e-06
2026-06-27T13:53:22.081505,1782579112.2526007,0.0,0.0,-22.37201690673828,0.0,0.0,-4.993926048278809,0.0,0.0,1.0331677187276158e-06
2026-06-27T13:53:22.190736,1782579112.3606029,0.0,0.0,-22.91135597229004,0.0,0.0,-4.993537902832031,0.0,0.0,9.944319213731337e-07
2026-06-27T13:53:22.299492,1782579112.4686053,0.0,0.0,-23.450647354125977,0.0,0.0,-4.993191242218018,0.0,0.0,9.556961240186518e-07
2026-06-27T13:53:22.408372,1782579112.5766075,0.0,0.0,-23.98990821838379,0.0,0.0,-4.992879867553711,0.0,0.0,9.169603266641697e-07
2026-06-27T13:53:22.517058,1782579112.68461,0.0,0.0,-24.529130935668945,0.0,0.0,-4.992599964141846,0.0,0.0,8.782245293096877e-07
2026-06-27T13:53:22.626265,1782579112.792612,0.0,0.0,-25.06834602355957,0.0,0.0,-4.992350101470947,0.0,0.0,8.394887319552057e-07
2026-06-27T13:53:22.735369,1782579112.9006145,0.0,0.0,-25.607500076293945,0.0,0.0,-4.992124557495117,0.0,0.0,8.007529346007237e-07
2026-06-27T13:53:22.844700,1782579113.0086167,0.0,0.0,-26.14665412902832,0.0,0.0,-4.991924285888672,0.0,0.0,7.620171372462417e-07
2026-06-27T13:53:22.954401,1782579113.116619,0.0,0.0,-26.685808181762695,0.0,0.0,-4.991743087768555,0.0,0.0,7.232813398917597e-07
2026-06-27T13:53:23.063110,1782579113.2246213,0.0,0.0,-27.22489356994629,0.0,0.0,-4.991581916809082,0.0,0.0,6.845455425372777e-07
2026-06-27T13:53:23.171935,1782579113.3326237,0.0,0.0,-27.763978958129883,0.0,0.0,-4.99143648147583,0.0,0.0,6.458097451827957e-07
2026-06-27T13:53:23.280139,1782579113.437626,0.0,0.0,-28.288089752197266,0.0,0.0,-4.991309642791748,0.0,0.0,6.081499421992714e-07
2026-06-27T13:53:23.389415,1782579113.545628,0.0,0.0,-28.82717514038086,0.0,0.0,-4.991189956665039,0.0,0.0,5.694141448447894e-07
2026-06-27T13:53:23.498193,1782579113.6506305,0.0,0.0,-29.351274490356445,0.0,0.0,-4.991089820861816,0.0,0.0,5.317543418612653e-07
2026-06-27T13:53:23.607447,1782579113.7586327,0.0,0.0,-29.890291213989258,0.0,0.0,-4.990995407104492,0.0,0.0,4.930185445067833e-07
2026-06-27T13:53:23.716135,1782579113.866635,0.0,0.0,-30.42930793762207,0.0,0.0,-4.990909576416016,0.0,0.0,4.5428274715230126e-07
2026-06-27T13:53:23.824929,1782579113.9746373,0.0,0.0,-30.968324661254883,0.0,0.0,-4.990834712982178,0.0,0.0,4.155466699090073e-07
2026-06-27T13:53:23.933994,1782579114.0826397,0.0,0.0,-31.507341384887695,0.0,0.0,-4.99076509475708,0.0,0.0,3.7680995655477704e-07
2026-06-27T13:53:24.042743,1782579114.1906419,0.0,0.0,-32.046356201171875,0.0,0.0,-4.990701675415039,0.0,0.0,3.3807324320054677e-07
2026-06-27T13:53:24.151236,1782579114.2986443,0.0,0.0,-32.58537292480469,0.0,0.0,-4.9906487464904785,0.0,0.0,2.993365298463165e-07
2026-06-27T13:53:24.260444,1782579114.4066465,0.0,0.0,-33.1243896484375,0.0,0.0,-4.990597248077393,0.0,0.0,2.6059981649208624e-07
2026-06-27T13:53:24.368920,1782579114.514649,0.0,0.0,-33.66340637207031,0.0,0.0,-4.9905524253845215,0.0,0.0,2.2186310313785594e-07
2026-06-27T13:53:24.478598,1782579114.622651,0.0,0.0,-34.202423095703125,0.0,0.0,-4.990513801574707,0.0,0.0,1.8312675872796872e-07
2026-06-27T13:53:24.587800,1782579114.7306535,0.0,0.0,-34.74143981933594,0.0,0.0,-4.990479469299316,0.0,0.0,1.4439050337361258e-07
2026-06-27T13:53:24.695311,1782579114.8386557,0.0,0.0,-35.28045654296875,0.0,0.0,-4.990445137023926,0.0,0.0,1.0565424165814709e-07
2026-06-27T13:53:24.806049,1782579114.9466581,0.0,0.0,-35.81947326660156,0.0,0.0,-4.990414142608643,0.0,0.0,6.691775730385388e-08
2026-06-27T13:53:24.913798,1782579115.0546603,0.0,0.0,-36.358489990234375,0.0,0.0,-4.990389823913574,0.0,0.0,2.8181272949560677e-08
2026-06-27T13:53:25.022567,1782579115.1626627,0.0,0.0,-36.89750671386719,0.0,0.0,-4.990367889404297,0.0,0.0,-1.0555160515857626e-08
2026-06-27T13:53:25.131441,1782579115.267665,0.0,0.0,-37.42155075073242,0.0,0.0,-4.990347862243652,0.0,0.0,-4.821560915198214e-08
2026-06-27T13:53:25.240106,1782579115.375667,0.0,0.0,-37.960567474365234,0.0,0.0,-4.990329265594482,0.0,0.0,-8.695209032572066e-08
2026-06-27T13:53:25.349303,1782579115.4836695,0.0,0.0,-38.49958419799805,0.0,0.0,-4.990312099456787,0.0,0.0,-1.2568846018004533e-07
2026-06-27T13:53:25.458493,1782579115.5916717,0.0,0.0,-39.03860092163086,0.0,0.0,-4.990294933319092,0.0,0.0,-1.6442471553440147e-07
2026-06-27T13:53:25.567196,1782579115.6996741,0.0,0.0,-39.57761764526367,0.0,0.0,-4.9902777671813965,0.0,0.0,-2.031609708887576e-07
2026-06-27T13:53:25.675908,1782579115.8076763,0.0,0.0,-40.116634368896484,0.0,0.0,-4.99026346206665,0.0,0.0,-2.4189756974301935e-07
2026-06-27T13:53:25.785098,1782579115.9156787,0.0,0.0,-40.6556510925293,0.0,0.0,-4.9902520179748535,0.0,0.0,-2.806342830972496e-07
2026-06-27T13:53:25.893651,1782579116.020681,0.0,0.0,-41.17969512939453,0.0,0.0,-4.9902424812316895,0.0,0.0,-3.182949766360846e-07
2026-06-27T13:53:26.002847,1782579116.1286833,0.0,0.0,-41.718711853027344,0.0,0.0,-4.990234375,0.0,0.0,-3.5703168999031487e-07
2026-06-27T13:53:26.112093,1782579116.2366855,0.0,0.0,-42.257728576660156,0.0,0.0,-4.990224361419678,0.0,0.0,-3.9576840334454514e-07
2026-06-27T13:53:26.220228,1782579116.344688,0.0,0.0,-42.79674530029297,0.0,0.0,-4.990217685699463,0.0,0.0,-4.345049385877133e-07
2026-06-27T13:53:26.328942,1782579116.44669,0.0,0.0,-43.305816650390625,0.0,0.0,-4.9902119636535645,0.0,0.0,-4.710887472002796e-07
2026-06-27T13:53:26.437611,1782579116.5546923,0.0,0.0,-43.84483337402344,0.0,0.0,-4.990204334259033,0.0,0.0,-5.098245445547616e-07
2026-06-27T13:53:26.545516,1782579116.6596947,0.0,0.0,-44.36887741088867,0.0,0.0,-4.990198612213135,0.0,0.0,-5.474843475382858e-07
2026-06-27T13:53:26.654738,1782579116.7676969,0.0,0.0,-44.907894134521484,0.0,0.0,-4.990193843841553,0.0,0.0,-5.862201448927678e-07
2026-06-27T13:53:26.763292,1782579116.8756993,0.0,0.0,-45.4469108581543,0.0,0.0,-4.990189075469971,0.0,0.0,-6.249559422472498e-07
2026-06-27T13:53:26.872482,1782579116.9807014,0.0,0.0,-45.97095489501953,0.0,0.0,-4.9901862144470215,0.0,0.0,-6.62615745230774e-07
2026-06-27T13:53:26.981221,1782579117.0887036,0.0,0.0,-46.494998931884766,0.0,0.0,-4.990181922912598,0.0,0.0,-7.002755482142982e-07
2026-06-27T13:53:27.090076,1782579117.196706,0.0,0.0,-47.048988342285156,0.0,0.0,-4.990177631378174,0.0,0.0,-7.40087339939738e-07
2026-06-27T13:53:27.199262,1782579117.3047082,0.0,0.0,-47.58800506591797,0.0,0.0,-4.990173816680908,0.0,0.0,-7.7882313729422e-07
2026-06-27T13:53:27.308458,1782579117.4127107,0.0,0.0,-48.12702178955078,0.0,0.0,-4.990170001983643,0.0,0.0,-8.17558934648702e-07
2026-06-27T13:53:27.417156,1782579117.5207129,0.0,0.0,-48.666038513183594,0.0,0.0,-4.990166664123535,0.0,0.0,-8.562947828920589e-07
2026-06-27T13:53:27.528382,1782579117.6287153,0.0,0.0,-49.205055236816406,0.0,0.0,-4.990163803100586,0.0,0.0,-8.95030580246541e-07
2026-06-27T13:53:27.635073,1782579117.7337174,0.0,0.0,-49.72909927368164,0.0,0.0,-4.990161895751953,0.0,0.0,-9.326903832300651e-07
2026-06-27T13:53:27.744316,1782579117.8357196,0.0,0.0,-50.2381706237793,0.0,0.0,-4.990158557891846,0.0,0.0,-9.692741918426314e-07
2026-06-27T13:53:27.853182,1782579117.943722,0.0,0.0,-50.77718734741211,0.0,0.0,-4.990157127380371,0.0,0.0,-1.0080099891971135e-06
2026-06-27T13:53:27.961690,1782579118.0517242,0.0,0.0,-51.31620407104492,0.0,0.0,-4.9901556968688965,0.0,0.0,-1.0467457865515956e-06
2026-06-27T13:53:28.070221,1782579118.1567266,0.0,0.0,-51.840248107910156,0.0,0.0,-4.990153789520264,0.0,0.0,-1.0844055895351198e-06
2026-06-27T13:53:28.179964,1782579118.2647288,0.0,0.0,-52.37916564941406,0.0,0.0,-4.9901509284973145,0.0,0.0,-1.1231413868896017e-06
2026-06-27T13:53:28.288216,1782579118.3727312,0.0,0.0,-52.91804504394531,0.0,0.0,-4.990149021148682,0.0,0.0,-1.1618771842440838e-06
2026-06-27T13:53:28.397993,1782579118.4807334,0.0,0.0,-53.45692443847656,0.0,0.0,-4.990146636962891,0.0,0.0,-1.2006129815985657e-06
2026-06-27T13:53:28.505246,1782579118.5857358,0.0,0.0,-53.9808349609375,0.0,0.0,-4.990145206451416,0.0,0.0,-1.2382727845820897e-06
2026-06-27T13:53:28.614955,1782579118.690738,0.0,0.0,-54.50474548339844,0.0,0.0,-4.990142345428467,0.0,0.0,-1.275932587565614e-06
2026-06-27T13:53:28.724223,1782579118.7987401,0.0,0.0,-55.04362487792969,0.0,0.0,-4.990141868591309,0.0,0.0,-1.314668384920096e-06
2026-06-27T13:53:28.832945,1782579118.9067426,0.0,0.0,-55.58250427246094,0.0,0.0,-4.990139961242676,0.0,0.0,-1.3534041822745784e-06
2026-06-27T13:53:28.941708,1782579119.0147448,0.0,0.0,-56.12138366699219,0.0,0.0,-4.990139007568359,0.0,0.0,-1.3921399796290603e-06
2026-06-27T13:53:29.050276,1782579119.1227472,0.0,0.0,-56.66026306152344,0.0,0.0,-4.990137577056885,0.0,0.0,-1.4308757769835424e-06
2026-06-27T13:53:29.159456,1782579119.2337494,0.0,0.0,-57.214111328125,0.0,0.0,-4.99013614654541,0.0,0.0,-1.4706875687089822e-06
2026-06-27T13:53:29.268318,1782579119.3417518,0.0,0.0,-57.75299072265625,0.0,0.0,-4.990135192871094,0.0,0.0,-1.5094233660634641e-06
2026-06-27T13:53:29.378492,1782579119.449754,0.0,0.0,-58.2918701171875,0.0,0.0,-4.990133762359619,0.0,0.0,-1.5481591634179462e-06
2026-06-27T13:53:29.487165,1782579119.5577564,0.0,0.0,-58.83074951171875,0.0,0.0,-4.990131855010986,0.0,0.0,-1.5868949607724281e-06
2026-06-27T13:53:29.595908,1782579119.6627586,0.0,0.0,-59.35466003417969,0.0,0.0,-4.990130424499512,0.0,0.0,-1.6245547637559523e-06
2026-06-27T13:53:29.704654,1782579119.770761,0.0,0.0,-59.89353942871094,0.0,0.0,-4.990129470825195,0.0,0.0,-1.6632905611104344e-06
2026-06-27T13:53:29.813958,1782579119.8787632,0.0,0.0,-60.43241882324219,0.0,0.0,-4.990128993988037,0.0,0.0,-1.7020263584649163e-06
2026-06-27T13:53:29.923108,1782579119.9837656,0.0,0.0,-60.956329345703125,0.0,0.0,-4.990128040313721,0.0,0.0,-1.7396862632261903e-06
2026-06-27T13:53:30.031319,1782579120.0917678,0.0,0.0,-61.495208740234375,0.0,0.0,-4.990126609802246,0.0,0.0,-1.7784220605806724e-06
2026-06-27T13:53:30.140834,1782579120.1997702,0.0,0.0,-62.034088134765625,0.0,0.0,-4.990126132965088,0.0,0.0,-1.8171578579351543e-06
2026-06-27T13:53:30.249437,1782579120.3077724,0.0,0.0,-62.572967529296875,0.0,0.0,-4.9901251792907715,0.0,0.0,-1.8558936552896364e-06
2026-06-27T13:53:30.358595,1782579120.4157748,0.0,0.0,-63.111846923828125,0.0,0.0,-4.9901227951049805,0.0,0.0,-1.8946294526441183e-06
2026-06-27T13:53:30.467369,1782579120.523777,0.0,0.0,-63.650726318359375,0.0,0.0,-4.990121364593506,0.0,0.0,-1.9333652499986e-06
2026-06-27T13:53:30.575313,1782579120.6287792,0.0,0.0,-64.17463684082031,0.0,0.0,-4.990119934082031,0.0,0.0,-1.9710250529821246e-06
2026-06-27T13:53:30.684703,1782579120.7367816,0.0,0.0,-64.71351623535156,0.0,0.0,-4.990118980407715,0.0,0.0,-2.0097608503366065e-06
2026-06-27T13:53:30.792951,1782579120.8417838,0.0,0.0,-65.2374267578125,0.0,0.0,-4.990118503570557,0.0,0.0,-2.047420653320131e-06
2026-06-27T13:53:30.902203,1782579120.9467862,0.0,0.0,-65.76133728027344,0.0,0.0,-4.990117073059082,0.0,0.0,-2.085080456303655e-06
2026-06-27T13:53:31.010100,1782579121.0547884,0.0,0.0,-66.30021667480469,0.0,0.0,-4.990117073059082,0.0,0.0,-2.123816253658137e-06
2026-06-27T13:53:31.119583,1782579121.1627905,0.0,0.0,-66.83909606933594,0.0,0.0,-4.990115642547607,0.0,0.0,-2.162552051012619e-06
2026-06-27T13:53:31.228845,1782579121.270793,0.0,0.0,-67.37797546386719,0.0,0.0,-4.990115165710449,0.0,0.0,-2.2012878483671015e-06
2026-06-27T13:53:31.337448,1782579121.3787951,0.0,0.0,-67.91685485839844,0.0,0.0,-4.990114212036133,0.0,0.0,-2.2400236457215834e-06
2026-06-27T13:53:31.446154,1782579121.4867976,0.0,0.0,-68.45573425292969,0.0,0.0,-4.990111351013184,0.0,0.0,-2.2787594430760657e-06
2026-06-27T13:53:31.555284,1782579121.5947998,0.0,0.0,-68.99461364746094,0.0,0.0,-4.990110397338867,0.0,0.0,-2.317495240430547e-06
2026-06-27T13:53:31.664010,1782579121.7028022,0.0,0.0,-69.53349304199219,0.0,0.0,-4.990109443664551,0.0,0.0,-2.3562310377850295e-06
2026-06-27T13:53:31.773203,1782579121.8108044,0.0,0.0,-70.07237243652344,0.0,0.0,-4.990108966827393,0.0,0.0,-2.3949668351395114e-06
2026-06-27T13:53:31.881484,1782579121.9158068,0.0,0.0,-70.59628295898438,0.0,0.0,-4.990107536315918,0.0,0.0,-2.4326266381230354e-06
2026-06-27T13:53:31.990373,1782579122.020809,0.0,0.0,-71.12019348144531,0.0,0.0,-4.990106582641602,0.0,0.0,-2.47028644110656e-06
2026-06-27T13:53:32.099418,1782579122.1318114,0.0,0.0,-71.67404174804688,0.0,0.0,-4.990105628967285,0.0,0.0,-2.5100982328319997e-06
2026-06-27T13:53:32.208593,1782579122.2368135,0.0,0.0,-72.19795227050781,0.0,0.0,-4.990105152130127,0.0,0.0,-2.5477580358155236e-06
2026-06-27T13:53:32.317770,1782579122.344816,0.0,0.0,-72.73683166503906,0.0,0.0,-4.9901041984558105,0.0,0.0,-2.5864938331700056e-06
2026-06-27T13:53:32.426542,1782579122.4528182,0.0,0.0,-73.27571105957031,0.0,0.0,-4.990103244781494,0.0,0.0,-2.625229630524488e-06
2026-06-27T13:53:32.534591,1782579122.5608206,0.0,0.0,-73.81459045410156,0.0,0.0,-4.990101337432861,0.0,0.0,-2.66396542787897e-06
2026-06-27T13:53:32.644805,1782579122.6658227,0.0,0.0,-74.3385009765625,0.0,0.0,-4.990099906921387,0.0,0.0,-2.701625230862494e-06
2026-06-27T13:53:32.753281,1782579122.773825,0.0,0.0,-74.87738037109375,0.0,0.0,-4.9900994300842285,0.0,0.0,-2.7403610282169765e-06
2026-06-27T13:53:32.861955,1782579122.8788273,0.0,0.0,-75.40129089355469,0.0,0.0,-4.990098476409912,0.0,0.0,-2.7780208312005005e-06
2026-06-27T13:53:32.970169,1782579122.9868295,0.0,0.0,-75.94017028808594,0.0,0.0,-4.990097522735596,0.0,0.0,-2.8167566285549824e-06
2026-06-27T13:53:33.078829,1782579123.094832,0.0,0.0,-76.47904968261719,0.0,0.0,-4.990096569061279,0.0,0.0,-2.8554924259094647e-06
2026-06-27T13:53:33.188542,1782579123.2028341,0.0,0.0,-77.01792907714844,0.0,0.0,-4.990095138549805,0.0,0.0,-2.8942282232639466e-06
2026-06-27T13:53:33.297228,1782579123.3108366,0.0,0.0,-77.55680847167969,0.0,0.0,-4.990094184875488,0.0,0.0,-2.932964020618429e-06
2026-06-27T13:53:33.404988,1782579123.4188387,0.0,0.0,-78.09568786621094,0.0,0.0,-4.99009370803833,0.0,0.0,-2.9716998179729104e-06
2026-06-27T13:53:33.514723,1782579123.5268412,0.0,0.0,-78.63456726074219,0.0,0.0,-4.990091800689697,0.0,0.0,-3.0104356153273928e-06
2026-06-27T13:53:33.623971,1782579123.6348433,0.0,0.0,-79.17344665527344,0.0,0.0,-4.990090847015381,0.0,0.0,-3.049171412681875e-06
2026-06-27T13:53:33.732554,1782579123.7428458,0.0,0.0,-79.71232604980469,0.0,0.0,-4.990088939666748,0.0,0.0,-3.087907210036357e-06
2026-06-27T13:53:33.841241,1782579123.850848,0.0,0.0,-80.25120544433594,0.0,0.0,-4.990088939666748,0.0,0.0,-3.1266430073908393e-06
2026-06-27T13:53:33.950536,1782579123.9588504,0.0,0.0,-80.79008483886719,0.0,0.0,-4.990087032318115,0.0,0.0,-3.1653788047453212e-06
2026-06-27T13:53:34.059286,1782579124.0668526,0.0,0.0,-81.32896423339844,0.0,0.0,-4.990087032318115,0.0,0.0,-3.204114602099803e-06
2026-06-27T13:53:34.168058,1782579124.174855,0.0,0.0,-81.86784362792969,0.0,0.0,-4.990085601806641,0.0,0.0,-3.242850399454285e-06
2026-06-27T13:53:34.278167,1782579124.2798572,0.0,0.0,-82.39175415039062,0.0,0.0,-4.990084648132324,0.0,0.0,-3.28051020243781e-06
2026-06-27T13:53:34.386401,1782579124.3878593,0.0,0.0,-82.93063354492188,0.0,0.0,-4.990083694458008,0.0,0.0,-3.3192459997922918e-06
2026-06-27T13:53:34.495324,1782579124.4958618,0.0,0.0,-83.46951293945312,0.0,0.0,-4.990082740783691,0.0,0.0,-3.357981797146774e-06
2026-06-27T13:53:34.603527,1782579124.600864,0.0,0.0,-83.99342346191406,0.0,0.0,-4.990082263946533,0.0,0.0,-3.395641600130298e-06
2026-06-27T13:53:34.712402,1782579124.7088664,0.0,0.0,-84.53230285644531,0.0,0.0,-4.9900803565979,0.0,0.0,-3.43437739748478e-06
2026-06-27T13:53:34.821013,1782579124.8138685,0.0,0.0,-85.05621337890625,0.0,0.0,-4.990079402923584,0.0,0.0,-3.4720372004683044e-06
2026-06-27T13:53:34.930014,1782579124.921871,0.0,0.0,-85.5950927734375,0.0,0.0,-4.990077972412109,0.0,0.0,-3.5107729978227863e-06
2026-06-27T13:53:35.040772,1782579125.0298731,0.0,0.0,-86.13397216796875,0.0,0.0,-4.990077495574951,0.0,0.0,-3.5495087951772682e-06
2026-06-27T13:53:35.148623,1782579125.1378756,0.0,0.0,-86.6728515625,0.0,0.0,-4.990076541900635,0.0,0.0,-3.5882445925317505e-06
2026-06-27T13:53:35.256815,1782579125.2458777,0.0,0.0,-87.21173095703125,0.0,0.0,-4.990075588226318,0.0,0.0,-3.6269803898862324e-06
2026-06-27T13:53:35.366532,1782579125.3538802,0.0,0.0,-87.7506103515625,0.0,0.0,-4.990074157714844,0.0,0.0,-3.6657161872407143e-06
2026-06-27T13:53:35.475155,1782579125.4558823,0.0,0.0,-88.25955200195312,0.0,0.0,-4.9900736808776855,0.0,0.0,-3.7022999958532817e-06
2026-06-27T13:53:35.584419,1782579125.5638845,0.0,0.0,-88.79843139648438,0.0,0.0,-4.990071773529053,0.0,0.0,-3.7410357932077628e-06
2026-06-27T13:53:35.692991,1782579125.671887,0.0,0.0,-89.33731079101562,0.0,0.0,-4.990071773529053,0.0,0.0,-3.779771590562246e-06
2026-06-27T13:53:35.802166,1782579125.779889,0.0,0.0,-89.87619018554688,0.0,0.0,-4.990070819854736,0.0,0.0,-3.818507387916727e-06
2026-06-27T13:53:35.910228,1782579125.8848915,0.0,0.0,-90.40010070800781,0.0,0.0,-4.990069389343262,0.0,0.0,-3.856167190900252e-06
2026-06-27T13:53:36.019609,1782579125.9928937,0.0,0.0,-90.93898010253906,0.0,0.0,-4.990068435668945,0.0,0.0,-3.894902988254734e-06
2026-06-27T13:53:36.128679,1782579126.100896,0.0,0.0,-91.47785949707031,0.0,0.0,-4.990067481994629,0.0,0.0,-3.933638785609216e-06
2026-06-27T13:53:36.236873,1782579126.2058983,0.0,0.0,-92.00177001953125,0.0,0.0,-4.990067005157471,0.0,0.0,-3.97129858859274e-06
2026-06-27T13:53:36.346602,1782579126.2959,0.0,0.0,-92.45083618164062,0.0,0.0,-4.990065574645996,0.0,0.0,-4.003578419721475e-06
2026-06-27T13:53:36.454770,1782579126.4009025,0.0,0.0,-92.97474670410156,0.0,0.0,-4.99006462097168,0.0,0.0,-4.041238222704999e-06
2026-06-27T13:53:36.563477,1782579126.5089047,0.0,0.0,-93.51362609863281,0.0,0.0,-4.9900641441345215,0.0,0.0,-4.079974020059482e-06
2026-06-27T13:53:36.673692,1782579126.6139069,0.0,0.0,-94.03753662109375,0.0,0.0,-4.990063190460205,0.0,0.0,-4.117633823043006e-06
2026-06-27T13:53:36.781868,1782579126.7219093,0.0,0.0,-94.576416015625,0.0,0.0,-4.990062236785889,0.0,0.0,-4.156369620397488e-06
2026-06-27T13:53:36.891118,1782579126.8299115,0.0,0.0,-95.11529541015625,0.0,0.0,-4.990060329437256,0.0,0.0,-4.19510541775197e-06
2026-06-27T13:53:36.999334,1782579126.9319136,0.0,0.0,-95.62423706054688,0.0,0.0,-4.990060329437256,0.0,0.0,-4.231689226364536e-06
2026-06-27T13:53:37.108499,1782579127.036916,0.0,0.0,-96.14814758300781,0.0,0.0,-4.9900593757629395,0.0,0.0,-4.269349029348061e-06
2026-06-27T13:53:37.217567,1782579127.1449182,0.0,0.0,-96.68702697753906,0.0,0.0,-4.990058422088623,0.0,0.0,-4.308084826702543e-06
2026-06-27T13:53:37.325254,1782579127.2529206,0.0,0.0,-97.22590637207031,0.0,0.0,-4.990056991577148,0.0,0.0,-4.3468206240570255e-06
2026-06-27T13:53:37.435134,1782579127.3609228,0.0,0.0,-97.76478576660156,0.0,0.0,-4.990055561065674,0.0,0.0,-4.385556421411507e-06
2026-06-27T13:53:37.544346,1782579127.4689252,0.0,0.0,-98.30366516113281,0.0,0.0,-4.990055561065674,0.0,0.0,-4.424292218765989e-06
2026-06-27T13:53:37.653506,1782579127.5769274,0.0,0.0,-98.84254455566406,0.0,0.0,-4.990054607391357,0.0,0.0,-4.463028016120471e-06
2026-06-27T13:53:37.762644,1782579127.6849298,0.0,0.0,-99.38142395019531,0.0,0.0,-4.990053176879883,0.0,0.0,-4.501763813474953e-06
2026-06-27T13:53:37.871938,1782579127.792932,0.0,0.0,-99.92030334472656,0.0,0.0,-4.990052223205566,0.0,0.0,-4.540499610829435e-06
2026-06-27T13:53:37.980601,1782579127.9009345,4.134735263505718e-06,-1.2549608072731644e-06,-100.45452880859375,0.0002733625005930662,-8.160926518030465e-05,-4.873542308807373,-0.026786667365334787,-0.09693554863014299,-0.6799104272427219
2026-06-27T13:53:38.089780,1782579128.0089366,0.00024970853701233864,-7.094637840054929e-05,-100.97946166992188,0.005919119343161583,-0.0016638480592519045,-4.882704734802246,-0.11974296259737985,-0.5773717302449205,-3.8191322869387254
2026-06-27T13:53:38.198486,1782579128.116939,0.001739488448947668,-0.0004859464825130999,-101.51384735107422,0.023581890389323235,-0.006539825350046158,-4.991366863250732,-0.1555210004488532,-1.2725765728755745,-8.386157607839214
2026-06-27T13:53:38.307490,1782579128.2219412,0.005606658291071653,-0.001553481793962419,-102.0386734008789,0.052143797278404236,-0.014346393756568432,-4.999717712402344,-0.08394443192065155,-2.0382914112095993,-12.859950952697492
2026-06-27T13:53:38.416863,1782579128.3299437,0.013427024707198143,-0.003696439089253545,-102.57832336425781,0.09501118957996368,-0.025951001793146133,-4.992485046386719,0.06700233628894108,-2.8389943159042064,-16.43101630996522
2026-06-27T13:53:38.524534,1782579128.4349458,0.02617730014026165,-0.0071666003204882145,-103.10198211669922,0.15000835061073303,-0.04070562496781349,-4.981042861938477,0.21807215735519325,-3.595671785829122,-18.43172072816479
2026-06-27T13:53:38.633739,1782579128.542948,0.04602980241179466,-0.012536376714706421,-103.63909149169922,0.2198341190814972,-0.05930183827877045,-4.96432638168335,0.31377991533030225,-4.355816557542748,-18.993064046589108
2026-06-27T13:53:38.742621,1782579128.6509504,0.07412364333868027,-0.020094837993383408,-104.17406463623047,0.30249249935150146,-0.08120377361774445,-4.941317558288574,0.31869502495260676,-5.0960787494057325,-18.3981207988764
2026-06-27T13:53:38.850778,1782579128.7589526,0.11180476099252701,-0.030189532786607742,-104.70616912841797,0.3972391188144684,-0.10623796284198761,-4.910688877105713,0.24038419467584698,-5.809847200771598,-17.162441438600116
2026-06-27T13:53:38.959484,1782579128.863955,0.15882940590381622,-0.04274732992053032,-105.21986389160156,0.500162661075592,-0.13340355455875397,-4.87218713760376,0.11701766208908201,-6.477464325032846,-15.82113756984601
2026-06-27T13:53:39.068219,1782579128.9719572,0.21903134882450104,-0.058787208050489426,-105.74347686767578,0.616319477558136,-0.16406366229057312,-4.8220133781433105,-0.01594815762259525,-7.137180424376934,-14.661717355911197
2026-06-27T13:53:39.177768,1782579129.0799596,0.29230961203575134,-0.07827962934970856,-106.26103973388672,0.742171585559845,-0.19730417430400848,-4.75996208190918,-0.11859858276572313,-7.771199120262961,-13.924297593365788
2026-06-27T13:53:39.286317,1782579129.1849618,0.3770388960838318,-0.10079419612884521,-106.75711822509766,0.8729480504989624,-0.23187437653541565,-4.686362266540527,-0.16956046871404848,-8.368661119751435,-13.648187289613983
2026-06-27T13:53:39.394497,1782579129.292964,0.47894537448883057,-0.12785448133945465,-107.25849151611328,1.015389084815979,-0.2695595324039459,-4.595844745635986,-0.16936842474109168,-8.964899176835011,-13.737583895585072
2026-06-27T13:53:39.504222,1782579129.4009664,0.5966238975524902,-0.15908899903297424,-107.74919891357422,1.1649245023727417,-0.3091493844985962,-4.4881157875061035,-0.12780568313785864,-9.545319143662558,-14.062564140080353
2026-06-27T13:53:39.612424,1782579129.5059686,0.726833701133728,-0.1936403512954712,-108.2141342163086,1.3161265850067139,-0.3492048382759094,-4.36458683013916,-0.06695770081385548,-10.093831709353685,-14.45869896136919
2026-06-27T13:53:39.721614,1782579129.613971,0.8776008486747742,-0.23364035785198212,-108.67767333984375,1.4766119718551636,-0.3917388916015625,-4.215768337249756,-0.0035511599582077353,-10.645947817640739,-14.827574198672913
2026-06-27T13:53:39.830304,1782579129.7219732,1.0459110736846924,-0.27829065918922424,-109.12374877929688,1.640768051147461,-0.4352603554725647,-4.040637493133545,0.044979581170789484,-11.192582460935014,-15.083096943410796
2026-06-27T13:53:39.938702,1782579129.8299756,1.232080340385437,-0.327676385641098,-109.54927062988281,1.8069298267364502,-0.4793233573436737,-3.8333585262298584,0.07055781059119975,-11.747205186321523,-15.201165734055294
2026-06-27T13:53:40.047782,1782579129.9379778,1.436204433441162,-0.38182389736175537,-109.95025634765625,1.9729816913604736,-0.5233630537986755,-3.5854389667510986,0.07295384582745654,-12.333091922817138,-15.198162484967837
2026-06-27T13:53:40.157173,1782579130.0459802,1.65159273147583,-0.4389585852622986,-110.31124114990234,2.1280665397644043,-0.5644968748092651,-3.2771644592285156,0.05840178154933334,-12.998834051030476,-15.11704577567058
2026-06-27T13:53:40.264864,1782579130.1509824,1.8894050121307373,-0.5020411014556885,-110.6434097290039,2.2706260681152344,-0.6023101210594177,-2.845081329345703,0.03387246368576557,-13.891978878101272,-14.998533606298814
2026-06-27T13:53:40.373865,1782579130.2589848,2.14079213142395,-0.568724513053894,-110.91902160644531,2.3874855041503906,-0.6333080530166626,-2.2629501819610596,0.006905138613520798,-15.057281817983162,-14.883912136261827
2026-06-27T13:53:40.482899,1782579130.363987,2.4021284580230713,-0.6380472183227539,-111.14370727539062,2.6011393070220947,-0.6899881362915039,-2.058051824569702,-0.014627541654157044,-15.087237164524415,-14.801483745449524
2026-06-27T13:53:40.591783,1782579130.4689891,2.6874232292175293,-0.7137263417243958,-111.35376739501953,2.8309006690979004,-0.7509454488754272,-1.944309949874878,-0.024341858623156264,-14.267473852199073,-14.758559298598522
2026-06-27T13:53:40.700529,1782579130.5769916,3.0051517486572266,-0.7980097532272339,-111.55757904052734,3.0493175983428955,-0.8088943958282471,-1.830476999282837,-0.023443044871343844,-13.029823102643508,-14.75267428382333
2026-06-27T13:53:40.808792,1782579130.6789937,3.3258728981018066,-0.8830878138542175,-111.73910522460938,3.2359979152679443,-0.8584227561950684,-1.73041832447052,-0.017061048288111218,-11.74618309947203,-14.772333981564632
2026-06-27T13:53:40.918507,1782579130.7839959,3.6748859882354736,-0.9756715297698975,-111.91592407226562,3.4084160327911377,-0.9041655659675598,-1.6403298377990723,-0.009207762554865792,-10.443273550807238,-14.805128399132544
2026-06-27T13:53:41.025181,1782579130.888998,4.040979862213135,-1.072786569595337,-112.08405303955078,3.561490058898926,-0.9447738528251648,-1.5642637014389038,-0.002722895559647751,-9.226251951625606,-14.839088445425576
2026-06-27T13:53:41.136910,1782579130.9940004,4.422179222106934,-1.173909306526184,-112.24488067626953,3.696343183517456,-0.9805458784103394,-1.5009175539016724,0.0013603742456959706,-8.12462006256747,-14.866167696254392
2026-06-27T13:53:41.244696,1782579131.1020026,4.828091621398926,-1.2815873622894287,-112.40397644042969,3.8175649642944336,-1.0126996040344238,-1.4468834400177002,0.003160756552138482,-7.120290297134552,-14.88277536234882
2026-06-27T13:53:41.353403,1782579131.207005,5.234450340270996,-1.389383316040039,-112.55352783203125,3.9200644493103027,-1.0398868322372437,-1.40291166305542,0.003245121571891355,-6.265917048260211,-14.887888183349327
2026-06-27T13:53:41.462233,1782579131.3150072,5.662880897521973,-1.503034234046936,-112.70292663574219,4.011465072631836,-1.064130187034607,-1.3645416498184204,0.002412531428584689,-5.503364886192334,-14.884289584410908
2026-06-27T13:53:41.571512,1782579131.4230096,6.100493907928467,-1.6191208362579346,-112.84845733642578,4.090362071990967,-1.0850592851638794,-1.3314143419265747,0.0013043058024643694,-4.8468364409228775,-14.875512148709054
2026-06-27T13:53:41.680232,1782579131.5310118,6.546026706695557,-1.7373082637786865,-112.99063873291016,4.158383369445801,-1.1031060218811035,-1.3022480010986328,0.0003345753546351431,-4.283861250208156,-14.865342187952406
2026-06-27T13:53:41.788757,1782579131.6390142,6.998386383056641,-1.8573071956634521,-113.12985229492188,4.217004299163818,-1.1186619997024536,-1.2760521173477173,-0.00031666311851698904,-3.8024409998491757,-14.856639878591086
2026-06-27T13:53:41.896969,1782579131.7440164,7.443826675415039,-1.975472092628479,-113.26261138916016,4.266231060028076,-1.131726622581482,-1.2527318000793457,-0.0006305133504809205,-3.4020959957801202,-14.851079860373602
2026-06-27T13:53:42.006012,1782579131.8490186,7.894083023071289,-2.094914197921753,-113.39299774169922,4.308868885040283,-1.1430436372756958,-1.2309887409210205,-0.0006944282241867936,-3.0593170507237084,-14.84871817738417
2026-06-27T13:53:42.114432,1782579131.957021,8.36154842376709,-2.2189230918884277,-113.5248031616211,4.34682559967041,-1.1531189680099487,-1.2098621129989624,-0.0006058557710070937,-2.7583603375301227,-14.849094110812619
2026-06-27T13:53:42.223247,1782579132.0620232,8.819695472717285,-2.340459108352661,-113.65081024169922,4.378810882568359,-1.1616095304489136,-1.1902450323104858,-0.0004497315521230351,-2.5087481056315966,-14.85123850742222
2026-06-27T13:53:42.331513,1782579132.1700256,9.294198989868164,-2.466334581375122,-113.77831268310547,4.407387733459473,-1.1691951751708984,-1.1708091497421265,-0.0002856956177176389,-2.2898048413045804,-14.854169801436132
2026-06-27T13:53:42.440286,1782579132.2780278,9.771580696105957,-2.5929746627807617,-113.90373992919922,4.432219505310059,-1.175785779953003,-1.1519631147384644,-0.0001567908881083834,-2.103529353789619,-14.856926671376153
2026-06-27T13:53:42.549514,1782579132.3860302,10.251465797424316,-2.720277786254883,-114.02714538574219,4.453856468200684,-1.1815283298492432,-1.1335519552230835,-7.592524020263228e-05,-1.9450350207651144,-14.858923804363359
2026-06-27T13:53:42.658969,1782579132.4910324,10.720118522644043,-2.8446028232574463,-114.14522552490234,4.472276210784912,-1.1864169836044312,-1.1159815788269043,-4.297395676808692e-05,-1.813618571847211,-14.859922114015145
2026-06-27T13:53:42.767658,1782579132.5960345,11.19058609008789,-2.969409465789795,-114.26148986816406,4.488490104675293,-1.1907198429107666,-1.0986921787261963,-3.923239480617882e-05,-1.7012549177828706,-14.86007613072177
2026-06-27T13:53:42.876546,1782579132.7010367,11.662654876708984,-3.0946412086486816,-114.37596130371094,4.502814769744873,-1.1945207118988037,-1.0816404819488525,-5.7101823249968956e-05,-1.6051315723537045,-14.859625643117564
2026-06-27T13:53:42.986748,1782579132.806039,12.136140823364258,-3.2202491760253906,-114.48865509033203,4.5155158042907715,-1.1978923082351685,-1.0647892951965332,-8.296935367151044e-05,-1.522863178799597,-14.858872489809821
2026-06-27T13:53:43.093440,1782579132.9110413,12.610882759094238,-3.346190929412842,-114.59957885742188,4.526825904846191,-1.2008945941925049,-1.048128366470337,-0.00010055987799480014,-1.4523825796091006,-14.858092030581712
2026-06-27T13:53:43.202527,1782579133.0160434,13.086751937866211,-3.4724318981170654,-114.7087631225586,4.536942005157471,-1.2035800218582153,-1.0316311120986938,-0.00011758920891630936,-1.391967317314507,-14.857453406120793
2026-06-27T13:53:43.312209,1782579133.1210458,13.563626289367676,-3.5989391803741455,-114.81622314453125,4.546026706695557,-1.2059930562973022,-1.015282392501831,-0.0001202619433174027,-1.3401231607972959,-14.857055760081254
2026-06-27T13:53:43.420984,1782579133.226048,14.041406631469727,-3.7256875038146973,-114.92196655273438,4.554228782653809,-1.208170771598816,-0.9990878105163574,-0.00012122147773642035,-1.2955549316585084,-14.856937598118732
2026-06-27T13:53:43.528807,1782579133.3310502,14.520008087158203,-3.8526530265808105,-115.02603149414062,4.561665058135986,-1.2101458311080933,-0.9830283522605896,-0.00011952253862238366,-1.2572089300608162,-14.85700709742724
2026-06-27T13:53:43.637949,1782579133.4390526,15.0130615234375,-3.983452796936035,-115.13130950927734,4.5686259269714355,-1.2119946479797363,-0.9666365385055542,-0.00011447483260288046,-1.2232736577933574,-14.857248821209026
2026-06-27T13:53:43.746297,1782579133.5470548,15.506832122802734,-4.114443778991699,-115.23482513427734,4.574983596801758,-1.2136832475662231,-0.950376570224762,-0.00010440607931211207,-1.1940819332368318,-14.857526131160185
2026-06-27T13:53:43.855004,1782579133.6520572,15.987520217895508,-4.2419633865356445,-115.33380126953125,4.580665111541748,-1.2151918411254883,-0.9347239136695862,-9.13086702988212e-05,-1.1695643036232168,-14.857748604830213
2026-06-27T13:53:43.964717,1782579133.7570593,16.468780517578125,-4.369634628295898,-115.4311294555664,4.585916996002197,-1.2165864706039429,-0.9191984534263611,-8.815268262531387e-05,-1.1482806531851828,-14.857901099159028
2026-06-27T13:53:44.073481,1782579133.8620615,16.950572967529297,-4.497447490692139,-115.52684020996094,4.590793132781982,-1.2178820371627808,-0.9037734270095825,-8.666836333394579e-05,-1.1297515752322056,-14.857970589614762
2026-06-27T13:53:44.181615,1782579133.967064,17.432859420776367,-4.625392436981201,-115.62093353271484,4.595342636108398,-1.2190908193588257,-0.8885241746902466,-8.630532218694079e-05,-1.1136044046819742,-14.857977749522096
2026-06-27T13:53:44.291033,1782579134.072066,17.915603637695312,-4.753459453582764,-115.71343994140625,4.599602699279785,-1.2202222347259521,-0.8734216690063477,-8.686320039193023e-05,-1.0993689850932766,-14.857948183807206
2026-06-27T13:53:44.399197,1782579134.1770682,18.398786544799805,-4.881641864776611,-115.80436706542969,4.603604793548584,-1.2212854623794556,-0.8584301471710205,-8.727311875192461e-05,-1.0868762619400523,-14.857933891728726
2026-06-27T13:53:44.507957,1782579134.2820706,18.882375717163086,-5.009932518005371,-115.89370727539062,4.607379913330078,-1.2222886085510254,-0.843579113483429,-8.798459434465424e-05,-1.0758320577228953,-14.857902431137921
2026-06-27T13:53:44.617650,1782579134.3870728,19.366348266601562,-5.138326168060303,-115.98150634765625,4.610952377319336,-1.2232379913330078,-0.8288634419441223,-8.82585237157501e-05,-1.0660257727799816,-14.857910177780942
2026-06-27T13:53:44.726809,1782579134.495075,19.864532470703125,-5.27048921585083,-116.07022094726562,4.61443567276001,-1.2241642475128174,-0.8138523697853088,-8.837707849542682e-05,-1.0570402303872735,-14.857920081088873
2026-06-27T13:53:44.834967,1782579134.6030774,20.363080978393555,-5.402749061584473,-116.15731811523438,4.61775016784668,-1.2250452041625977,-0.7990837693214417,-8.829923142684729e-05,-1.0489717988849756,-14.857929714485293
2026-06-27T13:53:44.944671,1782579134.7110796,20.861980438232422,-5.535102844238281,-116.2428207397461,4.620905876159668,-1.225883960723877,-0.7843189239501953,-8.842716735594171e-05,-1.0417808512967592,-14.857936328719743
2026-06-27T13:53:45.052853,1782579134.816082,21.347341537475586,-5.663864612579346,-116.32443237304688,4.623838424682617,-1.2266637086868286,-0.7701823115348816,-8.84394782576919e-05,-1.0353967971453641,-14.857942324399458
2026-06-27T13:53:45.161982,1782579134.9210842,21.833003997802734,-5.7927069664001465,-116.40457153320312,4.626649379730225,-1.2274107933044434,-0.7561948299407959,-8.847649511310955e-05,-1.0295772071802338,-14.857949710766354
2026-06-27T13:53:45.270702,1782579135.0230863,22.30506706237793,-5.917941570281982,-116.48101043701172,4.629270076751709,-1.2281073331832886,-0.7426223754882812,-8.844990918997352e-05,-1.024444819085721,-14.857956144295036
2026-06-27T13:53:45.380986,1782579135.1310887,22.80518341064453,-6.050618648529053,-116.56047821044922,4.631941795349121,-1.2288177013397217,-0.7286513447761536,-8.54383564005166e-05,-1.0193087087701647,-14.857962654825542
2026-06-27T13:53:45.488258,1782579135.236091,23.27777671813965,-6.175993919372559,-116.63412475585938,4.634367942810059,-1.229462742805481,-0.7154996395111084,-7.543051164182416e-05,-1.0148252484713056,-14.857965560210335
2026-06-27T13:53:45.597439,1782579135.341093,23.77843475341797,-6.308814525604248,-116.71065521240234,4.636842250823975,-1.2301206588745117,-0.7017428874969482,-6.705438965710321e-05,-1.0103986217849952,-14.85796862387109
2026-06-27T13:53:45.705146,1782579135.4460955,24.26543617248535,-6.43801212310791,-116.78364562988281,4.639159679412842,-1.2307369709014893,-0.6885156631469727,-6.610364332913903e-05,-1.0063653678833133,-14.857975154553863
2026-06-27T13:53:45.814846,1782579135.5540977,24.7665958404541,-6.570968151092529,-116.85729217529297,4.6414594650268555,-1.2313486337661743,-0.6751368641853333,-6.566734187875056e-05,-1.0024232818785053,-14.858001212988388
2026-06-27T13:53:45.923531,1782579135.6590998,25.25407600402832,-6.700292587280273,-116.927490234375,4.643616676330566,-1.2319222688674927,-0.6621890068054199,-6.513575217228392e-05,-0.9988679385197121,-14.858033420745045
2026-06-27T13:53:46.034112,1782579135.7641022,25.741775512695312,-6.829677104949951,-116.99634552001953,4.645702838897705,-1.2324769496917725,-0.649442732334137,-6.495838067743148e-05,-0.9954455098228325,-14.858036201450812
2026-06-27T13:53:46.141339,1782579135.8721044,26.243633270263672,-6.962817192077637,-117.0657730102539,4.647775650024414,-1.2330280542373657,-0.6365137100219727,-6.473345368529741e-05,-0.9920807241700847,-14.858041740227957
2026-06-27T13:53:46.250358,1782579135.9771066,26.731761932373047,-7.092315673828125,-117.1319580078125,4.649723529815674,-1.2335460186004639,-0.6240940690040588,-6.458115248379275e-05,-0.9889443404770628,-14.858042601923367
2026-06-27T13:53:46.358958,1782579136.082109,27.2200927734375,-7.221867084503174,-117.19684600830078,4.651607036590576,-1.2340468168258667,-0.6118361353874207,-6.417872789832764e-05,-0.9859304853729474,-14.858075256092446
2026-06-27T13:53:46.468163,1782579136.1901112,27.722579956054688,-7.3551740646362305,-117.26225280761719,4.653480052947998,-1.2345449924468994,-0.5993875861167908,-6.381241283277172e-05,-0.9829385132835617,-14.858094832859885
2026-06-27T13:53:46.576800,1782579136.2951136,28.211299896240234,-7.484828472137451,-117.32455444335938,4.655241012573242,-1.2350130081176758,-0.5874578356742859,-6.35999626136685e-05,-0.9801306343479,-14.85809647939658
2026-06-27T13:53:46.684994,1782579136.4031157,28.714170455932617,-7.6182379722595215,-117.3873519897461,4.656991481781006,-1.2354787588119507,-0.5753509402275085,-6.323362984080344e-05,-0.9773405572996243,-14.858100787328153
2026-06-27T13:53:46.795267,1782579136.508118,29.203248977661133,-7.747989177703857,-117.44715881347656,4.658638000488281,-1.2359167337417603,-0.5638399124145508,-6.264293437181726e-05,-0.9746934897261597,-14.85812557145896
2026-06-27T13:53:46.903466,1782579136.6131203,29.692502975463867,-7.8777852058410645,-117.5057601928711,4.6602301597595215,-1.2363404035568237,-0.5523438453674316,-6.260966124679619e-05,-0.9721513928022176,-14.858127846208593
2026-06-27T13:53:47.012178,1782579136.7211225,30.181915283203125,-8.0076265335083,-117.56316375732422,4.661770343780518,-1.2367502450942993,-0.5410891175270081,-6.248520147948293e-05,-0.9696658054420049,-14.858135508448248
2026-06-27T13:53:47.121447,1782579136.8231246,30.671493530273438,-8.137511253356934,-117.61939239501953,4.663259983062744,-1.2371463775634766,-0.5299299955368042,-6.222759861070854e-05,-0.967285640465754,-14.85814780979123
2026-06-27T13:53:47.229071,1782579136.928127,31.161222457885742,-8.267435073852539,-117.6744613647461,4.664700984954834,-1.2375301122665405,-0.5190808773040771,-6.186544277560527e-05,-0.9648854761503792,-14.858150435797514
2026-06-27T13:53:47.338797,1782579137.0331292,31.651100158691406,-8.397397994995117,-117.72840118408203,4.6660943031311035,-1.2379008531570435,-0.5083281397819519,-5.503379939518098e-05,-0.9626042685266488,-14.858153385191828
2026-06-27T13:53:47.448044,1782579137.1381314,32.14112854003906,-8.527398109436035,-117.78121948242188,4.667440891265869,-1.2382590770721436,-0.4977422058582306,-4.927453695154574e-05,-0.9603585133088467,-14.85818530763933
2026-06-27T13:53:47.555248,1782579137.2431338,32.631290435791016,-8.657435417175293,-117.83293914794922,4.668742656707764,-1.2386051416397095,-0.48731884360313416,-4.390896961248908e-05,-0.9581800495666495,-14.858201633093703
2026-06-27T13:53:47.664955,1782579137.351136,33.135597229003906,-8.79122543334961,-117.88500213623047,4.670036315917969,-1.2389487028121948,-0.47676414251327515,-4.267459944326621e-05,-0.9559843912648857,-14.858204752236224
2026-06-27T13:53:47.773636,1782579137.4561381,33.62602233886719,-8.921334266662598,-117.93453216552734,4.671250820159912,-1.239271640777588,-0.46674373745918274,-4.223028190191029e-05,-0.9538980283543859,-14.858205505266644
2026-06-27T13:53:47.882803,1782579137.5611405,34.116573333740234,-9.051477432250977,-117.9830093383789,4.672421455383301,-1.2395834922790527,-0.4567604064941406,-4.208085610104271e-05,-0.9518871090255623,-14.85820902977141
2026-06-27T13:53:47.991508,1782579137.6661427,34.60723876953125,-9.181653022766113,-118.03044891357422,4.673552989959717,-1.2398849725723267,-0.44700565934181213,-4.163493438860007e-05,-0.9499121504753406,-14.858235433372267
2026-06-27T13:53:48.100189,1782579137.7741451,35.112060546875,-9.315580368041992,-118.07819366455078,4.674674987792969,-1.2401834726333618,-0.43713822960853577,-4.415065425385878e-05,-0.9479354850295503,-14.858239026395367
2026-06-27T13:53:48.210357,1782579137.8791473,35.60297775268555,-9.445818901062012,-118.12359619140625,4.675726890563965,-1.2404634952545166,-0.4276617765426636,-4.3667767291720904e-05,-0.9460944625871041,-14.858259585356985
2026-06-27T13:53:48.318610,1782579137.9841495,36.0799674987793,-9.57236385345459,-118.16676330566406,4.67671537399292,-1.2407265901565552,-0.4187161922454834,-3.7784296242408143e-05,-0.9443097434128569,-14.858261066568305
2026-06-27T13:53:48.428459,1782579138.0891519,36.585113525390625,-9.706379890441895,-118.21147155761719,4.6777238845825195,-1.240994930267334,-0.40935689210891724,-3.886918404060701e-05,-0.9424767436565678,-14.858262395593561
2026-06-27T13:53:48.536676,1782579138.194154,37.07632064819336,-9.836698532104492,-118.25398254394531,4.6786675453186035,-1.2412463426589966,-0.40037381649017334,-3.828678077663908e-05,-0.9407633259191295,-14.85826399755263
2026-06-27T13:53:48.645382,1782579138.3021562,37.58169174194336,-9.970766067504883,-118.29673767089844,4.679605484008789,-1.2414960861206055,-0.39138901233673096,-3.7754701511108024e-05,-0.9390214386724416,-14.85828829437889
2026-06-27T13:53:48.755104,1782579138.4101586,38.087154388427734,-10.104867935180664,-118.33853149414062,4.680507183074951,-1.2417365312576294,-0.3825453519821167,-3.832196921564179e-05,-0.9373296407186694,-14.85828734195581
2026-06-27T13:53:48.863151,1782579138.5151608,38.578651428222656,-10.23526668548584,-118.37825012207031,4.681350231170654,-1.2419613599777222,-0.37408483028411865,-3.712407697519144e-05,-0.935734758782465,-14.85828921679767
2026-06-27T13:53:48.972038,1782579138.620163,39.07025146484375,-10.365683555603027,-118.4170913696289,4.682164669036865,-1.2421780824661255,-0.36578109860420227,-3.6563008770945994e-05,-0.9341845214737043,-14.858291185421127
2026-06-27T13:53:49.080799,1782579138.7281654,39.57598876953125,-10.49985408782959,-118.4561538696289,4.68297004699707,-1.2423923015594482,-0.35740670561790466,-3.632574964065252e-05,-0.9326302509041647,-14.858300147904211
2026-06-27T13:53:49.189226,1782579138.8331676,40.067726135253906,-10.630321502685547,-118.49325561523438,4.683724403381348,-1.2425931692123413,-0.34941208362579346,-3.621985343644981e-05,-0.9311626622362446,-14.858343439409387
2026-06-27T13:53:49.298415,1782579138.93817,40.559593200683594,-10.760801315307617,-118.52952575683594,4.684451103210449,-1.242786169052124,-0.34156692028045654,-3.595249908134383e-05,-0.9297343077456528,-14.858345675003026
2026-06-27T13:53:49.407174,1782579139.040172,41.03743362426758,-10.887582778930664,-118.56398010253906,4.685129165649414,-1.2429664134979248,-0.33402419090270996,-3.863731870615426e-05,-0.928394434602757,-14.858345471496074
2026-06-27T13:53:49.515261,1782579139.1481743,41.54349136352539,-11.021833419799805,-118.59963989257812,4.685821533203125,-1.2431507110595703,-0.32631245255470276,-4.3188839312869924e-05,-0.9270059960251678,-14.858347759767007
2026-06-27T13:53:49.624968,1782579139.2501764,42.02147674560547,-11.14864730834961,-118.632568359375,4.686448574066162,-1.2433180809020996,-0.31911879777908325,-3.7331276310654274e-05,-0.925734111736122,-14.858347774414986
2026-06-27T13:53:49.733363,1782579139.3581789,42.527671813964844,-11.282938003540039,-118.6666259765625,4.687088489532471,-1.2434883117675781,-0.31165874004364014,-4.501230712296597e-05,-0.924429499338163,-14.858350219167924
2026-06-27T13:53:49.841563,1782579139.463181,43.019840240478516,-11.413515090942383,-118.69896697998047,4.687685012817383,-1.243647575378418,-0.30454179644584656,-3.749998442343495e-05,-0.9232024991407131,-14.858350347080364
2026-06-27T13:53:49.950772,1782579139.5711834,43.52617263793945,-11.54784107208252,-118.7314682006836,4.688275337219238,-1.243804693222046,-0.29736292362213135,-4.104266566768404e-05,-0.9219762657322769,-14.858363493685316
2026-06-27T13:53:50.060282,1782579139.6791856,44.01844787597656,-11.678451538085938,-118.76233673095703,4.688825607299805,-1.2439515590667725,-0.2905293107032776,-3.6666533843555954e-05,-0.9208233509053049,-14.858390003857828
2026-06-27T13:53:50.169014,1782579139.7811878,44.51084899902344,-11.809074401855469,-118.79249572753906,4.689353942871094,-1.2440924644470215,-0.28383001685142517,-3.627846634304427e-05,-0.9197119628323478,-14.858387718532793
2026-06-27T13:53:50.277239,1782579139.8861902,45.00325012207031,-11.939718246459961,-118.82194519042969,4.689862251281738,-1.2442280054092407,-0.277271568775177,-3.601038182929739e-05,-0.9186329952499862,-14.858390708705157
2026-06-27T13:53:50.385315,1782579139.9911923,45.4957275390625,-12.070362091064453,-118.8507308959961,4.690350532531738,-1.2443580627441406,-0.2708442211151123,-2.8714912638776935e-05,-0.917587174997619,-14.8583912222701
2026-06-27T13:53:50.495021,1782579140.0961945,45.98826217651367,-12.20103931427002,-118.87882232666016,4.6908183097839355,-1.2444829940795898,-0.26454704999923706,-2.873281025026118e-05,-0.9165801962490271,-14.85839175931224
2026-06-27T13:53:50.604488,1782579140.204197,46.494869232177734,-12.335450172424316,-118.90706634521484,4.691280841827393,-1.2446061372756958,-0.2581983804702759,-2.8524107579003116e-05,-0.9155735110175796,-14.85839230103558
2026-06-27T13:53:50.712553,1782579140.306199,46.97344207763672,-12.46240520477295,-118.93309020996094,4.6916985511779785,-1.2447174787521362,-0.2522914409637451,-2.2780082046850957e-05,-0.9146643753380164,-14.858393088842119
2026-06-27T13:53:50.821342,1782579140.4142013,47.480186462402344,-12.596850395202637,-118.96001434326172,4.6921234130859375,-1.2448309659957886,-0.24620959162712097,-2.260387344833573e-05,-0.9137238904328564,-14.85839376991199
2026-06-27T13:53:50.929931,1782579140.5222037,47.98693084716797,-12.731295585632324,-118.98629760742188,4.692531585693359,-1.244939923286438,-0.24029594659805298,-1.765126675947767e-05,-0.9128128131183035,-14.858394551071354
2026-06-27T13:53:51.038878,1782579140.6242058,48.46562576293945,-12.858285903930664,-119.01051330566406,4.692902565002441,-1.2450381517410278,-0.23484373092651367,-1.7511018875086727e-05,-0.9119775140306069,-14.858405949658671
2026-06-27T13:53:51.147910,1782579140.729208,48.95842742919922,-12.989029884338379,-119.03486633300781,4.693266868591309,-1.2451351881027222,-0.22926703095436096,-1.573396176327004e-05,-0.9111542752405312,-14.858444531926455
2026-06-27T13:53:51.255187,1782579140.8342104,49.451229095458984,-13.119773864746094,-119.05865478515625,4.693615913391113,-1.2452280521392822,-0.22384364902973175,-1.5532745935890503e-05,-0.9103607097739859,-14.858445519781403
2026-06-27T13:53:51.364932,1782579140.9422126,49.9581413269043,-13.254256248474121,-119.0825424194336,4.693961143493652,-1.2453196048736572,-0.21837186813354492,-1.5449176641264333e-05,-0.9095749094699359,-14.858446523913601
2026-06-27T13:53:51.473703,1782579141.0472147,50.45107650756836,-13.38503360748291,-119.10519409179688,4.694282054901123,-1.2454050779342651,-0.2131866067647934,-1.5563380872277795e-05,-0.9088316509873653,-14.858447614372336
2026-06-27T13:53:51.582984,1782579141.1552172,50.95809555053711,-13.519547462463379,-119.12793731689453,4.6945977210998535,-1.2454893589019775,-0.2079927921295166,-1.5433942896144314e-05,-0.9080943883738288,-14.858448720183244
2026-06-27T13:53:51.691770,1782579141.2602193,51.45103073120117,-13.650324821472168,-119.1495132446289,4.694892406463623,-1.2455674409866333,-0.2029988020658493,-1.5327150495042166e-05,-0.9074077173677728,-14.858449929752696
2026-06-27T13:53:51.800030,1782579141.3622215,51.92988586425781,-13.77737045288086,-119.16997528076172,4.69516658782959,-1.245640516281128,-0.1982826441526413,-1.5231807923091101e-05,-0.9067624313065457,-14.85844862072157
2026-06-27T13:53:51.909736,1782579141.467224,52.42295455932617,-13.908181190490723,-119.19054412841797,4.695436477661133,-1.245712399482727,-0.1935306191444397,-1.4966926458044052e-05,-0.9061229917011262,-14.858449929350273
