time,sim_t,x,y,z,vx,vy,vz,roll_deg,pitch_deg,yaw_deg
2026-06-27T13:22:29.215551,1782577315.0192604,0.0,0.0,2.0397043228149414,0.0,0.0,0.0,0.0,0.0,0.0003895640909249624
2026-06-27T13:22:29.319254,1782577315.1182625,0.0,0.0,2.0397043228149414,0.0,0.0,0.0,0.0,0.0,0.0003895640909249624
2026-06-27T13:22:29.428025,1782577315.2232647,0.0,0.0,2.0397043228149414,0.0,0.0,0.0,0.0,0.0,0.0003895640909249624
2026-06-27T13:22:29.536774,1782577315.331267,0.0,0.0,2.0397043228149414,0.0,0.0,0.0,0.0,0.0,0.0003895640909249624
2026-06-27T13:22:29.646124,1782577315.4302692,0.0,0.0,2.0397043228149414,0.0,0.0,0.0,0.0,0.0,0.0003895640909249624
2026-06-27T13:22:29.754181,1782577315.5262713,0.0,0.0,2.0397043228149414,0.0,0.0,0.0,0.0,0.0,0.0003895640909249624
2026-06-27T13:22:29.863332,1782577315.6342735,0.0,0.0,2.0397043228149414,0.0,0.0,0.0,0.0,0.0,0.0003895640909249624
2026-06-27T13:22:29.973106,1782577315.7392757,0.0,0.0,2.0397043228149414,0.0,0.0,0.0,0.0,0.0,0.0003895640909249624
2026-06-27T13:22:30.081737,1782577315.844278,0.0,0.0,2.0397043228149414,0.0,0.0,0.0,0.0,0.0,0.0003895640909249624
2026-06-27T13:22:30.189476,1782577315.9522803,0.0,0.0,2.0397043228149414,0.0,0.0,0.0,0.0,0.0,0.0003895640909249624
2026-06-27T13:22:30.298519,1782577316.0602827,0.0,0.0,2.0397043228149414,0.0,0.0,0.0,0.0,0.0,0.0003895640909249624
2026-06-27T13:22:30.419921,1782577316.168285,0.0,0.0,2.018420934677124,0.0,0.0,-0.36775264143943787,0.0,0.0,0.0003895640909249624
2026-06-27T13:22:30.532199,1782577316.267287,0.0,0.0,1.9778001308441162,0.0,0.0,-0.43363621830940247,0.0,0.0,0.0003895640909249624
2026-06-27T13:22:30.639220,1782577316.3722892,0.0,0.0,1.931402325630188,0.0,0.0,-0.4473622739315033,0.0,0.0,0.0003895640909249624
2026-06-27T13:22:30.749798,1782577316.4772916,0.0,0.0,1.8840841054916382,0.0,0.0,-0.4535149931907654,0.0,0.0,0.0003895640909249624
2026-06-27T13:22:30.858025,1782577316.5762937,0.0,0.0,1.8389548063278198,0.0,0.0,-0.4580524265766144,0.0,0.0,0.0003895640909249624
2026-06-27T13:22:30.966338,1782577316.684296,0.0,0.0,1.789245367050171,0.0,0.0,-0.46238911151885986,0.0,0.0,0.0003895640909249624
2026-06-27T13:22:31.075644,1782577316.786298,0.0,0.0,1.7418915033340454,0.0,0.0,-0.4660305082798004,0.0,0.0,0.0003895640909249624
2026-06-27T13:22:31.183823,1782577316.8943005,0.0,0.0,1.691369652748108,0.0,0.0,-0.46946683526039124,0.0,0.0,0.0003895640909249624
2026-06-27T13:22:31.292573,1782577316.9993026,0.0,0.0,1.6419154405593872,0.0,0.0,-0.4724401831626892,0.0,0.0,0.0003895640909249624
2026-06-27T13:22:31.403733,1782577317.1013048,0.0,0.0,1.593591332435608,0.0,0.0,-0.4750193655490875,0.0,0.0,0.0003895640909249624
2026-06-27T13:22:31.509857,1782577317.2063072,0.0,0.0,1.5435863733291626,0.0,0.0,-0.4773903787136078,0.0,0.0,0.0003895640909249624
2026-06-27T13:22:31.618907,1782577317.3113093,0.0,0.0,1.493346095085144,0.0,0.0,-0.4795043170452118,0.0,0.0,0.0003895640909249624
2026-06-27T13:22:31.728107,1782577317.4193115,0.0,0.0,1.441452145576477,0.0,0.0,-0.4814397394657135,0.0,0.0,0.0003895640909249624
2026-06-27T13:22:31.836386,1782577317.524314,0.0,0.0,1.3908101320266724,0.0,0.0,-0.4831145405769348,0.0,0.0,0.0003895640909249624
2026-06-27T13:22:31.945066,1782577317.629316,0.0,0.0,1.3400022983551025,0.0,0.0,-0.48460763692855835,0.0,0.0,0.0003895640909249624
2026-06-27T13:22:32.053762,1782577317.7373185,0.0,0.0,1.2875887155532837,0.0,0.0,-0.48597460985183716,0.0,0.0,0.0003895640909249624
2026-06-27T13:22:32.162977,1782577317.8423207,0.0,0.0,1.2364968061447144,0.0,0.0,-0.4871576428413391,0.0,0.0,0.0003895640909249624
2026-06-27T13:22:32.271750,1782577317.9503229,0.0,0.0,1.1838231086730957,0.0,0.0,-0.4882408082485199,0.0,0.0,0.0003895640909249624
2026-06-27T13:22:32.380947,1782577318.0553253,0.0,0.0,1.1325064897537231,0.0,0.0,-0.4891781806945801,0.0,0.0,0.0003895640909249624
2026-06-27T13:22:32.489536,1782577318.1603274,0.0,0.0,1.0810970067977905,0.0,0.0,-0.49001383781433105,0.0,0.0,0.0003895640909249624
2026-06-27T13:22:32.598747,1782577318.2653296,0.0,0.0,1.0296045541763306,0.0,0.0,-0.49075889587402344,0.0,0.0,0.0003895640909249624
2026-06-27T13:22:32.707466,1782577318.370332,0.0,0.0,0.9780384302139282,0.0,0.0,-0.49142324924468994,0.0,0.0,0.0003895640909249624
2026-06-27T13:22:32.816542,1782577318.4783342,0.0,0.0,0.9249300956726074,0.0,0.0,-0.49203136563301086,0.0,0.0,0.0003895640909249624
2026-06-27T13:22:32.925798,1782577318.5863366,0.0,0.0,0.871759831905365,0.0,0.0,-0.49257197976112366,0.0,0.0,0.0003895640909249624
2026-06-27T13:22:33.034020,1782577318.6943388,0.0,0.0,0.8185343742370605,0.0,0.0,-0.49305230379104614,0.0,0.0,0.0003895640909249624
2026-06-27T13:22:33.143294,1782577318.796341,0.0,0.0,0.7682209610939026,0.0,0.0,-0.49345678091049194,0.0,0.0,0.0003895640909249624
2026-06-27T13:22:33.252001,1782577318.9013433,0.0,0.0,0.716387152671814,0.0,0.0,-0.49382859468460083,0.0,0.0,0.0003895640909249624
2026-06-27T13:22:33.360764,1782577319.0033455,0.0,0.0,0.6659989953041077,0.0,0.0,-0.49415093660354614,0.0,0.0,0.0003895640909249624
2026-06-27T13:22:33.469055,1782577319.1143477,0.0,0.0,0.6111294031143188,0.0,0.0,-0.49446362257003784,0.0,0.0,0.0003895640909249624
2026-06-27T13:22:33.578761,1782577319.21935,0.0,0.0,0.5591956377029419,0.0,0.0,-0.49472618103027344,0.0,0.0,0.0003895640909249624
2026-06-27T13:22:33.687488,1782577319.3273523,0.0,0.0,0.5109317302703857,0.0,0.0,-0.2714959979057312,0.0,0.0,0.0003895640909249624
2026-06-27T13:22:33.796380,1782577319.4323545,0.0,0.0,0.5011802911758423,0.0,0.0,0.0023172989021986723,0.0,0.0,0.0003895640909249624
2026-06-27T13:22:33.905049,1782577319.5373569,0.0,0.0,0.4894722104072571,0.0,0.0,-0.4052446782588959,0.0,0.0,0.0003712711094315821
2026-06-27T13:22:34.013465,1782577319.642359,0.0,0.0,0.41022709012031555,0.0,0.0,-1.1017334461212158,0.0,0.0,0.0002815463986006006
2026-06-27T13:22:34.121683,1782577319.7473612,0.0,0.0,0.25883540511131287,0.0,0.0,-1.7773370742797852,0.0,0.0,0.0001577730733408525
2026-06-27T13:22:34.230725,1782577319.8553636,0.0,0.0,0.030830156058073044,0.0,0.0,-2.4382176399230957,0.0,0.0,3.532113593558105e-05
2026-06-27T13:22:34.339395,1782577319.9603658,0.0,0.0,-0.25708621740341187,0.0,0.0,-3.0381240844726562,0.0,0.0,-5.348786175182734e-05
2026-06-27T13:22:34.448063,1782577320.0653682,0.0,0.0,-0.605483889579773,0.0,0.0,-3.5893537998199463,0.0,0.0,-0.00010195413634685557
2026-06-27T13:22:34.557313,1782577320.1703703,0.0,0.0,-1.0090276002883911,0.0,0.0,-4.088085651397705,0.0,0.0,-0.00011196278113403726
2026-06-27T13:22:34.666574,1782577320.2783725,0.0,0.0,-1.4757344722747803,0.0,0.0,-4.544967174530029,0.0,0.0,-9.306914397264983e-05
2026-06-27T13:22:34.775936,1782577320.386375,0.0,0.0,-1.9887475967407227,0.0,0.0,-4.945929050445557,0.0,0.0,-5.8377580770685294e-05
2026-06-27T13:22:34.884119,1782577320.4943771,0.0,0.0,-2.5227835178375244,0.0,0.0,-5.16170597076416,0.0,0.0,-2.2390140918657556e-05
2026-06-27T13:22:34.992321,1782577320.6023796,0.0,0.0,-3.096632719039917,0.0,0.0,-5.167696475982666,0.0,0.0,8.4078419986585e-06
2026-06-27T13:22:35.102067,1782577320.7073817,0.0,0.0,-3.6384429931640625,0.0,0.0,-5.15178108215332,0.0,0.0,2.5876190065497575e-05
2026-06-27T13:22:35.211287,1782577320.8153841,0.0,0.0,-4.193942070007324,0.0,0.0,-5.135255813598633,0.0,0.0,3.190437382392125e-05
2026-06-27T13:22:35.318955,1782577320.9203863,0.0,0.0,-4.732375621795654,0.0,0.0,-5.120665073394775,0.0,0.0,2.856403784592452e-05
2026-06-27T13:22:35.428254,1782577321.0283885,0.0,0.0,-5.284677028656006,0.0,0.0,-5.107170581817627,0.0,0.0,1.954479817706964e-05
2026-06-27T13:22:35.537119,1782577321.133391,0.0,0.0,-5.820311069488525,0.0,0.0,-5.095386981964111,0.0,0.0,9.210026539088017e-06
2026-06-27T13:22:35.645851,1782577321.241393,0.0,0.0,-6.370025634765625,0.0,0.0,-5.08450174331665,0.0,0.0,-8.690674833818171e-08
2026-06-27T13:22:35.756065,1782577321.3493955,0.0,0.0,-6.9186272621154785,0.0,0.0,-5.074740886688232,0.0,0.0,-6.553131000821603e-06
2026-06-27T13:22:35.863809,1782577321.4513977,0.0,0.0,-7.435832977294922,0.0,0.0,-5.066450595855713,0.0,0.0,-1.0491629877539636e-05
2026-06-27T13:22:35.972264,1782577321.5533998,0.0,0.0,-7.952234268188477,0.0,0.0,-5.05897331237793,0.0,0.0,-1.3089577778672958e-05
2026-06-27T13:22:36.081953,1782577321.6614022,0.0,0.0,-8.498224258422852,0.0,0.0,-5.051853179931641,0.0,0.0,-1.3488338117084148e-05
2026-06-27T13:22:36.190945,1782577321.7694044,0.0,0.0,-9.043484687805176,0.0,0.0,-5.045468330383301,0.0,0.0,-1.082444556207398e-05
2026-06-27T13:22:36.299344,1782577321.8744066,0.0,0.0,-9.572978019714355,0.0,0.0,-5.039894104003906,0.0,0.0,-9.107172387799225e-06
2026-06-27T13:22:36.410374,1782577321.979409,0.0,0.0,-10.101909637451172,0.0,0.0,-5.034884452819824,0.0,0.0,-7.99317339084151e-06
2026-06-27T13:22:36.517510,1782577322.0844111,0.0,0.0,-10.630343437194824,0.0,0.0,-5.030378818511963,0.0,0.0,-7.304588289414392e-06
2026-06-27T13:22:36.627219,1782577322.1924133,0.0,0.0,-11.173406600952148,0.0,0.0,-5.026216506958008,0.0,0.0,-6.616811710431741e-06
2026-06-27T13:22:36.735605,1782577322.2944157,0.0,0.0,-11.685909271240234,0.0,0.0,-5.022682189941406,0.0,0.0,-5.967244941392573e-06
2026-06-27T13:22:36.844224,1782577322.3994179,0.0,0.0,-12.213127136230469,0.0,0.0,-5.019405841827393,0.0,0.0,-5.298573267381665e-06
2026-06-27T13:22:36.952945,1782577322.50742,0.0,0.0,-12.755067825317383,0.0,0.0,-5.0163798332214355,0.0,0.0,-4.610796688399016e-06
2026-06-27T13:22:37.067684,1782577322.6064222,0.0,0.0,-13.25157356262207,0.0,0.0,-5.013882160186768,0.0,0.0,-3.98033482433159e-06
2026-06-27T13:22:37.170414,1782577322.690424,0.0,0.0,-13.672667503356934,0.0,0.0,-5.011950969696045,0.0,0.0,-3.445397485122865e-06
2026-06-27T13:22:37.279629,1782577322.7954264,0.0,0.0,-14.19881534576416,0.0,0.0,-5.009756565093994,0.0,0.0,-2.7767258111119584e-06
2026-06-27T13:22:37.388737,1782577322.9034286,0.0,0.0,-14.739768981933594,0.0,0.0,-5.007730007171631,0.0,0.0,-2.088949232129312e-06
2026-06-27T13:22:37.497515,1782577323.011431,0.0,0.0,-15.280515670776367,0.0,0.0,-5.005913257598877,0.0,0.0,-1.401172653146667e-06
2026-06-27T13:22:37.607725,1782577323.1194332,0.0,0.0,-15.806062698364258,0.0,0.0,-5.004327774047852,0.0,0.0,-7.325009791357614e-07
2026-06-27T13:22:37.714910,1782577323.2244356,0.0,0.0,-16.346458435058594,0.0,0.0,-5.00286340713501,0.0,0.0,-4.472386581992955e-08
2026-06-27T13:22:37.823922,1782577323.3324378,0.0,0.0,-16.886707305908203,0.0,0.0,-5.001550674438477,0.0,0.0,5.165865055853029e-07
2026-06-27T13:22:37.932487,1782577323.4404402,0.0,0.0,-17.426820755004883,0.0,0.0,-5.000373840332031,0.0,0.0,7.872916567446473e-07
2026-06-27T13:22:38.041525,1782577323.5454423,0.0,0.0,-17.951820373535156,0.0,0.0,-4.999346733093262,0.0,0.0,9.25339790583516e-07
2026-06-27T13:22:38.150916,1782577323.6534445,0.0,0.0,-18.4917049407959,0.0,0.0,-4.9983978271484375,0.0,0.0,9.756687860852449e-07
2026-06-27T13:22:38.258442,1782577323.7524467,0.0,0.0,-18.98651885986328,0.0,0.0,-4.997614860534668,0.0,0.0,1.020077064547461e-06
2026-06-27T13:22:38.368161,1782577323.860449,0.0,0.0,-19.526235580444336,0.0,0.0,-4.996845722198486,0.0,0.0,1.036233569885047e-06
2026-06-27T13:22:38.476523,1782577323.9654512,0.0,0.0,-20.050880432128906,0.0,0.0,-4.996174335479736,0.0,0.0,1.045662769515901e-06
2026-06-27T13:22:38.585237,1782577324.0704534,0.0,0.0,-20.575458526611328,0.0,0.0,-4.995570659637451,0.0,0.0,1.055091969146755e-06
2026-06-27T13:22:38.693926,1782577324.1724558,0.0,0.0,-21.084985733032227,0.0,0.0,-4.995042324066162,0.0,0.0,1.0642517630738703e-06
2026-06-27T13:22:38.803631,1782577324.277458,0.0,0.0,-21.609445571899414,0.0,0.0,-4.9945526123046875,0.0,0.0,1.0736809627047244e-06
2026-06-27T13:22:38.911837,1782577324.38246,0.0,0.0,-22.13386344909668,0.0,0.0,-4.994112014770508,0.0,0.0,1.0645434581048168e-06
2026-06-27T13:22:39.019752,1782577324.4874623,0.0,0.0,-22.658241271972656,0.0,0.0,-4.993715286254883,0.0,0.0,1.0174651421541682e-06
2026-06-27T13:22:39.129420,1782577324.5954647,0.0,0.0,-23.19754409790039,0.0,0.0,-4.993350505828857,0.0,0.0,9.690417314620726e-07
2026-06-27T13:22:39.238687,1782577324.7004669,0.0,0.0,-23.72185516357422,0.0,0.0,-4.993031024932861,0.0,0.0,9.219634155114242e-07
2026-06-27T13:22:39.348874,1782577324.8084693,0.0,0.0,-24.26108169555664,0.0,0.0,-4.992735862731934,0.0,0.0,8.735400048193287e-07
2026-06-27T13:22:39.455236,1782577324.9134715,0.0,0.0,-24.78532600402832,0.0,0.0,-4.992478370666504,0.0,0.0,8.264616888686801e-07
2026-06-27T13:22:39.563937,1782577325.021474,0.0,0.0,-25.324508666992188,0.0,0.0,-4.992240905761719,0.0,0.0,7.780382781765846e-07
2026-06-27T13:22:39.673142,1782577325.126476,0.0,0.0,-25.84868621826172,0.0,0.0,-4.992033004760742,0.0,0.0,7.309599622259362e-07
2026-06-27T13:22:39.781173,1782577325.2344782,0.0,0.0,-26.387840270996094,0.0,0.0,-4.991840362548828,0.0,0.0,6.825365515338406e-07
2026-06-27T13:22:39.889911,1782577325.3424807,0.0,0.0,-26.926963806152344,0.0,0.0,-4.991667747497559,0.0,0.0,6.34113140841745e-07
2026-06-27T13:22:39.999121,1782577325.4474828,0.0,0.0,-27.451074600219727,0.0,0.0,-4.991517543792725,0.0,0.0,5.870348248910966e-07
2026-06-27T13:22:40.108814,1782577325.5554852,0.0,0.0,-27.99015998840332,0.0,0.0,-4.991379261016846,0.0,0.0,5.38611414199001e-07
2026-06-27T13:22:40.217619,1782577325.6604874,0.0,0.0,-28.514270782470703,0.0,0.0,-4.9912590980529785,0.0,0.0,4.915330982483526e-07
2026-06-27T13:22:40.325753,1782577325.7684898,0.0,0.0,-29.053356170654297,0.0,0.0,-4.991147041320801,0.0,0.0,4.43109687556257e-07
2026-06-27T13:22:40.433883,1782577325.876492,0.0,0.0,-29.59239959716797,0.0,0.0,-4.991044044494629,0.0,0.0,3.946868875306603e-07
2026-06-27T13:22:40.544818,1782577325.9844944,0.0,0.0,-30.13141632080078,0.0,0.0,-4.990957736968994,0.0,0.0,3.46264392838313e-07
2026-06-27T13:22:40.652242,1782577326.0894966,0.0,0.0,-30.655460357666016,0.0,0.0,-4.990874767303467,0.0,0.0,2.9918696744297534e-07
2026-06-27T13:22:40.761479,1782577326.1974988,0.0,0.0,-31.17950439453125,0.0,0.0,-4.990808010101318,0.0,0.0,2.521095420476377e-07
2026-06-27T13:22:40.869795,1782577326.3025012,0.0,0.0,-31.718521118164062,0.0,0.0,-4.990739345550537,0.0,0.0,2.036870473552904e-07
2026-06-27T13:22:40.978467,1782577326.4105034,0.0,0.0,-32.257537841796875,0.0,0.0,-4.99068021774292,0.0,0.0,1.5526455266294312e-07
2026-06-27T13:22:41.088236,1782577326.5185058,0.0,0.0,-32.79655456542969,0.0,0.0,-4.990628719329834,0.0,0.0,1.0684205797059582e-07
2026-06-27T13:22:41.198453,1782577326.623508,0.0,0.0,-33.32059860229492,0.0,0.0,-4.990578651428223,0.0,0.0,5.976440993643047e-08
2026-06-27T13:22:41.304110,1782577326.7315102,0.0,0.0,-33.859615325927734,0.0,0.0,-4.990539073944092,0.0,0.0,1.1341786431618568e-08
2026-06-27T13:22:41.413818,1782577326.8395126,0.0,0.0,-34.39863204956055,0.0,0.0,-4.990501880645752,0.0,0.0,-3.7080837073193325e-08
2026-06-27T13:22:41.522579,1782577326.9445148,0.0,0.0,-34.92267608642578,0.0,0.0,-4.990468502044678,0.0,0.0,-8.415844376014783e-08
2026-06-27T13:22:41.631331,1782577327.0525172,0.0,0.0,-35.461692810058594,0.0,0.0,-4.990434169769287,0.0,0.0,-1.3258104023024492e-07
2026-06-27T13:22:41.741403,1782577327.1605194,0.0,0.0,-36.000709533691406,0.0,0.0,-4.990406513214111,0.0,0.0,-1.810035349225922e-07
2026-06-27T13:22:41.850238,1782577327.2685218,0.0,0.0,-36.53972625732422,0.0,0.0,-4.990382671356201,0.0,0.0,-2.2942602961493952e-07
2026-06-27T13:22:41.959327,1782577327.376524,0.0,0.0,-37.07874298095703,0.0,0.0,-4.990360736846924,0.0,0.0,-2.7784852430728683e-07
2026-06-27T13:22:42.068046,1782577327.4815264,0.0,0.0,-37.602787017822266,0.0,0.0,-4.9903411865234375,0.0,0.0,-3.249259497026245e-07
2026-06-27T13:22:42.176255,1782577327.5895286,0.0,0.0,-38.14180374145508,0.0,0.0,-4.990324020385742,0.0,0.0,-3.7334844439497174e-07
2026-06-27T13:22:42.285451,1782577327.697531,0.0,0.0,-38.68082046508789,0.0,0.0,-4.990306854248047,0.0,0.0,-4.2177093908731905e-07
2026-06-27T13:22:42.393715,1782577327.8055332,0.0,0.0,-39.2198371887207,0.0,0.0,-4.990289688110352,0.0,0.0,-4.7019427344610223e-07
2026-06-27T13:22:42.503553,1782577327.9135356,0.0,0.0,-39.758853912353516,0.0,0.0,-4.990272521972656,0.0,0.0,-5.186176841381979e-07
2026-06-27T13:22:42.611302,1782577328.0185378,0.0,0.0,-40.28289794921875,0.0,0.0,-4.990260601043701,0.0,0.0,-5.656960000888463e-07
2026-06-27T13:22:42.720253,1782577328.12354,0.0,0.0,-40.806941986083984,0.0,0.0,-4.9902496337890625,0.0,0.0,-6.127743160394947e-07
2026-06-27T13:22:42.828783,1782577328.228542,0.0,0.0,-41.33098602294922,0.0,0.0,-4.99023962020874,0.0,0.0,-6.598526319901432e-07
2026-06-27T13:22:42.938486,1782577328.3365445,0.0,0.0,-41.87000274658203,0.0,0.0,-4.990231037139893,0.0,0.0,-7.082760426822387e-07
2026-06-27T13:22:43.047057,1782577328.4415467,0.0,0.0,-42.394046783447266,0.0,0.0,-4.990224361419678,0.0,0.0,-7.553543586328872e-07
2026-06-27T13:22:43.156869,1782577328.546549,0.0,0.0,-42.9180908203125,0.0,0.0,-4.9902167320251465,0.0,0.0,-8.024326745835357e-07
2026-06-27T13:22:43.265036,1782577328.6545513,0.0,0.0,-43.45710754394531,0.0,0.0,-4.990209579467773,0.0,0.0,-8.508560852756312e-07
2026-06-27T13:22:43.373707,1782577328.7595534,0.0,0.0,-43.98115158081055,0.0,0.0,-4.990202903747559,0.0,0.0,-8.979344012262796e-07
2026-06-27T13:22:43.482919,1782577328.8645558,0.0,0.0,-44.50519561767578,0.0,0.0,-4.990198135375977,0.0,0.0,-9.450127171769282e-07
2026-06-27T13:22:43.592354,1782577328.969558,0.0,0.0,-45.029239654541016,0.0,0.0,-4.990194320678711,0.0,0.0,-9.920910331275767e-07
2026-06-27T13:22:43.700565,1782577329.0775604,0.0,0.0,-45.56825637817383,0.0,0.0,-4.990189552307129,0.0,0.0,-1.040514443819672e-06
2026-06-27T13:22:43.809816,1782577329.1855626,0.0,0.0,-46.10727310180664,0.0,0.0,-4.990185737609863,0.0,0.0,-1.088937854511768e-06
2026-06-27T13:22:43.917585,1782577329.2905648,0.0,0.0,-46.631317138671875,0.0,0.0,-4.990180969238281,0.0,0.0,-1.1360161704624163e-06
2026-06-27T13:22:44.026831,1782577329.3955672,0.0,0.0,-47.15536117553711,0.0,0.0,-4.990176200866699,0.0,0.0,-1.1830944864130646e-06
2026-06-27T13:22:44.136428,1782577329.5005693,0.0,0.0,-47.679405212402344,0.0,0.0,-4.990172386169434,0.0,0.0,-1.230172802363713e-06
2026-06-27T13:22:44.247099,1782577329.6085715,0.0,0.0,-48.218421936035156,0.0,0.0,-4.990168571472168,0.0,0.0,-1.2785962130558087e-06
2026-06-27T13:22:44.354800,1782577329.713574,0.0,0.0,-48.74246597290039,0.0,0.0,-4.990166187286377,0.0,0.0,-1.325674529006457e-06
2026-06-27T13:22:44.462499,1782577329.818576,0.0,0.0,-49.266510009765625,0.0,0.0,-4.990163803100586,0.0,0.0,-1.3727528449571058e-06
2026-06-27T13:22:44.571652,1782577329.9265785,0.0,0.0,-49.80552673339844,0.0,0.0,-4.990160942077637,0.0,0.0,-1.4211762556492014e-06
2026-06-27T13:22:44.679871,1782577330.0315807,0.0,0.0,-50.32957077026367,0.0,0.0,-4.990158557891846,0.0,0.0,-1.46825457159985e-06
2026-06-27T13:22:44.789080,1782577330.1365829,0.0,0.0,-50.853614807128906,0.0,0.0,-4.990156650543213,0.0,0.0,-1.5153328875504982e-06
2026-06-27T13:22:44.898211,1782577330.2415853,0.0,0.0,-51.37765884399414,0.0,0.0,-4.99015474319458,0.0,0.0,-1.5624112035011468e-06
2026-06-27T13:22:45.007041,1782577330.3495874,0.0,0.0,-51.916656494140625,0.0,0.0,-4.990152359008789,0.0,0.0,-1.6108346141932424e-06
2026-06-27T13:22:45.115836,1782577330.4545896,0.0,0.0,-52.44056701660156,0.0,0.0,-4.990150451660156,0.0,0.0,-1.6579129301438907e-06
2026-06-27T13:22:45.225437,1782577330.559592,0.0,0.0,-52.9644775390625,0.0,0.0,-4.990148544311523,0.0,0.0,-1.7049912460945392e-06
2026-06-27T13:22:45.333677,1782577330.6615942,0.0,0.0,-53.473419189453125,0.0,0.0,-4.990146636962891,0.0,0.0,-1.7507244673037407e-06
2026-06-27T13:22:45.442897,1782577330.7665963,0.0,0.0,-53.99732971191406,0.0,0.0,-4.990143775939941,0.0,0.0,-1.797802783254389e-06
2026-06-27T13:22:45.552021,1782577330.8715985,0.0,0.0,-54.521240234375,0.0,0.0,-4.990142345428467,0.0,0.0,-1.8448810992050375e-06
2026-06-27T13:22:45.661268,1782577330.979601,0.0,0.0,-55.06011962890625,0.0,0.0,-4.990140914916992,0.0,0.0,-1.8933045098971331e-06
2026-06-27T13:22:45.769458,1782577331.084603,0.0,0.0,-55.58403015136719,0.0,0.0,-4.990139961242676,0.0,0.0,-1.9403828258477817e-06
2026-06-27T13:22:45.878669,1782577331.1896055,0.0,0.0,-56.107940673828125,0.0,0.0,-4.990139007568359,0.0,0.0,-1.9874611417984298e-06
2026-06-27T13:22:45.988923,1782577331.2976077,0.0,0.0,-56.646820068359375,0.0,0.0,-4.990138053894043,0.0,0.0,-2.0358845524905254e-06
2026-06-27T13:22:46.097787,1782577331.3966098,0.0,0.0,-57.14079284667969,0.0,0.0,-4.990137577056885,0.0,0.0,-2.0802726789582797e-06
2026-06-27T13:22:46.205491,1782577331.498612,0.0,0.0,-57.64973449707031,0.0,0.0,-4.990135192871094,0.0,0.0,-2.126005900167481e-06
2026-06-27T13:22:46.313932,1782577331.6066144,0.0,0.0,-58.18861389160156,0.0,0.0,-4.990133762359619,0.0,0.0,-2.1744293108595768e-06
2026-06-27T13:22:46.422661,1782577331.7086165,0.0,0.0,-58.69755554199219,0.0,0.0,-4.990131855010986,0.0,0.0,-2.2201625320687786e-06
2026-06-27T13:22:46.532018,1782577331.8166187,0.0,0.0,-59.23643493652344,0.0,0.0,-4.990130424499512,0.0,0.0,-2.2685859427608742e-06
2026-06-27T13:22:46.640213,1782577331.924621,0.0,0.0,-59.77531433105469,0.0,0.0,-4.990129470825195,0.0,0.0,-2.317009353452969e-06
2026-06-27T13:22:46.749232,1782577332.0296233,0.0,0.0,-60.299224853515625,0.0,0.0,-4.990128517150879,0.0,0.0,-2.364087669403618e-06
2026-06-27T13:22:46.857931,1782577332.1376257,0.0,0.0,-60.838104248046875,0.0,0.0,-4.990128040313721,0.0,0.0,-2.4125110800957136e-06
2026-06-27T13:22:46.967615,1782577332.2426279,0.0,0.0,-61.36201477050781,0.0,0.0,-4.990127086639404,0.0,0.0,-2.459589396046362e-06
2026-06-27T13:22:47.076291,1782577332.34763,0.0,0.0,-61.88592529296875,0.0,0.0,-4.990126132965088,0.0,0.0,-2.5066677119970102e-06
2026-06-27T13:22:47.184873,1782577332.4526324,0.0,0.0,-62.40983581542969,0.0,0.0,-4.99012565612793,0.0,0.0,-2.5537460279476588e-06
2026-06-27T13:22:47.293653,1782577332.5606346,0.0,0.0,-62.94871520996094,0.0,0.0,-4.990124225616455,0.0,0.0,-2.6021694386397544e-06
2026-06-27T13:22:47.402057,1782577332.6656368,0.0,0.0,-63.472625732421875,0.0,0.0,-4.9901227951049805,0.0,0.0,-2.6492477545904033e-06
2026-06-27T13:22:47.510336,1782577332.7736392,0.0,0.0,-64.01150512695312,0.0,0.0,-4.990120887756348,0.0,0.0,-2.697671165282499e-06
2026-06-27T13:22:47.618874,1782577332.8756413,0.0,0.0,-64.52044677734375,0.0,0.0,-4.990119457244873,0.0,0.0,-2.7434043864917004e-06
2026-06-27T13:22:47.728210,1782577332.9806435,0.0,0.0,-65.04435729980469,0.0,0.0,-4.990118026733398,0.0,0.0,-2.790482702442349e-06
2026-06-27T13:22:47.835969,1782577333.085646,0.0,0.0,-65.56826782226562,0.0,0.0,-4.990117073059082,0.0,0.0,-2.837561018392997e-06
2026-06-27T13:22:47.944710,1782577333.193648,0.0,0.0,-66.10714721679688,0.0,0.0,-4.990117073059082,0.0,0.0,-2.8859844290850926e-06
2026-06-27T13:22:48.053418,1782577333.2986503,0.0,0.0,-66.63105773925781,0.0,0.0,-4.990116119384766,0.0,0.0,-2.9330627450357416e-06
2026-06-27T13:22:48.162631,1782577333.4036527,0.0,0.0,-67.15496826171875,0.0,0.0,-4.990115165710449,0.0,0.0,-2.9801410609863897e-06
2026-06-27T13:22:48.272340,1782577333.5116549,0.0,0.0,-67.69384765625,0.0,0.0,-4.990114212036133,0.0,0.0,-3.0285644716784858e-06
2026-06-27T13:22:48.380626,1782577333.6196573,0.0,0.0,-68.23272705078125,0.0,0.0,-4.990112781524658,0.0,0.0,-3.0769878823705814e-06
2026-06-27T13:22:48.490614,1782577333.7276595,0.0,0.0,-68.7716064453125,0.0,0.0,-4.990111351013184,0.0,0.0,-3.125411293062677e-06
2026-06-27T13:22:48.598641,1782577333.8326619,0.0,0.0,-69.29551696777344,0.0,0.0,-4.990109443664551,0.0,0.0,-3.1724896090133255e-06
2026-06-27T13:22:48.706855,1782577333.940664,0.0,0.0,-69.83439636230469,0.0,0.0,-4.990108489990234,0.0,0.0,-3.2209130197054207e-06
2026-06-27T13:22:48.816035,1782577334.0486665,0.0,0.0,-70.37327575683594,0.0,0.0,-4.990108013153076,0.0,0.0,-3.2693364303975172e-06
2026-06-27T13:22:48.924698,1782577334.1566687,0.0,0.0,-70.91215515136719,0.0,0.0,-4.99010705947876,0.0,0.0,-3.3177598410896124e-06
2026-06-27T13:22:49.033356,1782577334.2616708,0.0,0.0,-71.43606567382812,0.0,0.0,-4.990106105804443,0.0,0.0,-3.364838157040261e-06
2026-06-27T13:22:49.143083,1782577334.3696733,0.0,0.0,-71.97494506835938,0.0,0.0,-4.990105152130127,0.0,0.0,-3.4132615677323566e-06
2026-06-27T13:22:49.251487,1782577334.4776754,0.0,0.0,-72.51382446289062,0.0,0.0,-4.990103721618652,0.0,0.0,-3.4616847748689527e-06
2026-06-27T13:22:49.361201,1782577334.5856779,0.0,0.0,-73.05270385742188,0.0,0.0,-4.990102767944336,0.0,0.0,-3.510108185561048e-06
2026-06-27T13:22:49.469428,1782577334.69368,0.0,0.0,-73.59158325195312,0.0,0.0,-4.990102767944336,0.0,0.0,-3.5585315962531436e-06
2026-06-27T13:22:49.578002,1782577334.7956822,0.0,0.0,-74.10052490234375,0.0,0.0,-4.990099906921387,0.0,0.0,-3.604264817462345e-06
2026-06-27T13:22:49.687250,1782577334.9006846,0.0,0.0,-74.62443542480469,0.0,0.0,-4.990099906921387,0.0,0.0,-3.6513431334129935e-06
2026-06-27T13:22:49.797451,1782577335.0056868,0.0,0.0,-75.14834594726562,0.0,0.0,-4.990098476409912,0.0,0.0,-3.698421449363643e-06
2026-06-27T13:22:49.904650,1782577335.110689,0.0,0.0,-75.67225646972656,0.0,0.0,-4.990097522735596,0.0,0.0,-3.7454997653142906e-06
2026-06-27T13:22:50.013349,1782577335.2186913,0.0,0.0,-76.21113586425781,0.0,0.0,-4.9900970458984375,0.0,0.0,-3.793923176006387e-06
2026-06-27T13:22:50.122058,1782577335.3236935,0.0,0.0,-76.73504638671875,0.0,0.0,-4.990096092224121,0.0,0.0,-3.841001491957035e-06
2026-06-27T13:22:50.232749,1782577335.431696,0.0,0.0,-77.27392578125,0.0,0.0,-4.990095138549805,0.0,0.0,-3.889424902649131e-06
2026-06-27T13:22:50.340585,1782577335.536698,0.0,0.0,-77.79783630371094,0.0,0.0,-4.990094184875488,0.0,0.0,-3.93650321859978e-06
2026-06-27T13:22:50.449287,1782577335.6417003,0.0,0.0,-78.32174682617188,0.0,0.0,-4.990093231201172,0.0,0.0,-3.983581534550428e-06
2026-06-27T13:22:50.558541,1782577335.7467027,0.0,0.0,-78.84565734863281,0.0,0.0,-4.990091800689697,0.0,0.0,-4.030659850501077e-06
2026-06-27T13:22:50.667350,1782577335.8547049,0.0,0.0,-79.38453674316406,0.0,0.0,-4.990090370178223,0.0,0.0,-4.079083261193172e-06
2026-06-27T13:22:50.778612,1782577335.959707,0.0,0.0,-79.908447265625,0.0,0.0,-4.9900898933410645,0.0,0.0,-4.1261615771438205e-06
2026-06-27T13:22:50.885358,1782577336.0617094,0.0,0.0,-80.41738891601562,0.0,0.0,-4.990088939666748,0.0,0.0,-4.171894798353022e-06
2026-06-27T13:22:50.993608,1782577336.1697116,0.0,0.0,-80.95626831054688,0.0,0.0,-4.990087985992432,0.0,0.0,-4.220318209045118e-06
2026-06-27T13:22:51.102837,1782577336.2747138,0.0,0.0,-81.48017883300781,0.0,0.0,-4.990087032318115,0.0,0.0,-4.2673965249957665e-06
2026-06-27T13:22:51.212100,1782577336.3827162,0.0,0.0,-82.01905822753906,0.0,0.0,-4.990086078643799,0.0,0.0,-4.315819935687862e-06
2026-06-27T13:22:51.321333,1782577336.4907184,0.0,0.0,-82.55793762207031,0.0,0.0,-4.990084648132324,0.0,0.0,-4.364243346379958e-06
2026-06-27T13:22:51.430077,1782577336.5957208,0.0,0.0,-83.08184814453125,0.0,0.0,-4.990084171295166,0.0,0.0,-4.411321662330607e-06
2026-06-27T13:22:51.537689,1782577336.703723,0.0,0.0,-83.6207275390625,0.0,0.0,-4.990082740783691,0.0,0.0,-4.459745073022702e-06
2026-06-27T13:22:51.646516,1782577336.8087254,0.0,0.0,-84.14463806152344,0.0,0.0,-4.990082263946533,0.0,0.0,-4.5068233889733505e-06
2026-06-27T13:22:51.755239,1782577336.9137275,0.0,0.0,-84.66854858398438,0.0,0.0,-4.9900803565979,0.0,0.0,-4.5539017049239986e-06
2026-06-27T13:22:51.863901,1782577337.0217297,0.0,0.0,-85.20742797851562,0.0,0.0,-4.990079879760742,0.0,0.0,-4.602325115616094e-06
2026-06-27T13:22:51.973091,1782577337.1297321,0.0,0.0,-85.74630737304688,0.0,0.0,-4.990078449249268,0.0,0.0,-4.6507485263081915e-06
2026-06-27T13:22:52.081313,1782577337.2347343,0.0,0.0,-86.27021789550781,0.0,0.0,-4.990077972412109,0.0,0.0,-4.69782684225884e-06
2026-06-27T13:22:52.189963,1782577337.3397365,0.0,0.0,-86.79412841796875,0.0,0.0,-4.990076541900635,0.0,0.0,-4.744905158209488e-06
2026-06-27T13:22:52.301677,1782577337.4447389,0.0,0.0,-87.31803894042969,0.0,0.0,-4.990075588226318,0.0,0.0,-4.791983474160137e-06
2026-06-27T13:22:52.408396,1782577337.549741,0.0,0.0,-87.82698059082031,0.0,0.0,-4.99007511138916,0.0,0.0,-4.837716695369338e-06
2026-06-27T13:22:52.517640,1782577337.6547432,0.0,0.0,-88.36585998535156,0.0,0.0,-4.990074157714844,0.0,0.0,-4.8861401060614346e-06
2026-06-27T13:22:52.626853,1782577337.7627456,0.0,0.0,-88.90473937988281,0.0,0.0,-4.990072727203369,0.0,0.0,-4.93456351675353e-06
2026-06-27T13:22:52.734022,1782577337.8707478,0.0,0.0,-89.44361877441406,0.0,0.0,-4.990071773529053,0.0,0.0,-4.982986927445626e-06
2026-06-27T13:22:52.846062,1782577337.96975,0.0,0.0,-89.93759155273438,0.0,0.0,-4.990070819854736,0.0,0.0,-5.02737505391338e-06
2026-06-27T13:22:52.953749,1782577338.0747523,0.0,0.0,-90.46150207519531,0.0,0.0,-4.99006986618042,0.0,0.0,-5.074453369864029e-06
2026-06-27T13:22:53.061453,1782577338.1797545,0.0,0.0,-90.98541259765625,0.0,0.0,-4.9900689125061035,0.0,0.0,-5.121531685814677e-06
2026-06-27T13:22:53.169767,1782577338.2877567,0.0,0.0,-91.5242919921875,0.0,0.0,-4.990067958831787,0.0,0.0,-5.169955096506773e-06
2026-06-27T13:22:53.279455,1782577338.392759,0.0,0.0,-92.04820251464844,0.0,0.0,-4.990067005157471,0.0,0.0,-5.2170334124574205e-06
2026-06-27T13:22:53.388141,1782577338.5007613,0.0,0.0,-92.58708190917969,0.0,0.0,-4.990066051483154,0.0,0.0,-5.265456823149518e-06
2026-06-27T13:22:53.496838,1782577338.6087637,0.0,0.0,-93.12596130371094,0.0,0.0,-4.990065097808838,0.0,0.0,-5.313880233841613e-06
2026-06-27T13:22:53.606009,1782577338.7167659,0.0,0.0,-93.66484069824219,0.0,0.0,-4.990063667297363,0.0,0.0,-5.362303644533708e-06
2026-06-27T13:22:53.714092,1782577338.8277683,0.0,0.0,-94.21868896484375,0.0,0.0,-4.990062713623047,0.0,0.0,-5.412072149967251e-06
2026-06-27T13:22:53.823766,1782577338.9327705,0.0,0.0,-94.74259948730469,0.0,0.0,-4.990061283111572,0.0,0.0,-5.4591504659179e-06
2026-06-27T13:22:53.932304,1782577339.040773,0.0,0.0,-95.28147888183594,0.0,0.0,-4.9900593757629395,0.0,0.0,-5.507573876609996e-06
2026-06-27T13:22:54.042531,1782577339.148775,0.0,0.0,-95.82035827636719,0.0,0.0,-4.9900593757629395,0.0,0.0,-5.555997287302092e-06
2026-06-27T13:22:54.150219,1782577339.2507772,0.0,0.0,-96.32929992675781,0.0,0.0,-4.990057945251465,0.0,0.0,-5.601730508511293e-06
2026-06-27T13:22:54.261349,1782577339.3587797,0.0,0.0,-96.86817932128906,0.0,0.0,-4.990056991577148,0.0,0.0,-5.650153919203389e-06
2026-06-27T13:22:54.369557,1782577339.4607818,0.0,0.0,-97.37712097167969,0.0,0.0,-4.990056037902832,0.0,0.0,-5.695887140412591e-06
2026-06-27T13:22:54.477322,1782577339.565784,0.0,0.0,-97.90103149414062,0.0,0.0,-4.990055561065674,0.0,0.0,-5.742965456363238e-06
2026-06-27T13:22:54.586893,1782577339.6767864,0.0,0.0,-98.45487976074219,0.0,0.0,-4.990054130554199,0.0,0.0,-5.792733961796782e-06
2026-06-27T13:22:54.696096,1782577339.7787886,0.0,0.0,-98.96382141113281,0.0,0.0,-4.990053176879883,0.0,0.0,-5.8384671830059844e-06
2026-06-27T13:22:54.803301,1782577339.8717906,0.0,0.0,-99.4278564453125,0.0,0.0,-4.990052223205566,0.0,0.0,-5.880165119990844e-06
2026-06-27T13:22:54.912319,1782577339.9797928,0.0,0.0,-99.96673583984375,0.0,0.0,-4.99005126953125,0.0,0.0,-5.928588530682941e-06
2026-06-27T13:22:55.022051,1782577340.0877953,7.341227046708809e-06,-2.2064411950850626e-06,-100.49988555908203,0.000423913705162704,-0.00012508955842349678,-4.866021156311035,-0.03436889348025691,-0.12725031424323655,-0.8560787247929965
2026-06-27T13:22:55.132148,1782577340.1897974,0.00027253112057223916,-7.734684186289087e-05,-100.99565887451172,0.006314548198133707,-0.0017733427230268717,-4.885987758636475,-0.12265041004280157,-0.5979766067755967,-3.9328420680165594
2026-06-27T13:22:55.239389,1782577340.2977996,0.0018284281250089407,-0.0005105148884467781,-101.53038024902344,0.02437804825603962,-0.006757543887943029,-4.992288589477539,-0.15533869653238233,-1.2968114236732151,-8.51989932224058
2026-06-27T13:22:55.348112,1782577340.399802,0.005641061346977949,-0.001562737044878304,-102.04022979736328,0.05233202874660492,-0.014396284706890583,-4.999692916870117,-0.0840081934033267,-2.0405134615045086,-12.86023745609897
2026-06-27T13:22:55.456721,1782577340.5078042,0.013483401387929916,-0.003711504163220525,-102.57987213134766,0.09523379057645798,-0.026009710505604744,-4.992449760437012,0.06709911500975763,-2.8404057364075324,-16.43128660103401
2026-06-27T13:22:55.570508,1782577340.6098063,0.025810228660702705,-0.007066562306135893,-103.08858489990234,0.14850741624832153,-0.04030357301235199,-4.981319904327393,0.214440917965007,-3.5761636413291766,-18.395699978260524
2026-06-27T13:22:55.675136,1782577340.7118084,0.044188424944877625,-0.012039071880280972,-103.595947265625,0.2138058841228485,-0.05770011618733406,-4.965786933898926,0.30923207237198985,-4.2952711603669975,-18.997128731840196
2026-06-27T13:22:55.783345,1782577340.8168108,0.0698181614279747,-0.0189382191747427,-104.10144805908203,0.29059264063835144,-0.07805552333593369,-4.944788932800293,0.3235626911461221,-4.99517935370049,-18.531275574151987
2026-06-27T13:22:55.892199,1782577340.921813,0.10612709075212479,-0.028670312836766243,-104.63398742675781,0.38373708724975586,-0.1026730015873909,-4.915287494659424,0.2551934430595287,-5.714135785102377,-17.352845190879936
2026-06-27T13:22:56.003387,1782577341.0298152,0.1516573131084442,-0.04083368927240372,-105.14823913574219,0.485205739736557,-0.12945649027824402,-4.878057956695557,0.13596805321287353,-6.385590464202199,-16.00624372143099
2026-06-27T13:22:56.111089,1782577341.1318176,0.2083742916584015,-0.055949561297893524,-105.65809631347656,0.5966824293136597,-0.15887965261936188,-4.831040859222412,0.004917986712394449,-7.030230471754074,-14.828798425854195
2026-06-27T13:22:56.218655,1782577341.2368197,0.277289479970932,-0.0742858350276947,-106.16242980957031,0.7174165844917297,-0.19076387584209442,-4.77285099029541,-0.1022879388033839,-7.6509028176897145,-14.030766828691407
2026-06-27T13:22:56.327856,1782577341.341822,0.35933488607406616,-0.09609100967645645,-106.65999603271484,0.8466382622718811,-0.2249171882867813,-4.702038764953613,-0.16360917204879552,-8.251466269662659,-13.671072120280085
2026-06-27T13:22:56.437562,1782577341.4498243,0.4583185613155365,-0.12237809598445892,-107.16323852539062,0.9876337051391602,-0.2622140944004059,-4.614885330200195,-0.17307608275306147,-8.84722900497175,-13.696823107361658
2026-06-27T13:22:56.545750,1782577341.5578265,0.572918713092804,-0.15279775857925415,-107.65614318847656,1.135785460472107,-0.3014339506626129,-4.510125637054443,-0.13831501772871987,-9.43545067741625,-13.988379972662873
2026-06-27T13:22:56.653949,1782577341.6598287,0.6961607336997986,-0.18550190329551697,-108.11039733886719,1.2815303802490234,-0.3400401473045349,-4.393909931182861,-0.08164041726678181,-9.970926993188518,-14.367892458898357
2026-06-27T13:22:56.763693,1782577341.7618308,0.8345180749893188,-0.22221089899539948,-108.55186462402344,1.431860327720642,-0.379878968000412,-4.257828712463379,-0.02024362541266105,-10.498784538441669,-14.734268234550637
2026-06-27T13:22:56.872304,1782577341.8668332,0.9931816458702087,-0.26430317759513855,-108.99069213867188,1.590724229812622,-0.4219939410686493,-4.095837116241455,0.03240205704760776,-11.032014240157912,-15.019447694759315
2026-06-27T13:22:56.981566,1782577341.9748354,1.173934817314148,-0.3122529089450836,-109.42280578613281,1.7566171884536743,-0.4659827947616577,-3.8995201587677,0.06537450408964621,-11.581347703899466,-15.179348581222763
2026-06-27T13:22:57.089852,1782577342.0798378,1.3668859004974365,-0.36343687772750854,-109.82069396972656,1.9182837009429932,-0.508857786655426,-3.6716701984405518,0.07452608059346372,-12.137224640459708,-15.210467687520113
2026-06-27T13:22:57.199719,1782577342.18784,1.582918643951416,-0.4207429885864258,-110.20223236083984,2.0811927318573,-0.5520660877227783,-3.3825371265411377,0.0643592733022055,-12.778344158301234,-15.148197019305028
2026-06-27T13:22:57.309988,1782577342.2988424,1.8226807117462158,-0.4843430519104004,-110.55683135986328,2.235248327255249,-0.5929281711578369,-2.983464002609253,0.0411983537728691,-13.61068728600179,-15.032523728736289
2026-06-27T13:22:57.418704,1782577342.3978446,2.0495760440826416,-0.5445298552513123,-110.82792663574219,2.34291934967041,-0.6214877963066101,-2.4649770259857178,0.0165984678422548,-14.651125889326673,-14.922856621897553
2026-06-27T13:22:57.526895,1782577342.5028467,2.3033692836761475,-0.6118514537811279,-111.06317138671875,2.5159590244293213,-0.6673918962478638,-2.1080989837646484,-0.007834433762415157,-15.207304518035384,-14.827706070340097
2026-06-27T13:22:57.634572,1782577342.607849,2.5797252655029297,-0.6851593255996704,-111.27774047851562,2.747833490371704,-0.7289084792137146,-1.985425353050232,-0.022141599430974726,-14.631609503434406,-14.76981054421565
2026-06-27T13:22:57.743330,1782577342.7158513,2.8888652324676514,-0.7671643495559692,-111.4859619140625,2.9735474586486816,-0.7887928485870361,-1.8707267045974731,-0.02472107207321786,-13.497083870936144,-14.7509364372933
2026-06-27T13:22:57.852199,1782577342.8178535,3.202223777770996,-0.8502893447875977,-111.6714096069336,3.167440891265869,-0.8402352333068848,-1.7668957710266113,-0.019823625924804092,-12.235731541250646,-14.7627332993583
2026-06-27T13:22:57.962896,1782577342.9258556,3.554474115371704,-0.9437317252159119,-111.8568344116211,3.352053165435791,-0.8892136812210083,-1.6693142652511597,-0.011829194509188002,-10.878754774145177,-14.793230743580938
2026-06-27T13:22:58.070094,1782577343.030858,3.914992094039917,-1.0393682718276978,-112.02774810791016,3.5116050243377686,-0.931541383266449,-1.5886297225952148,-0.0046841769766530926,-9.627707005592477,-14.827914572275466
2026-06-27T13:22:58.178804,1782577343.1358602,4.291272163391113,-1.1391862630844116,-112.19091033935547,3.652500867843628,-0.9689170122146606,-1.5211900472640991,0.00024977110406934535,-8.48507504674769,-14.857988708135096
2026-06-27T13:22:58.290567,1782577343.2438626,4.6927571296691895,-1.2456905841827393,-112.35197448730469,3.7793896198272705,-1.0025743246078491,-1.463630199432373,0.0027993310264328793,-7.437664849780016,-14.878565053078121
2026-06-27T13:22:58.398186,1782577343.3488648,5.095373153686523,-1.352494239807129,-112.50312042236328,3.886843681335449,-1.0310757160186768,-1.4170441627502441,0.003359122047643356,-6.543145738103054,-14.887263538146058
2026-06-27T13:22:58.505970,1782577343.450867,5.496582984924316,-1.458924412727356,-112.6456527709961,3.977780342102051,-1.055195689201355,-1.3786590099334717,0.002805934951340755,-5.784310003060012,-14.886515500006997
2026-06-27T13:22:58.613982,1782577343.555869,5.9186320304870605,-1.5708820819854736,-112.78856658935547,4.059138774871826,-1.076776385307312,-1.3445631265640259,0.001772376886385513,-5.106284242131214,-14.879522664669272
2026-06-27T13:22:58.723680,1782577343.6638715,6.361030101776123,-1.6882383823394775,-112.93208312988281,4.131474018096924,-1.09596586227417,-1.3139324188232422,0.0007100099035170826,-4.5061111438920145,-14.86952931558763
2026-06-27T13:22:58.833242,1782577343.7688737,6.79810905456543,-1.8041834831237793,-113.06863403320312,4.1922078132629395,-1.1120800971984863,-1.2873563766479492,-6.874016217546599e-05,-4.005566157252977,-14.86018727750718
2026-06-27T13:22:58.942347,1782577343.8738759,7.241124629974365,-1.9217044115066528,-113.2025146484375,4.244766712188721,-1.1260277032852173,-1.2631587982177734,-0.0005264361841779199,-3.5761444658489285,-14.85321649029703
2026-06-27T13:22:59.051044,1782577343.9788783,7.689281463623047,-2.0405893325805664,-113.33393859863281,4.290271282196045,-1.1381059885025024,-1.2407546043395996,-0.0006967590379425614,-3.208291355212238,-14.849410612848596
2026-06-27T13:22:59.159741,1782577344.0838804,8.141888618469238,-2.1606552600860596,-113.4631118774414,4.329709529876709,-1.148574709892273,-1.219705581665039,-0.0006663988256890061,-2.893490449462547,-14.848606024222965
2026-06-27T13:22:59.268527,1782577344.1918828,8.611448287963867,-2.285219430923462,-113.59371948242188,4.36484956741333,-1.157902717590332,-1.1992069482803345,-0.000528335355359736,-2.6171588151572744,-14.850099923425654
2026-06-27T13:22:59.377145,1782577344.296885,9.071357727050781,-2.407224655151367,-113.71862030029297,4.3944854736328125,-1.1657688617706299,-1.1798818111419678,-0.00036397953271755573,-2.3881119866426794,-14.852750630514034
2026-06-27T13:22:59.486922,1782577344.4048872,9.547435760498047,-2.5335192680358887,-113.84501647949219,4.420998573303223,-1.1728060245513916,-1.160742163658142,-0.00021701792547033214,-2.1870857511817636,-14.855689280273339
2026-06-27T13:22:59.597381,1782577344.5158896,10.039523124694824,-2.6640608310699463,-113.97278594970703,4.444668292999268,-1.17908775806427,-1.1416053771972656,-0.00011087675252484878,-2.011810865382536,-14.858143140085652
2026-06-27T13:22:59.703959,1782577344.6088917,10.453713417053223,-2.773937940597534,-114.0782241821289,4.462101936340332,-1.1837143898010254,-1.125933289527893,-6.267929221905669e-05,-1.8857233586816742,-14.859454489776638
2026-06-27T13:22:59.814724,1782577344.7108939,10.909740447998047,-2.894914150238037,-114.19219970703125,4.479061126708984,-1.188214659690857,-1.1089997291564941,-4.254454898904509e-05,-1.7661644618167804,-14.860071041982579
2026-06-27T13:22:59.923071,1782577344.815896,11.380876541137695,-3.0198986530303955,-114.3077392578125,4.494476795196533,-1.1923056840896606,-1.0918097496032715,-4.587055995360301e-05,-1.6606609994868244,-14.859944163284329
2026-06-27T13:23:00.031341,1782577344.9238985,11.86706256866455,-3.1488754749298096,-114.4247055053711,4.508481025695801,-1.1960231065750122,-1.0743474960327148,-6.676344828140039e-05,-1.568011469469516,-14.859306520537057
2026-06-27T13:23:00.139520,1782577345.0259006,12.327548027038574,-3.2710342407226562,-114.53345489501953,4.520230293273926,-1.1991417407989502,-1.0580739974975586,-9.087791381967662e-05,-1.4931121821903717,-14.858523894644255
2026-06-27T13:23:00.249791,1782577345.1339028,12.816349029541016,-3.400707960128784,-114.64680480957031,4.531327724456787,-1.2020877599716187,-1.040992021560669,-0.00011357017079502276,-1.4251429268503846,-14.857757103540493
2026-06-27T13:23:00.357310,1782577345.232905,13.265419960021973,-3.519838809967041,-114.74909210205078,4.5404558181762695,-1.2045116424560547,-1.0255417823791504,-0.00012401009941201326,-1.3715384967485957,-14.85724933422263
2026-06-27T13:23:00.466479,1782577345.3409073,13.756291389465332,-3.6500601768493652,-114.85893249511719,4.549430847167969,-1.2068949937820435,-1.0087502002716064,-0.00012127707476635612,-1.3213314497699205,-14.856958836163937
2026-06-27T13:23:00.575138,1782577345.4459095,14.23441219329834,-3.7768988609313965,-114.96400451660156,4.557311534881592,-1.2089875936508179,-0.9926445484161377,-0.00011934242127633436,-1.2793285873140414,-14.856925333468006
2026-06-27T13:23:00.683883,1782577345.5509117,14.713321685791016,-3.903946876525879,-115.0673828125,4.564469337463379,-1.2108882665634155,-0.9766101837158203,-0.00011666154439232847,-1.2432798589279703,-14.857070096550578
2026-06-27T13:23:00.792953,1782577345.655914,15.192948341369629,-4.031185150146484,-115.1690902709961,4.571004867553711,-1.212624192237854,-0.9607402682304382,-0.0001112073575466843,-1.2121263682239127,-14.85732754206215
2026-06-27T13:23:00.902728,1782577345.7609162,15.673233032226562,-4.158597946166992,-115.2691421508789,4.577000617980957,-1.214216947555542,-0.9450008869171143,-0.00010114286889358787,-1.1851961142048957,-14.857589757957637
2026-06-27T13:23:01.012428,1782577345.8659184,16.154125213623047,-4.286170959472656,-115.36754608154297,4.582528114318848,-1.2156850099563599,-0.9294266104698181,-9.04662965667593e-05,-1.1618537527575383,-14.857786039860892
2026-06-27T13:23:01.119686,1782577345.9709208,16.63557243347168,-4.4138922691345215,-115.46431732177734,4.587643146514893,-1.217043399810791,-0.9139133095741272,-8.793503050685163e-05,-1.1415703378274453,-14.857911699430149
2026-06-27T13:23:01.228915,1782577346.072923,17.103759765625,-4.5380964279174805,-115.55677795410156,4.592268466949463,-1.2182722091674805,-0.8989884257316589,-8.684924419414256e-05,-1.1243736055796212,-14.85795864996635
2026-06-27T13:23:01.338158,1782577346.177925,17.586196899414062,-4.666080951690674,-115.6503677368164,4.596719741821289,-1.2194548845291138,-0.8837715983390808,-8.714274544732981e-05,-1.1088597509107372,-14.857946526894683
2026-06-27T13:23:01.448931,1782577346.2829273,18.069082260131836,-4.794184684753418,-115.74236297607422,4.600893497467041,-1.220563530921936,-0.868702232837677,-8.781070620191924e-05,-1.0951863208211103,-14.857915030803474
2026-06-27T13:23:01.559177,1782577346.3819294,18.524765014648438,-4.915071964263916,-115.82765197753906,4.6046013832092285,-1.2215486764907837,-0.8545455932617188,-8.869073372092593e-05,-1.0838870794696662,-14.857888890765201
2026-06-27T13:23:01.664782,1782577346.4809315,18.980810165405273,-5.036054611206055,-115.91156005859375,4.608116626739502,-1.2224828004837036,-0.8406872153282166,-8.902844661340804e-05,-1.073741354832816,-14.857889456015362
2026-06-27T13:23:01.773650,1782577346.5829337,19.45102310180664,-5.160798072814941,-115.99655151367188,4.611551284790039,-1.223395586013794,-0.8263462781906128,-8.920314358279872e-05,-1.0644452696461368,-14.857898464162375
2026-06-27T13:23:01.882863,1782577346.690936,19.94927215576172,-5.292977333068848,-116.08499145507812,4.615004062652588,-1.2243131399154663,-0.8112652897834778,-8.962010561476639e-05,-1.0557052923693866,-14.857908976454913
2026-06-27T13:23:01.992035,1782577346.7959383,20.434024810791016,-5.4215779304504395,-116.16942596435547,4.618203163146973,-1.2251633405685425,-0.7969408631324768,-8.968039706483427e-05,-1.0479702147968868,-14.857914207092868
2026-06-27T13:23:02.100263,1782577346.9009407,20.91910743713379,-5.550265789031982,-116.25235748291016,4.621255874633789,-1.225974440574646,-0.7826852202415466,-8.9685767174139e-05,-1.0410105246292873,-14.857923980666657
2026-06-27T13:23:02.209390,1782577347.0059428,21.404502868652344,-5.679037094116211,-116.33380126953125,4.624173164367676,-1.226750373840332,-0.7685660123825073,-8.982327581162576e-05,-1.0346925773130893,-14.85793013930463
2026-06-27T13:23:02.318011,1782577347.113945,21.904081344604492,-5.811570644378662,-116.4160385131836,4.627048492431641,-1.227514624595642,-0.7541802525520325,-8.99136845325965e-05,-1.0287692754573745,-14.85793469221936
2026-06-27T13:23:02.427226,1782577347.2189474,22.390073776245117,-5.940499782562256,-116.49449920654297,4.629732131958008,-1.2282280921936035,-0.7404476404190063,-8.994380595973844e-05,-1.0234563866340758,-14.857940721300208
2026-06-27T13:23:02.535957,1782577347.3269496,22.8763427734375,-6.069503307342529,-116.57152557373047,4.6323089599609375,-1.2289133071899414,-0.726690948009491,-8.998541087044811e-05,-1.0185906312351318,-14.857947832051575
2026-06-27T13:23:02.643848,1782577347.4289517,23.362876892089844,-6.198576927185059,-116.64712524414062,4.634790897369385,-1.2295732498168945,-0.7131754159927368,-8.978212783175214e-05,-1.0140432215370208,-14.857950512924212
2026-06-27T13:23:02.753931,1782577347.5369542,23.86357879638672,-6.331408977508545,-116.72340393066406,4.6372480392456055,-1.2302266359329224,-0.6993639469146729,-8.948700558525373e-05,-1.009701561547415,-14.85795630906643
2026-06-27T13:23:02.862611,1782577347.6419563,24.350618362426758,-6.460617542266846,-116.79615020751953,4.639552116394043,-1.2308396100997925,-0.6862089037895203,-8.14626110444948e-05,-1.005720173278801,-14.857960422069752
2026-06-27T13:23:02.971375,1782577347.7469585,24.837902069091797,-6.5898895263671875,-116.86752319335938,4.641777038574219,-1.231431007385254,-0.6731853485107422,-6.528135528926552e-05,-1.001941392927428,-14.857999239660506
2026-06-27T13:23:03.081568,1782577347.854961,25.33934211730957,-6.722918510437012,-116.93951416015625,4.643985271453857,-1.2320181131362915,-0.6599459648132324,-6.674930175743681e-05,-0.9982627116804692,-14.858042553972805
2026-06-27T13:23:03.189398,1782577347.956963,25.81314468383789,-6.848614692687988,-117.00619506835938,4.645999908447266,-1.2325538396835327,-0.6475746631622314,-6.708708503263278e-05,-0.9949653174615106,-14.858045613187047
2026-06-27T13:23:03.298088,1782577348.0649655,26.31503677368164,-6.9817633628845215,-117.07543182373047,4.648062705993652,-1.2331022024154663,-0.6346678733825684,-6.750885722124729e-05,-0.9916109495699241,-14.858051173153966
2026-06-27T13:23:03.407299,1782577348.1699677,26.80319595336914,-7.111268997192383,-117.14142608642578,4.650001049041748,-1.2336175441741943,-0.6222702264785767,-6.500881624274024e-05,-0.9884891752081159,-14.85805469430496
2026-06-27T13:23:03.517504,1782577348.2749698,27.291555404663086,-7.240828037261963,-117.20612335205078,4.651875019073486,-1.2341159582138062,-0.6100382208824158,-6.518775389876473e-05,-0.9854925495016885,-14.858055886468007
2026-06-27T13:23:03.625055,1782577348.379972,27.780107498168945,-7.370438575744629,-117.26954650878906,4.653688430786133,-1.2345980405807495,-0.5979684591293335,-6.5063072706794e-05,-0.9826068127807495,-14.85805994861595
2026-06-27T13:23:03.733240,1782577348.4849744,28.268844604492188,-7.50009822845459,-117.33171844482422,4.655441761016846,-1.2350646257400513,-0.5860633850097656,-6.49291262664445e-05,-0.9798126749529943,-14.858064230249642
2026-06-27T13:23:03.842943,1782577348.5869765,28.74379539489746,-7.626100540161133,-117.39090728759766,4.657090187072754,-1.2355031967163086,-0.5746496915817261,-6.440077583038006e-05,-0.9771818562791977,-14.858109179857644
2026-06-27T13:23:03.951498,1782577348.6949787,29.246864318847656,-7.7595624923706055,-117.45233917236328,4.658777713775635,-1.2359522581100464,-0.5626798272132874,-6.401237871705173e-05,-0.9744932410107068,-14.85812162340833
2026-06-27T13:23:04.060453,1782577348.796981,29.722148895263672,-7.885653495788574,-117.5091781616211,4.660322666168213,-1.236363172531128,-0.551641047000885,-6.398264716381247e-05,-0.9720253064105028,-14.858124060567981
2026-06-27T13:23:04.170998,1782577348.9019833,30.211572647094727,-8.015498161315918,-117.56651306152344,4.661859512329102,-1.2367722988128662,-0.5404133796691895,-6.35765034025136e-05,-0.9695210500458243,-14.858126435755045
2026-06-27T13:23:04.279873,1782577349.0069854,30.70115852355957,-8.145384788513184,-117.62266540527344,4.663347244262695,-1.2371681928634644,-0.5293998718261719,-6.326393135045011e-05,-0.9670939822775485,-14.858128991166566
2026-06-27T13:23:04.387578,1782577349.1089876,31.17690086364746,-8.271597862243652,-117.67611694335938,4.664743900299072,-1.2375396490097046,-0.5187410712242126,-6.296088846792096e-05,-0.9648253948399432,-14.858149400628053
2026-06-27T13:23:04.497263,1782577349.2109897,31.65278434753418,-8.397848129272461,-117.72850036621094,4.666097164154053,-1.2378997802734375,-0.5083785057067871,-6.271112517103611e-05,-0.9625873945120773,-14.858149784579856
2026-06-27T13:23:04.607529,1782577349.312992,32.128807067871094,-8.524133682250977,-117.77982330322266,4.667405605316162,-1.2382478713989258,-0.49803656339645386,-6.222436019580057e-05,-0.9604193723369409,-14.858171330751508
2026-06-27T13:23:04.713352,1782577349.408994,32.576942443847656,-8.643023490905762,-117.8271713256836,4.668598175048828,-1.2385653257369995,-0.48847588896751404,-6.198464378377448e-05,-0.958423356492482,-14.85817925501841
2026-06-27T13:23:04.821217,1782577349.5109963,33.0532112121582,-8.769376754760742,-117.8764877319336,4.669825077056885,-1.2388919591903687,-0.478487491607666,-6.155480148889783e-05,-0.956347925314807,-14.85818262382342
2026-06-27T13:23:04.930642,1782577349.6159985,33.54361343383789,-8.899479866027832,-117.92620086669922,4.671045780181885,-1.239216685295105,-0.46837303042411804,-6.117242976636528e-05,-0.9542630101483848,-14.858202626864173
2026-06-27T13:23:05.039131,1782577349.7150006,34.0061149597168,-9.022180557250977,-117.97211456298828,4.672158718109131,-1.2395131587982178,-0.4590073227882385,-5.947701923765939e-05,-0.9523475187748093,-14.858203762692234
2026-06-27T13:23:05.147855,1782577349.8230028,34.51078796386719,-9.156067848205566,-118.0211410522461,4.673332214355469,-1.2398254871368408,-0.4489285945892334,-5.370431267773444e-05,-0.9503053162062247,-14.858216024042274
2026-06-27T13:23:05.258104,1782577349.9280052,35.00156021118164,-9.28626823425293,-118.06776428222656,4.674432754516602,-1.2401185035705566,-0.43934082984924316,-4.4619489422737046e-05,-0.9483774343841012,-14.858233856763555
2026-06-27T13:23:05.364973,1782577350.0330074,35.49244689941406,-9.416499137878418,-118.11339569091797,4.67549467086792,-1.240401029586792,-0.42984098196029663,-3.85311765603092e-05,-0.9464953359425008,-14.858237727979208
2026-06-27T13:23:05.473688,1782577350.1380095,35.983436584472656,-9.546758651733398,-118.15805053710938,4.676519393920898,-1.2406736612319946,-0.42054522037506104,-4.067352727535727e-05,-0.9446500953549722,-14.858239013444402
2026-06-27T13:23:05.583932,1782577350.243012,36.47452163696289,-9.677044868469238,-118.20172119140625,4.6775078773498535,-1.2409367561340332,-0.4114079475402832,-4.37909097054498e-05,-0.9428580249434766,-14.858255306091436
2026-06-27T13:23:05.691650,1782577350.3390138,36.92361831665039,-9.796185493469238,-118.24082946777344,4.678380966186523,-1.2411690950393677,-0.40322455763816833,-4.11769273510582e-05,-0.9412629572112777,-14.858257172581299
2026-06-27T13:23:05.800379,1782577350.435016,37.372802734375,-9.91535472869873,-118.2791519165039,4.679225921630859,-1.241393804550171,-0.395158588886261,-3.8537517361929685e-05,-0.9396926427808322,-14.858259096943549
2026-06-27T13:23:05.913014,1782577350.537018,37.850128173828125,-10.0419921875,-118.31901550292969,4.680091857910156,-1.241624355316162,-0.386721670627594,-4.2385628627793905e-05,-0.9380794852429257,-14.85826613337823
2026-06-27T13:23:06.018399,1782577350.6300201,38.28542709350586,-10.157470703125,-118.35462188720703,4.680853843688965,-1.241827368736267,-0.3790918290615082,-4.119335006796294e-05,-0.9366677891524274,-14.858288534445283
2026-06-27T13:23:06.129138,1782577350.7350223,38.7769775390625,-10.287880897521973,-118.39398956298828,4.681685924530029,-1.242048978805542,-0.3706607520580292,-3.893970656499834e-05,-0.9350947273986749,-14.858290465949535
2026-06-27T13:23:06.235551,1782577350.8400245,39.268585205078125,-10.41831111907959,-118.43247985839844,4.682487964630127,-1.2422624826431274,-0.36247044801712036,-4.055040730312831e-05,-0.9335543529774859,-14.858292439722767
2026-06-27T13:23:06.345790,1782577350.9360266,39.718170166015625,-10.53757381439209,-118.4669189453125,4.683195114135742,-1.2424508333206177,-0.35506269335746765,-3.91979165972991e-05,-0.9321718670410685,-14.85829216869819
2026-06-27T13:23:06.453562,1782577351.0380287,40.195892333984375,-10.664322853088379,-118.50273895263672,4.683919906616211,-1.2426437139511108,-0.3472919166088104,-3.9213869314471664e-05,-0.9307772286990758,-14.858341715977573
2026-06-27T13:23:06.562837,1782577351.1400309,40.6737060546875,-10.791082382202148,-118.53778076171875,4.684618949890137,-1.24282968044281,-0.33976539969444275,-4.1742037377682886e-05,-0.9293895446003803,-14.858341411205542
2026-06-27T13:23:06.673044,1782577351.2420332,41.151580810546875,-10.917863845825195,-118.57205200195312,4.685291290283203,-1.2430088520050049,-0.3322950601577759,-3.767053697970055e-05,-0.9280543375125677,-14.858343876747764
2026-06-27T13:23:06.780070,1782577351.3440354,41.62952423095703,-11.044663429260254,-118.60557556152344,4.685939311981201,-1.2431814670562744,-0.32501211762428284,-4.312224133081823e-05,-0.9267493766040467,-14.858343728351352
2026-06-27T13:23:06.890800,1782577351.4400375,42.079410552978516,-11.164017677307129,-118.63645935058594,4.686527252197266,-1.2433377504348755,-0.3182471692562103,-3.902223991591209e-05,-0.9255517246515078,-14.858346486773147
2026-06-27T13:23:07.001626,1782577351.5390394,42.54342269897461,-11.28711986541748,-118.66764068603516,4.6871113777160645,-1.2434933185577393,-0.3114306628704071,-4.287242221300709e-05,-0.9243589270826242,-14.858346590696126
2026-06-27T13:23:07.108074,1782577351.6320415,42.979339599609375,-11.4027738571167,-118.69629669189453,4.6876397132873535,-1.2436341047286987,-0.3051028251647949,-3.893068643051333e-05,-0.9232747944662179,-14.858346985121926
2026-06-27T13:23:07.217663,1782577351.7400439,43.48567199707031,-11.537096977233887,-118.72886657714844,4.688230991363525,-1.2437918186187744,-0.2979221045970917,-4.454074406877083e-05,-0.9220510696523486,-14.858349620763706
2026-06-27T13:23:07.325838,1782577351.842046,43.96387481689453,-11.663975715637207,-118.75891876220703,4.6887664794921875,-1.2439345121383667,-0.29125040769577026,-3.788223495165028e-05,-0.9209418624498603,-14.858367489752812
2026-06-27T13:23:07.433634,1782577351.9410481,44.428131103515625,-11.787129402160645,-118.78742980957031,4.689268589019775,-1.2440680265426636,-0.2849443554878235,-3.941403119768077e-05,-0.9198815857231623,-14.858367897463262
2026-06-27T13:23:07.545099,1782577352.0520504,44.94866943359375,-11.925238609313965,-118.81867218017578,4.689808368682861,-1.244212031364441,-0.27798229455947876,-3.922511839336736e-05,-0.9187389588805533,-14.858368152225378
2026-06-27T13:23:07.652315,1782577352.1540525,45.42706298828125,-12.052149772644043,-118.8467025756836,4.6902852058410645,-1.2443389892578125,-0.2717253565788269,-3.836565520953864e-05,-0.9177176576988181,-14.85836866438339
2026-06-27T13:23:07.762395,1782577352.2500546,45.87738037109375,-12.17162036895752,-118.87252044677734,4.69071626663208,-1.244454264640808,-0.265970379114151,-3.5926771679971044e-05,-0.9167910306197941,-14.858395633977885
2026-06-27T13:23:07.870612,1782577352.355057,46.36991500854492,-12.302297592163086,-118.90010833740234,4.691169261932373,-1.244575023651123,-0.25972461700439453,-3.737548698971762e-05,-0.9158091020827663,-14.858421607411955
2026-06-27T13:23:07.978341,1782577352.4540591,46.83437728881836,-12.425509452819824,-118.925537109375,4.6915788650512695,-1.2446843385696411,-0.2539740800857544,-3.692091797243801e-05,-0.9149235824281821,-14.85842240093203
2026-06-27T13:23:08.088299,1782577352.5560613,47.31296920776367,-12.552485466003418,-118.95116424560547,4.691986083984375,-1.244793176651001,-0.2482415735721588,-3.66940250051708e-05,-0.9140201174502088,-14.858423157683218
2026-06-27T13:23:08.196056,1782577352.6580634,47.791561126708984,-12.679461479187012,-118.9761962890625,4.69237756729126,-1.2448973655700684,-0.24258951842784882,-3.6731826132622914e-05,-0.9131490853669995,-14.858423980412379
2026-06-27T13:23:08.303714,1782577352.7660656,48.298362731933594,-12.813909530639648,-119.00206756591797,4.692775249481201,-1.245003581047058,-0.23671762645244598,-3.675396198864041e-05,-0.9122623930979821,-14.858427376532905
2026-06-27T13:23:08.417453,1782577352.871068,48.79116439819336,-12.944653511047363,-119.02662658691406,4.693145751953125,-1.2451026439666748,-0.23113584518432617,-3.6503375033299174e-05,-0.9114268944099936,-14.858425673910936
2026-06-27T13:23:08.525210,1782577352.9760702,49.283966064453125,-13.075397491455078,-119.05061340332031,4.693499565124512,-1.2451975345611572,-0.22567208111286163,-3.638092762802938e-05,-0.9106209611374899,-14.858426635601425
2026-06-27T13:23:08.632406,1782577353.0780723,49.76268768310547,-13.20240592956543,-119.07337188720703,4.693829536437988,-1.2452861070632935,-0.22045786678791046,-3.312490700668903e-05,-0.9098616559919588,-14.858427718547844
2026-06-27T13:23:08.743130,1782577353.1800745,50.24151611328125,-13.329436302185059,-119.09559631347656,4.69414758682251,-1.2453707456588745,-0.2153850495815277,-2.678071488952611e-05,-0.9091329472061589,-14.858428889481047
2026-06-27T13:23:08.848556,1782577353.2820766,50.720367431640625,-13.456477165222168,-119.1173095703125,4.694452285766602,-1.2454521656036377,-0.21042071282863617,-2.7132073002991554e-05,-0.9084272844266131,-14.858430055287723
2026-06-27T13:23:08.958789,1782577353.3810787,51.18513488769531,-13.579781532287598,-119.13790130615234,4.694736003875732,-1.245527744293213,-0.20570234954357147,-2.5971243172964613e-05,-0.9077641977207651,-14.858452319291503
