time,sim_t,x,y,z,vx,vy,vz,roll_deg,pitch_deg,yaw_deg
2026-06-27T13:59:18.627723,1782579459.9600182,0.0,0.0,2.0396859645843506,0.0,0.0,0.0,0.0,0.0,0.0003895640909249624
2026-06-27T13:59:18.733907,1782579460.0650203,0.0,0.0,2.0396859645843506,0.0,0.0,0.0,0.0,0.0,0.0003895640909249624
2026-06-27T13:59:18.843662,1782579460.1700227,0.0,0.0,2.0396859645843506,0.0,0.0,0.0,0.0,0.0,0.0003895640909249624
2026-06-27T13:59:18.951871,1782579460.278025,0.0,0.0,2.0396859645843506,0.0,0.0,0.0,0.0,0.0,0.0003895640909249624
2026-06-27T13:59:19.061097,1782579460.3830273,0.0,0.0,2.0396859645843506,0.0,0.0,0.0,0.0,0.0,0.0003895640909249624
2026-06-27T13:59:19.169933,1782579460.4910295,0.0,0.0,2.0396859645843506,0.0,0.0,0.0,0.0,0.0,0.0003895640909249624
2026-06-27T13:59:19.278655,1782579460.5960317,0.0,0.0,2.0396859645843506,0.0,0.0,0.0,0.0,0.0,0.0003895640909249624
2026-06-27T13:59:19.388926,1782579460.704034,0.0,0.0,2.0396859645843506,0.0,0.0,0.0,0.0,0.0,0.0003895640909249624
2026-06-27T13:59:19.496602,1782579460.8120363,0.0,0.0,2.0396859645843506,0.0,0.0,0.0,0.0,0.0,0.0003895640909249624
2026-06-27T13:59:19.605746,1782579460.9200387,0.0,0.0,2.0396859645843506,0.0,0.0,0.0,0.0,0.0,0.0003895640909249624
2026-06-27T13:59:19.714449,1782579461.0250409,0.0,0.0,2.0396859645843506,0.0,0.0,0.0,0.0,0.0,0.0003895640909249624
2026-06-27T13:59:19.823140,1782579461.1330433,0.0,0.0,2.0396859645843506,0.0,0.0,0.0,0.0,0.0,0.0003895640909249624
2026-06-27T13:59:19.932837,1782579461.2410455,0.0,0.0,2.0396859645843506,0.0,0.0,0.0,0.0,0.0,0.0003895640909249624
2026-06-27T13:59:20.040617,1782579461.349048,0.0,0.0,2.0396859645843506,0.0,0.0,0.0,0.0,0.0,0.0003895640909249624
2026-06-27T13:59:20.150278,1782579461.45705,0.0,0.0,2.033644676208496,0.0,0.0,-0.2483326643705368,0.0,0.0,0.0003895640909249624
2026-06-27T13:59:20.258837,1782579461.5650525,0.0,0.0,1.9944629669189453,0.0,0.0,-0.4203040599822998,0.0,0.0,0.0003895640909249624
2026-06-27T13:59:20.368578,1782579461.6700547,0.0,0.0,1.948769450187683,0.0,0.0,-0.444001168012619,0.0,0.0,0.0003895640909249624
2026-06-27T13:59:20.477844,1782579461.7780569,0.0,0.0,1.9003596305847168,0.0,0.0,-0.4516517221927643,0.0,0.0,0.0003895640909249624
2026-06-27T13:59:20.584425,1782579461.8830593,0.0,0.0,1.8526588678359985,0.0,0.0,-0.4567452669143677,0.0,0.0,0.0003895640909249624
2026-06-27T13:59:20.694646,1782579461.9910614,0.0,0.0,1.803081750869751,0.0,0.0,-0.46123751997947693,0.0,0.0,0.0003895640909249624
2026-06-27T13:59:20.803397,1782579462.0960639,0.0,0.0,1.7544437646865845,0.0,0.0,-0.46510595083236694,0.0,0.0,0.0003895640909249624
2026-06-27T13:59:20.911758,1782579462.204066,0.0,0.0,1.7040162086486816,0.0,0.0,-0.46864551305770874,0.0,0.0,0.0003895640909249624
2026-06-27T13:59:21.021891,1782579462.3120685,0.0,0.0,1.6532281637191772,0.0,0.0,-0.4717903733253479,0.0,0.0,0.0003895640909249624
2026-06-27T13:59:21.129084,1782579462.4200706,0.0,0.0,1.6021195650100708,0.0,0.0,-0.4745848476886749,0.0,0.0,0.0003895640909249624
2026-06-27T13:59:21.238289,1782579462.528073,0.0,0.0,1.5507266521453857,0.0,0.0,-0.47706809639930725,0.0,0.0,0.0003895640909249624
2026-06-27T13:59:21.346422,1782579462.6330752,0.0,0.0,1.5005183219909668,0.0,0.0,-0.47921690344810486,0.0,0.0,0.0003895640909249624
2026-06-27T13:59:21.455660,1782579462.7410774,0.0,0.0,1.4486535787582397,0.0,0.0,-0.4811844229698181,0.0,0.0,0.0003895640909249624
2026-06-27T13:59:21.564694,1782579462.8520799,0.0,0.0,1.3951393365859985,0.0,0.0,-0.48297837376594543,0.0,0.0,0.0003895640909249624
2026-06-27T13:59:21.673876,1782579462.957082,0.0,0.0,1.3443448543548584,0.0,0.0,-0.48448625206947327,0.0,0.0,0.0003895640909249624
2026-06-27T13:59:21.782121,1782579463.0650845,0.0,0.0,1.2919437885284424,0.0,0.0,-0.4858667850494385,0.0,0.0,0.0003895640909249624
2026-06-27T13:59:21.890864,1782579463.1730866,0.0,0.0,1.2394013404846191,0.0,0.0,-0.48709365725517273,0.0,0.0,0.0003895640909249624
2026-06-27T13:59:21.999322,1782579463.281089,0.0,0.0,1.1867340803146362,0.0,0.0,-0.4881839156150818,0.0,0.0,0.0003895640909249624
2026-06-27T13:59:22.108512,1782579463.3890913,0.0,0.0,1.133955717086792,0.0,0.0,-0.48915284872055054,0.0,0.0,0.0003895640909249624
2026-06-27T13:59:22.217746,1782579463.4970937,0.0,0.0,1.0810786485671997,0.0,0.0,-0.49001383781433105,0.0,0.0,0.0003895640909249624
2026-06-27T13:59:22.328277,1782579463.6020958,0.0,0.0,1.0295861959457397,0.0,0.0,-0.49075889587402344,0.0,0.0,0.0003895640909249624
2026-06-27T13:59:22.435501,1782579463.7100983,0.0,0.0,0.9765457510948181,0.0,0.0,-0.49144113063812256,0.0,0.0,0.0003895640909249624
2026-06-27T13:59:22.544566,1782579463.8181005,0.0,0.0,0.9234355688095093,0.0,0.0,-0.4920472800731659,0.0,0.0,0.0003895640909249624
2026-06-27T13:59:22.652855,1782579463.9231026,0.0,0.0,0.8717414736747742,0.0,0.0,-0.49257197976112366,0.0,0.0,0.0003895640909249624
2026-06-27T13:59:22.761354,1782579464.028105,0.0,0.0,0.8199951648712158,0.0,0.0,-0.49303972721099854,0.0,0.0,0.0003895640909249624
2026-06-27T13:59:22.869556,1782579464.1331072,0.0,0.0,0.7682026028633118,0.0,0.0,-0.49345675110816956,0.0,0.0,0.0003895640909249624
2026-06-27T13:59:22.979853,1782579464.2411096,0.0,0.0,0.714887261390686,0.0,0.0,-0.4938385784626007,0.0,0.0,0.0003895640909249624
2026-06-27T13:59:23.090610,1782579464.3431118,0.0,0.0,0.6644981503486633,0.0,0.0,-0.49415987730026245,0.0,0.0,0.0003895640909249624
2026-06-27T13:59:23.197356,1782579464.448114,0.0,0.0,0.612594485282898,0.0,0.0,-0.4944556653499603,0.0,0.0,0.0003895640909249624
2026-06-27T13:59:23.308245,1782579464.5561163,0.0,0.0,0.5591772794723511,0.0,0.0,-0.4947262108325958,0.0,0.0,0.0003895640909249624
2026-06-27T13:59:23.413322,1782579464.6581185,0.0,0.0,0.5126298666000366,0.0,0.0,-0.30066877603530884,0.0,0.0,0.0003895640909249624
2026-06-27T13:59:23.522767,1782579464.7631207,0.0,0.0,0.5011621713638306,0.0,0.0,-0.002536795334890485,0.0,0.0,0.0003895640909249624
2026-06-27T13:59:23.632311,1782579464.8711228,0.0,0.0,0.49063950777053833,0.0,0.0,-0.385166734457016,0.0,0.0,0.00037287725025954364
2026-06-27T13:59:23.740569,1782579464.9761252,0.0,0.0,0.41348451375961304,0.0,0.0,-1.0820636749267578,0.0,0.0,0.00028479445391421963
2026-06-27T13:59:23.850300,1782579465.0811274,0.0,0.0,0.26412084698677063,0.0,0.0,-1.7584346532821655,0.0,0.0,0.00016140133775884434
2026-06-27T13:59:23.958342,1782579465.1861296,0.0,0.0,0.04533463343977928,0.0,0.0,-2.402589797973633,0.0,0.0,4.146959005384107e-05
2026-06-27T13:59:24.068074,1782579465.288132,0.0,0.0,-0.22998370230197906,0.0,0.0,-2.9885363578796387,0.0,0.0,-4.740021698929891e-05
2026-06-27T13:59:24.176763,1782579465.3961341,0.0,0.0,-0.5840559005737305,0.0,0.0,-3.5592453479766846,0.0,0.0,-0.00010026486019599508
2026-06-27T13:59:24.286504,1782579465.5011363,0.0,0.0,-0.9845979809761047,0.0,0.0,-4.061033725738525,0.0,0.0,-0.0001122601219803215
2026-06-27T13:59:24.394303,1782579465.6061387,0.0,0.0,-1.4350085258483887,0.0,0.0,-4.509056568145752,0.0,0.0,-9.549462011318571e-05
2026-06-27T13:59:24.502964,1782579465.714141,0.0,0.0,-1.9443923234939575,0.0,0.0,-4.91459321975708,0.0,0.0,-6.152500475903342e-05
2026-06-27T13:59:24.611839,1782579465.819143,0.0,0.0,-2.4763660430908203,0.0,0.0,-5.156827449798584,0.0,0.0,-2.5294579892893377e-05
2026-06-27T13:59:24.720565,1782579465.9241455,0.0,0.0,-3.019120216369629,0.0,0.0,-5.169467449188232,0.0,0.0,4.944793809053114e-06
2026-06-27T13:59:24.830702,1782579466.0231476,0.0,0.0,-3.530236005783081,0.0,0.0,-5.155113697052002,0.0,0.0,2.334200226061906e-05
2026-06-27T13:59:24.938940,1782579466.1281497,0.0,0.0,-4.070669174194336,0.0,0.0,-5.138803482055664,0.0,0.0,3.15115182234428e-05
2026-06-27T13:59:25.047279,1782579466.230152,0.0,0.0,-4.594084739685059,0.0,0.0,-5.124273300170898,0.0,0.0,3.009428341293242e-05
2026-06-27T13:59:25.156071,1782579466.3381543,0.0,0.0,-5.146755218505859,0.0,0.0,-5.110407829284668,0.0,0.0,2.2100774562626733e-05
2026-06-27T13:59:25.264274,1782579466.4311562,0.0,0.0,-5.621523380279541,0.0,0.0,-5.099618911743164,0.0,0.0,1.3015335388409861e-05
2026-06-27T13:59:25.374576,1782579466.5301583,0.0,0.0,-6.125870704650879,0.0,0.0,-5.089193344116211,0.0,0.0,3.7439645497362043e-06
2026-06-27T13:59:25.482767,1782579466.6351607,0.0,0.0,-6.659714698791504,0.0,0.0,-5.07921838760376,0.0,0.0,-3.8502388405295034e-06
2026-06-27T13:59:25.591009,1782579466.7401628,0.0,0.0,-7.192564964294434,0.0,0.0,-5.07024621963501,0.0,0.0,-8.849175562702882e-06
2026-06-27T13:59:25.699960,1782579466.848165,0.0,0.0,-7.739708423614502,0.0,0.0,-5.061959743499756,0.0,0.0,-1.2152378946459676e-05
2026-06-27T13:59:25.808696,1782579466.9561675,0.0,0.0,-8.286004066467285,0.0,0.0,-5.054530143737793,0.0,0.0,-1.4069287141425563e-05
2026-06-27T13:59:25.917419,1782579467.0641696,0.0,0.0,-8.831539154052734,0.0,0.0,-5.0478692054748535,0.0,0.0,-1.1728825548195545e-05
2026-06-27T13:59:26.026694,1782579467.172172,0.0,0.0,-9.376395225524902,0.0,0.0,-5.041896343231201,0.0,0.0,-9.67573953821013e-06
2026-06-27T13:59:26.135413,1782579467.2771742,0.0,0.0,-9.90552806854248,0.0,0.0,-5.036684036254883,0.0,0.0,-8.338137267592794e-06
2026-06-27T13:59:26.244488,1782579467.3821764,0.0,0.0,-10.434141159057617,0.0,0.0,-5.031996726989746,0.0,0.0,-7.5529520540470165e-06
2026-06-27T13:59:26.352939,1782579467.4931788,0.0,0.0,-10.992453575134277,0.0,0.0,-5.027554035186768,0.0,0.0,-6.846070570092625e-06
2026-06-27T13:59:26.461610,1782579467.598181,0.0,0.0,-11.520157814025879,0.0,0.0,-5.023785591125488,0.0,0.0,-6.1773988960817155e-06
2026-06-27T13:59:26.570366,1782579467.7061834,0.0,0.0,-12.062546730041504,0.0,0.0,-5.0203070640563965,0.0,0.0,-5.489622317099068e-06
2026-06-27T13:59:26.679663,1782579467.8141856,0.0,0.0,-12.604578971862793,0.0,0.0,-5.01718807220459,0.0,0.0,-4.801845738116419e-06
2026-06-27T13:59:26.787822,1782579467.919188,0.0,0.0,-13.13124942779541,0.0,0.0,-5.014463901519775,0.0,0.0,-4.133174064105511e-06
2026-06-27T13:59:26.897573,1782579468.0271902,0.0,0.0,-13.672685623168945,0.0,0.0,-5.011950969696045,0.0,0.0,-3.445397485122865e-06
2026-06-27T13:59:27.005694,1782579468.1321926,0.0,0.0,-14.198833465576172,0.0,0.0,-5.009756565093994,0.0,0.0,-2.7767258111119584e-06
2026-06-27T13:59:27.114581,1782579468.2371948,0.0,0.0,-14.724763870239258,0.0,0.0,-5.00778341293335,0.0,0.0,-2.1080541371010525e-06
2026-06-27T13:59:27.222644,1782579468.342197,0.0,0.0,-15.250496864318848,0.0,0.0,-5.006009101867676,0.0,0.0,-1.4393824630901471e-06
2026-06-27T13:59:27.331272,1782579468.4501994,0.0,0.0,-15.791067123413086,0.0,0.0,-5.00437068939209,0.0,0.0,-7.516058841075016e-07
2026-06-27T13:59:27.439476,1782579468.5552015,0.0,0.0,-16.316457748413086,0.0,0.0,-5.002940654754639,0.0,0.0,-8.293372665228475e-08
2026-06-27T13:59:27.548711,1782579468.663204,0.0,0.0,-16.856714248657227,0.0,0.0,-5.001619815826416,0.0,0.0,4.931759946857344e-07
2026-06-27T13:59:27.659733,1782579468.7712061,0.0,0.0,-17.396835327148438,0.0,0.0,-5.000435829162598,0.0,0.0,7.759896447395978e-07
2026-06-27T13:59:27.768543,1782579468.8792086,0.0,0.0,-17.936840057373047,0.0,0.0,-4.9993743896484375,0.0,0.0,9.223795847303843e-07
2026-06-27T13:59:27.875702,1782579468.9842107,0.0,0.0,-18.46173095703125,0.0,0.0,-4.998447895050049,0.0,0.0,9.729773752693531e-07
2026-06-27T13:59:27.984414,1782579469.089213,0.0,0.0,-18.986536026000977,0.0,0.0,-4.997614860534668,0.0,0.0,1.020077064547461e-06
2026-06-27T13:59:28.093634,1782579469.1972153,0.0,0.0,-19.52625274658203,0.0,0.0,-4.996845722198486,0.0,0.0,1.036233569885047e-06
2026-06-27T13:59:28.201825,1782579469.3052175,0.0,0.0,-20.065885543823242,0.0,0.0,-4.996156215667725,0.0,0.0,1.0459321752196398e-06
2026-06-27T13:59:28.310566,1782579469.4102197,0.0,0.0,-20.590463638305664,0.0,0.0,-4.995554447174072,0.0,0.0,1.0553613748504939e-06
2026-06-27T13:59:28.419581,1782579469.515222,0.0,0.0,-21.114974975585938,0.0,0.0,-4.9950127601623535,0.0,0.0,1.0647905744813477e-06
2026-06-27T13:59:28.529182,1782579469.6262243,0.0,0.0,-21.66939926147461,0.0,0.0,-4.994499206542969,0.0,0.0,1.0747585855196791e-06
2026-06-27T13:59:28.638878,1782579469.7312267,0.0,0.0,-22.193809509277344,0.0,0.0,-4.9940643310546875,0.0,0.0,1.0591630791390283e-06
2026-06-27T13:59:28.747884,1782579469.8392289,0.0,0.0,-22.733169555664062,0.0,0.0,-4.9936628341674805,0.0,0.0,1.0107396684469327e-06
2026-06-27T13:59:28.857460,1782579469.9472313,0.0,0.0,-23.272462844848633,0.0,0.0,-4.993302822113037,0.0,0.0,9.62316257754837e-07
2026-06-27T13:59:28.965448,1782579470.0552335,0.0,0.0,-23.796768188476562,0.0,0.0,-4.992988109588623,0.0,0.0,9.152379418041887e-07
2026-06-27T13:59:29.074493,1782579470.163236,0.0,0.0,-24.350969314575195,0.0,0.0,-4.992690086364746,0.0,0.0,8.65469436370646e-07
2026-06-27T13:59:29.183693,1782579470.268238,0.0,0.0,-24.875213623046875,0.0,0.0,-4.992436408996582,0.0,0.0,8.183911204199975e-07
2026-06-27T13:59:29.292437,1782579470.3732402,0.0,0.0,-25.3994083404541,0.0,0.0,-4.9922099113464355,0.0,0.0,7.713128044693491e-07
2026-06-27T13:59:29.401117,1782579470.4782426,0.0,0.0,-25.923585891723633,0.0,0.0,-4.99200439453125,0.0,0.0,7.242344885187007e-07
2026-06-27T13:59:29.509885,1782579470.5832448,0.0,0.0,-26.447763442993164,0.0,0.0,-4.991819858551025,0.0,0.0,6.771561725680522e-07
2026-06-27T13:59:29.620030,1782579470.691247,0.0,0.0,-26.986879348754883,0.0,0.0,-4.991650581359863,0.0,0.0,6.287327618759566e-07
2026-06-27T13:59:29.728223,1782579470.7992494,0.0,0.0,-27.525964736938477,0.0,0.0,-4.99149751663208,0.0,0.0,5.803093511838611e-07
2026-06-27T13:59:29.837526,1782579470.9072516,0.0,0.0,-28.06505012512207,0.0,0.0,-4.991360187530518,0.0,0.0,5.318859404917655e-07
2026-06-27T13:59:29.947246,1782579471.015254,0.0,0.0,-28.604135513305664,0.0,0.0,-4.991239070892334,0.0,0.0,4.8346252979967e-07
2026-06-27T13:59:30.054106,1782579471.1232562,0.0,0.0,-29.143220901489258,0.0,0.0,-4.9911298751831055,0.0,0.0,4.350391191075744e-07
2026-06-27T13:59:30.163825,1782579471.2312586,0.0,0.0,-29.682252883911133,0.0,0.0,-4.991029262542725,0.0,0.0,3.866164717486024e-07
2026-06-27T13:59:30.271792,1782579471.3392608,0.0,0.0,-30.221269607543945,0.0,0.0,-4.990943431854248,0.0,0.0,3.381939770562551e-07
2026-06-27T13:59:30.380508,1782579471.4472632,0.0,0.0,-30.760286331176758,0.0,0.0,-4.990861415863037,0.0,0.0,2.897714823639078e-07
2026-06-27T13:59:30.490178,1782579471.5552654,0.0,0.0,-31.29930305480957,0.0,0.0,-4.990792751312256,0.0,0.0,2.4134898767156055e-07
2026-06-27T13:59:30.598851,1782579471.6632679,0.0,0.0,-31.838319778442383,0.0,0.0,-4.990724086761475,0.0,0.0,1.9292649297921323e-07
2026-06-27T13:59:30.707881,1782579471.77127,0.0,0.0,-32.37733459472656,0.0,0.0,-4.990668773651123,0.0,0.0,1.4450399828686592e-07
2026-06-27T13:59:30.816561,1782579471.8792725,0.0,0.0,-32.916351318359375,0.0,0.0,-4.990617275238037,0.0,0.0,9.608145270564373e-08
2026-06-27T13:59:30.924697,1782579471.9872746,0.0,0.0,-33.45536804199219,0.0,0.0,-4.990567684173584,0.0,0.0,4.765874491613278e-08
2026-06-27T13:59:31.034464,1782579472.098277,0.0,0.0,-34.00935745239258,0.0,0.0,-4.990527153015137,0.0,0.0,-2.108945897842086e-09
2026-06-27T13:59:31.143659,1782579472.2062795,0.0,0.0,-34.54837417602539,0.0,0.0,-4.990492343902588,0.0,0.0,-5.053156184883661e-08
2026-06-27T13:59:31.251851,1782579472.3142817,0.0,0.0,-35.0873908996582,0.0,0.0,-4.990458011627197,0.0,0.0,-9.895427599945693e-08
2026-06-27T13:59:31.360523,1782579472.4192839,0.0,0.0,-35.61143493652344,0.0,0.0,-4.990424633026123,0.0,0.0,-1.460317332003414e-07
2026-06-27T13:59:31.470113,1782579472.5272863,0.0,0.0,-36.15045166015625,0.0,0.0,-4.990398406982422,0.0,0.0,-1.944542278926887e-07
2026-06-27T13:59:31.579257,1782579472.6352885,0.0,0.0,-36.68946838378906,0.0,0.0,-4.990375518798828,0.0,0.0,-2.42876722585036e-07
2026-06-27T13:59:31.688272,1782579472.743291,0.0,0.0,-37.228485107421875,0.0,0.0,-4.990354537963867,0.0,0.0,-2.9129921727738327e-07
2026-06-27T13:59:31.797151,1782579472.848293,0.0,0.0,-37.75252914428711,0.0,0.0,-4.990335941314697,0.0,0.0,-3.383766426727209e-07
2026-06-27T13:59:31.905382,1782579472.9562955,0.0,0.0,-38.29154586791992,0.0,0.0,-4.990318775177002,0.0,0.0,-3.867991373650682e-07
2026-06-27T13:59:32.014102,1782579473.0612977,0.0,0.0,-38.815589904785156,0.0,0.0,-4.990302085876465,0.0,0.0,-4.3387671542703056e-07
2026-06-27T13:59:32.123300,1782579473.1693,0.0,0.0,-39.35460662841797,0.0,0.0,-4.9902849197387695,0.0,0.0,-4.823001261191261e-07
2026-06-27T13:59:32.232525,1782579473.2773023,0.0,0.0,-39.89362335205078,0.0,0.0,-4.990269184112549,0.0,0.0,-5.307235368112217e-07
2026-06-27T13:59:32.340754,1782579473.3823044,0.0,0.0,-40.417667388916016,0.0,0.0,-4.99025821685791,0.0,0.0,-5.778018527618702e-07
2026-06-27T13:59:32.449488,1782579473.4903069,0.0,0.0,-40.94171142578125,0.0,0.0,-4.99024772644043,0.0,0.0,-6.248801687125186e-07
2026-06-27T13:59:32.559193,1782579473.595309,0.0,0.0,-41.48072814941406,0.0,0.0,-4.990236759185791,0.0,0.0,-6.733035794046141e-07
2026-06-27T13:59:32.668093,1782579473.7033114,0.0,0.0,-42.019744873046875,0.0,0.0,-4.990228652954102,0.0,0.0,-7.217269900967098e-07
2026-06-27T13:59:32.776297,1782579473.8113136,0.0,0.0,-42.55876159667969,0.0,0.0,-4.990221977233887,0.0,0.0,-7.701504007888053e-07
2026-06-27T13:59:32.886022,1782579473.919316,0.0,0.0,-43.0977783203125,0.0,0.0,-4.990214824676514,0.0,0.0,-8.185738114809008e-07
2026-06-27T13:59:32.995271,1782579474.0243182,0.0,0.0,-43.621822357177734,0.0,0.0,-4.990207195281982,0.0,0.0,-8.656521274315493e-07
2026-06-27T13:59:33.104048,1782579474.1293204,0.0,0.0,-44.14586639404297,0.0,0.0,-4.9902024269104,0.0,0.0,-9.127304433821977e-07
2026-06-27T13:59:33.212805,1782579474.2373228,0.0,0.0,-44.68488311767578,0.0,0.0,-4.990197658538818,0.0,0.0,-9.611538540742934e-07
2026-06-27T13:59:33.321083,1782579474.345325,0.0,0.0,-45.223899841308594,0.0,0.0,-4.9901909828186035,0.0,0.0,-1.0095772647663888e-06
2026-06-27T13:59:33.430260,1782579474.4533274,0.0,0.0,-45.762916564941406,0.0,0.0,-4.990187644958496,0.0,0.0,-1.0580006754584846e-06
2026-06-27T13:59:33.539007,1782579474.5613296,0.0,0.0,-46.30193328857422,0.0,0.0,-4.990184307098389,0.0,0.0,-1.10642408615058e-06
2026-06-27T13:59:33.648169,1782579474.666332,0.0,0.0,-46.82597732543945,0.0,0.0,-4.990179061889648,0.0,0.0,-1.1535024021012286e-06
2026-06-27T13:59:33.756862,1782579474.7713342,0.0,0.0,-47.35002136230469,0.0,0.0,-4.990174770355225,0.0,0.0,-1.2005807180518769e-06
2026-06-27T13:59:33.865624,1782579474.8763363,0.0,0.0,-47.87406539916992,0.0,0.0,-4.990172386169434,0.0,0.0,-1.2476590340025254e-06
2026-06-27T13:59:33.975354,1782579474.9843388,0.0,0.0,-48.413082122802734,0.0,0.0,-4.99016809463501,0.0,0.0,-1.2960824446946208e-06
2026-06-27T13:59:34.084100,1782579475.092341,0.0,0.0,-48.95209884643555,0.0,0.0,-4.9901652336120605,0.0,0.0,-1.3445058553867165e-06
2026-06-27T13:59:34.192257,1782579475.2003434,0.0,0.0,-49.49111557006836,0.0,0.0,-4.990163326263428,0.0,0.0,-1.3929292660788123e-06
2026-06-27T13:59:34.300786,1782579475.3083456,0.0,0.0,-50.03013229370117,0.0,0.0,-4.990159511566162,0.0,0.0,-1.441352676770908e-06
2026-06-27T13:59:34.410037,1782579475.4133477,0.0,0.0,-50.554176330566406,0.0,0.0,-4.9901580810546875,0.0,0.0,-1.4884309927215562e-06
2026-06-27T13:59:34.518990,1782579475.5213501,0.0,0.0,-51.09319305419922,0.0,0.0,-4.990156173706055,0.0,0.0,-1.5368544034136519e-06
2026-06-27T13:59:34.628190,1782579475.6293523,0.0,0.0,-51.63220977783203,0.0,0.0,-4.99015474319458,0.0,0.0,-1.5852778141057475e-06
2026-06-27T13:59:34.737361,1782579475.7373548,0.0,0.0,-52.17118835449219,0.0,0.0,-4.990152359008789,0.0,0.0,-1.633701224797843e-06
2026-06-27T13:59:34.844640,1782579475.845357,0.0,0.0,-52.71006774902344,0.0,0.0,-4.990148544311523,0.0,0.0,-1.6821246354899385e-06
2026-06-27T13:59:34.955467,1782579475.9533594,0.0,0.0,-53.24894714355469,0.0,0.0,-4.990147113800049,0.0,0.0,-1.7305480461820342e-06
2026-06-27T13:59:35.064132,1782579476.0613616,0.0,0.0,-53.78782653808594,0.0,0.0,-4.990146160125732,0.0,0.0,-1.7789714568741296e-06
2026-06-27T13:59:35.173332,1782579476.169364,0.0,0.0,-54.32670593261719,0.0,0.0,-4.990143775939941,0.0,0.0,-1.8273948675662252e-06
2026-06-27T13:59:35.282101,1782579476.2773662,0.0,0.0,-54.86558532714844,0.0,0.0,-4.990141868591309,0.0,0.0,-1.8758182782583208e-06
2026-06-27T13:59:35.390793,1782579476.3853686,0.0,0.0,-55.40446472167969,0.0,0.0,-4.990139961242676,0.0,0.0,-1.9242416889504165e-06
2026-06-27T13:59:35.499544,1782579476.4933708,0.0,0.0,-55.94334411621094,0.0,0.0,-4.990139961242676,0.0,0.0,-1.972665099642512e-06
2026-06-27T13:59:35.608758,1782579476.6013732,0.0,0.0,-56.48222351074219,0.0,0.0,-4.990138530731201,0.0,0.0,-2.0210885103346073e-06
2026-06-27T13:59:35.717979,1782579476.7063754,0.0,0.0,-57.006134033203125,0.0,0.0,-4.990138053894043,0.0,0.0,-2.068166826285256e-06
2026-06-27T13:59:35.827245,1782579476.8173778,0.0,0.0,-57.55998229980469,0.0,0.0,-4.990137100219727,0.0,0.0,-2.1179353317187985e-06
2026-06-27T13:59:35.934695,1782579476.92538,0.0,0.0,-58.09886169433594,0.0,0.0,-4.990134239196777,0.0,0.0,-2.166358742410894e-06
2026-06-27T13:59:36.043926,1782579477.0303824,0.0,0.0,-58.622772216796875,0.0,0.0,-4.9901323318481445,0.0,0.0,-2.213437058361543e-06
2026-06-27T13:59:36.153602,1782579477.1383846,0.0,0.0,-59.161651611328125,0.0,0.0,-4.99013090133667,0.0,0.0,-2.2618604690536387e-06
2026-06-27T13:59:36.262329,1782579477.243387,0.0,0.0,-59.68556213378906,0.0,0.0,-4.9901299476623535,0.0,0.0,-2.3089387850042864e-06
2026-06-27T13:59:36.370510,1782579477.3483891,0.0,0.0,-60.20947265625,0.0,0.0,-4.990128517150879,0.0,0.0,-2.356017100954936e-06
2026-06-27T13:59:36.479759,1782579477.4563913,0.0,0.0,-60.74835205078125,0.0,0.0,-4.990128040313721,0.0,0.0,-2.404440511647031e-06
2026-06-27T13:59:36.588465,1782579477.5643938,0.0,0.0,-61.2872314453125,0.0,0.0,-4.990126609802246,0.0,0.0,-2.4528639223391266e-06
2026-06-27T13:59:36.698635,1782579477.672396,0.0,0.0,-61.82611083984375,0.0,0.0,-4.990126132965088,0.0,0.0,-2.501287333031222e-06
2026-06-27T13:59:36.807449,1782579477.7773983,0.0,0.0,-62.35002136230469,0.0,0.0,-4.9901251792907715,0.0,0.0,-2.5483656489818704e-06
2026-06-27T13:59:36.914720,1782579477.8824005,0.0,0.0,-62.873931884765625,0.0,0.0,-4.990124702453613,0.0,0.0,-2.595443964932519e-06
2026-06-27T13:59:37.023905,1782579477.9904027,0.0,0.0,-63.412811279296875,0.0,0.0,-4.990121841430664,0.0,0.0,-2.643867375624615e-06
2026-06-27T13:59:37.132220,1782579478.0984051,0.0,0.0,-63.951690673828125,0.0,0.0,-4.9901204109191895,0.0,0.0,-2.6922907863167106e-06
2026-06-27T13:59:37.241268,1782579478.2034073,0.0,0.0,-64.47560119628906,0.0,0.0,-4.990119457244873,0.0,0.0,-2.739369102267359e-06
2026-06-27T13:59:37.349933,1782579478.3114097,0.0,0.0,-65.01448059082031,0.0,0.0,-4.990118503570557,0.0,0.0,-2.7877925129594547e-06
2026-06-27T13:59:37.459052,1782579478.419412,0.0,0.0,-65.55335998535156,0.0,0.0,-4.990118026733398,0.0,0.0,-2.8362159236515503e-06
2026-06-27T13:59:37.567722,1782579478.5244143,0.0,0.0,-66.0772705078125,0.0,0.0,-4.990117073059082,0.0,0.0,-2.8832942396021984e-06
2026-06-27T13:59:37.676051,1782579478.6324165,0.0,0.0,-66.61614990234375,0.0,0.0,-4.990116119384766,0.0,0.0,-2.9317176502942945e-06
2026-06-27T13:59:37.784179,1782579478.740419,0.0,0.0,-67.155029296875,0.0,0.0,-4.990114688873291,0.0,0.0,-2.9801410609863897e-06
2026-06-27T13:59:37.893883,1782579478.848421,0.0,0.0,-67.69390869140625,0.0,0.0,-4.990114688873291,0.0,0.0,-3.0285644716784858e-06
2026-06-27T13:59:38.001913,1782579478.9534233,0.0,0.0,-68.21781921386719,0.0,0.0,-4.990113735198975,0.0,0.0,-3.0756427876291343e-06
2026-06-27T13:59:38.110654,1782579479.0614257,0.0,0.0,-68.75669860839844,0.0,0.0,-4.990111827850342,0.0,0.0,-3.12406619832123e-06
2026-06-27T13:59:38.220332,1782579479.1694279,0.0,0.0,-69.29557800292969,0.0,0.0,-4.990109920501709,0.0,0.0,-3.1724896090133255e-06
2026-06-27T13:59:38.329090,1782579479.2774303,0.0,0.0,-69.81948852539062,0.0,0.0,-4.990109443664551,0.0,0.0,-3.2195679249639736e-06
2026-06-27T13:59:38.439087,1782579479.3854325,0.0,0.0,-70.37333679199219,0.0,0.0,-4.990108489990234,0.0,0.0,-3.2693364303975172e-06
2026-06-27T13:59:38.546776,1782579479.490435,0.0,0.0,-70.89724731445312,0.0,0.0,-4.99010705947876,0.0,0.0,-3.3164147463481653e-06
2026-06-27T13:59:38.654646,1782579479.598437,0.0,0.0,-71.43612670898438,0.0,0.0,-4.990106105804443,0.0,0.0,-3.364838157040261e-06
2026-06-27T13:59:38.763877,1782579479.7034395,0.0,0.0,-71.96003723144531,0.0,0.0,-4.990105152130127,0.0,0.0,-3.4119164729909095e-06
2026-06-27T13:59:38.871941,1782579479.8114417,0.0,0.0,-72.49891662597656,0.0,0.0,-4.9901041984558105,0.0,0.0,-3.4603396801275056e-06
2026-06-27T13:59:38.980673,1782579479.919444,0.0,0.0,-73.03779602050781,0.0,0.0,-4.990103721618652,0.0,0.0,-3.508763090819601e-06
2026-06-27T13:59:39.089844,1782579480.0274463,0.0,0.0,-73.57667541503906,0.0,0.0,-4.990102767944336,0.0,0.0,-3.5571865015116965e-06
2026-06-27T13:59:39.199574,1782579480.1354487,0.0,0.0,-74.11555480957031,0.0,0.0,-4.990100860595703,0.0,0.0,-3.605609912203792e-06
2026-06-27T13:59:39.308335,1782579480.2434509,0.0,0.0,-74.65443420410156,0.0,0.0,-4.990099906921387,0.0,0.0,-3.6540333228958877e-06
2026-06-27T13:59:39.416486,1782579480.351453,0.0,0.0,-75.19331359863281,0.0,0.0,-4.99009895324707,0.0,0.0,-3.702456733587984e-06
2026-06-27T13:59:39.524640,1782579480.4594555,0.0,0.0,-75.73219299316406,0.0,0.0,-4.990097999572754,0.0,0.0,-3.750880144280079e-06
2026-06-27T13:59:39.634355,1782579480.5674577,0.0,0.0,-76.27107238769531,0.0,0.0,-4.990096569061279,0.0,0.0,-3.7993035549721755e-06
2026-06-27T13:59:39.742898,1782579480.67246,0.0,0.0,-76.79498291015625,0.0,0.0,-4.990096092224121,0.0,0.0,-3.8463818709228236e-06
2026-06-27T13:59:39.852591,1782579480.7804623,0.0,0.0,-77.3338623046875,0.0,0.0,-4.9900946617126465,0.0,0.0,-3.894805281614919e-06
2026-06-27T13:59:39.962203,1782579480.8884647,0.0,0.0,-77.87274169921875,0.0,0.0,-4.99009370803833,0.0,0.0,-3.943228692307015e-06
2026-06-27T13:59:40.069572,1782579480.9964669,0.0,0.0,-78.41162109375,0.0,0.0,-4.990092754364014,0.0,0.0,-3.9916521029991104e-06
2026-06-27T13:59:40.179286,1782579481.1044693,0.0,0.0,-78.95050048828125,0.0,0.0,-4.990091800689697,0.0,0.0,-4.040075513691206e-06
2026-06-27T13:59:40.287988,1782579481.2124715,0.0,0.0,-79.4893798828125,0.0,0.0,-4.990089416503906,0.0,0.0,-4.0884989243833025e-06
2026-06-27T13:59:40.397152,1782579481.320474,0.0,0.0,-80.02825927734375,0.0,0.0,-4.990089416503906,0.0,0.0,-4.136922335075397e-06
2026-06-27T13:59:40.505422,1782579481.425476,0.0,0.0,-80.55216979980469,0.0,0.0,-4.990087985992432,0.0,0.0,-4.184000651026046e-06
2026-06-27T13:59:40.614640,1782579481.5334785,0.0,0.0,-81.09104919433594,0.0,0.0,-4.990086078643799,0.0,0.0,-4.232424061718142e-06
2026-06-27T13:59:40.723906,1782579481.6414807,0.0,0.0,-81.62992858886719,0.0,0.0,-4.990086078643799,0.0,0.0,-4.2808474724102375e-06
2026-06-27T13:59:40.831912,1782579481.7464828,0.0,0.0,-82.15383911132812,0.0,0.0,-4.990085601806641,0.0,0.0,-4.3279257883608865e-06
2026-06-27T13:59:40.941528,1782579481.8544853,0.0,0.0,-82.69271850585938,0.0,0.0,-4.990084171295166,0.0,0.0,-4.376349199052981e-06
2026-06-27T13:59:41.050325,1782579481.9594874,0.0,0.0,-83.21662902832031,0.0,0.0,-4.99008321762085,0.0,0.0,-4.42342751500363e-06
2026-06-27T13:59:41.158588,1782579482.0644898,0.0,0.0,-83.74053955078125,0.0,0.0,-4.990082263946533,0.0,0.0,-4.470505830954279e-06
2026-06-27T13:59:41.271781,1782579482.172492,0.0,0.0,-84.2794189453125,0.0,0.0,-4.990081310272217,0.0,0.0,-4.518929241646374e-06
2026-06-27T13:59:41.378259,1782579482.2744942,0.0,0.0,-84.78836059570312,0.0,0.0,-4.9900803565979,0.0,0.0,-4.564662462855577e-06
2026-06-27T13:59:41.484484,1782579482.3824966,0.0,0.0,-85.32723999023438,0.0,0.0,-4.990078926086426,0.0,0.0,-4.613085873547671e-06
2026-06-27T13:59:41.594219,1782579482.4934988,0.0,0.0,-85.88108825683594,0.0,0.0,-4.990077972412109,0.0,0.0,-4.662854378981215e-06
2026-06-27T13:59:41.702877,1782579482.5985012,0.0,0.0,-86.40499877929688,0.0,0.0,-4.990077018737793,0.0,0.0,-4.709932694931863e-06
2026-06-27T13:59:41.812050,1782579482.7065034,0.0,0.0,-86.94387817382812,0.0,0.0,-4.990076065063477,0.0,0.0,-4.758356105623959e-06
2026-06-27T13:59:41.920860,1782579482.8145058,0.0,0.0,-87.48275756835938,0.0,0.0,-4.99007511138916,0.0,0.0,-4.806779516316055e-06
2026-06-27T13:59:42.029545,1782579482.919508,0.0,0.0,-88.00666809082031,0.0,0.0,-4.990074157714844,0.0,0.0,-4.853857832266703e-06
2026-06-27T13:59:42.139290,1782579483.0275102,0.0,0.0,-88.54554748535156,0.0,0.0,-4.990072250366211,0.0,0.0,-4.9022812429588e-06
2026-06-27T13:59:42.247970,1782579483.1355126,0.0,0.0,-89.08442687988281,0.0,0.0,-4.990072250366211,0.0,0.0,-4.950704653650895e-06
2026-06-27T13:59:42.356668,1782579483.2405148,0.0,0.0,-89.60833740234375,0.0,0.0,-4.9900712966918945,0.0,0.0,-4.9977829696015435e-06
2026-06-27T13:59:42.464486,1782579483.3455172,0.0,0.0,-90.13224792480469,0.0,0.0,-4.99006986618042,0.0,0.0,-5.0448612855521925e-06
2026-06-27T13:59:42.574565,1782579483.4565194,0.0,0.0,-90.68609619140625,0.0,0.0,-4.990068435668945,0.0,0.0,-5.094629790985735e-06
2026-06-27T13:59:42.683266,1782579483.5615218,0.0,0.0,-91.21000671386719,0.0,0.0,-4.990067958831787,0.0,0.0,-5.141708106936383e-06
2026-06-27T13:59:42.792212,1782579483.666524,0.0,0.0,-91.73391723632812,0.0,0.0,-4.9900665283203125,0.0,0.0,-5.188786422887032e-06
2026-06-27T13:59:42.900978,1782579483.7745261,0.0,0.0,-92.27279663085938,0.0,0.0,-4.99006462097168,0.0,0.0,-5.237209833579128e-06
2026-06-27T13:59:43.010668,1782579483.8795285,0.0,0.0,-92.79670715332031,0.0,0.0,-4.99006462097168,0.0,0.0,-5.284288149529777e-06
2026-06-27T13:59:43.119985,1782579483.9875307,0.0,0.0,-93.33558654785156,0.0,0.0,-4.990063190460205,0.0,0.0,-5.332711560221872e-06
2026-06-27T13:59:43.228693,1782579484.0925329,0.0,0.0,-93.8594970703125,0.0,0.0,-4.990063190460205,0.0,0.0,-5.379789876172522e-06
2026-06-27T13:59:43.336876,1782579484.2005353,0.0,0.0,-94.39837646484375,0.0,0.0,-4.990062236785889,0.0,0.0,-5.428213286864617e-06
2026-06-27T13:59:43.444576,1782579484.3085375,0.0,0.0,-94.937255859375,0.0,0.0,-4.990060329437256,0.0,0.0,-5.476636697556713e-06
2026-06-27T13:59:43.554278,1782579484.41654,0.0,0.0,-95.47613525390625,0.0,0.0,-4.990059852600098,0.0,0.0,-5.525060108248809e-06
2026-06-27T13:59:43.663950,1782579484.524542,0.0,0.0,-96.0150146484375,0.0,0.0,-4.990058898925781,0.0,0.0,-5.573483518940904e-06
2026-06-27T13:59:43.771980,1782579484.6325445,0.0,0.0,-96.55389404296875,0.0,0.0,-4.990057468414307,0.0,0.0,-5.621906929633e-06
2026-06-27T13:59:43.880764,1782579484.7405467,0.0,0.0,-97.0927734375,0.0,0.0,-4.99005651473999,0.0,0.0,-5.670330340325096e-06
2026-06-27T13:59:43.989438,1782579484.845549,0.0,0.0,-97.61668395996094,0.0,0.0,-4.990056037902832,0.0,0.0,-5.7174086562757445e-06
2026-06-27T13:59:44.098306,1782579484.9535513,0.0,0.0,-98.15556335449219,0.0,0.0,-4.990055084228516,0.0,0.0,-5.76583206696784e-06
2026-06-27T13:59:44.208008,1782579485.0615537,0.0,0.0,-98.69444274902344,0.0,0.0,-4.990054130554199,0.0,0.0,-5.814255477659936e-06
2026-06-27T13:59:44.316272,1782579485.169556,0.0,0.0,-99.21835327148438,0.0,0.0,-4.990052223205566,0.0,0.0,-5.861333793610585e-06
2026-06-27T13:59:44.425994,1782579485.2745583,0.0,0.0,-99.75723266601562,0.0,0.0,-4.990050792694092,0.0,0.0,-5.909757204302681e-06
2026-06-27T13:59:44.534676,1782579485.3825605,2.2714722547334532e-07,-7.12762755483709e-08,-100.29466247558594,2.7683639928000048e-05,-8.618134415883105e-06,-4.915553092956543,-0.007042002370026666,-0.02328102237383843,-0.19867829119725433
2026-06-27T13:59:44.642905,1782579485.4875627,9.758225496625528e-05,-2.8037020456395112e-05,-100.80582427978516,0.002941056154668331,-0.0008334845770150423,-4.856526851654053,-0.09021548835273291,-0.38879373996490496,-2.550400712197286
2026-06-27T13:59:44.752578,1782579485.592565,0.0009847015608102083,-0.0002762237563729286,-101.32111358642578,0.016051482409238815,-0.004466905724257231,-4.970658302307129,-0.1550793333245302,-1.008634500041648,-6.66009889795388
2026-06-27T13:59:44.860796,1782579485.7005672,0.003961795940995216,-0.001100212219171226,-101.86028289794922,0.04110424965620041,-0.0113363740965724,-5.000189304351807,-0.11979156796263124,-1.7730333912417016,-11.397420600847354
2026-06-27T13:59:44.969536,1782579485.8085697,0.010341937653720379,-0.002852541394531727,-102.40013122558594,0.07936686277389526,-0.021727578714489937,-4.995472431182861,0.012381499888997047,-2.5752696667243353,-15.398740855354323
2026-06-27T13:59:45.078777,1782579485.9165719,0.021607859060168266,-0.005925087723881006,-102.93913269042969,0.13156110048294067,-0.03576890006661415,-4.98500394821167,0.17458026165055449,-3.3628386537198827,-17.966489838431052
2026-06-27T13:59:45.187976,1782579486.0215743,0.03866206854581833,-0.010546667501330376,-103.46185302734375,0.19537964463233948,-0.05280161648988724,-4.970424175262451,0.2913840699351981,-4.106419517237702,-18.957394087477645
2026-06-27T13:59:45.296755,1782579486.1265764,0.06307054311037064,-0.01712489314377308,-103.9827651977539,0.27153027057647705,-0.07300963997840881,-4.950368881225586,0.32749621969948856,-4.829471740254705,-18.71497412338468
2026-06-27T13:59:45.405475,1782579486.2345786,0.09717581421136856,-0.026274453848600388,-104.5159912109375,0.36202093958854675,-0.0969381257891655,-4.922592639923096,0.27636072229789715,-5.553910810880243,-17.649175393565187
2026-06-27T13:59:45.514387,1782579486.342581,0.14168642461299896,-0.038172803819179535,-105.04573822021484,0.46412739157676697,-0.1238936334848404,-4.886191368103027,0.16214668275834174,-6.256754710560278,-16.271629651429013
2026-06-27T13:59:45.623552,1782579486.4505832,0.19781586527824402,-0.05313780531287193,-105.57107543945312,0.5769868493080139,-0.15368042886257172,-4.839921474456787,0.026550673188638685,-6.923129719584056,-15.007553934238535
2026-06-27T13:59:45.732309,1782579486.5585856,0.26667115092277527,-0.07146221399307251,-106.09075164794922,0.6996521353721619,-0.18607115745544434,-4.781270503997803,-0.08950854517392175,-7.568009105323797,-14.117877614991206
2026-06-27T13:59:45.840520,1782579486.6665878,0.349286824464798,-0.09342152625322342,-106.60348510742188,0.8316960334777832,-0.2209666222333908,-4.711239337921143,-0.15927499648315635,-8.185885571100954,-13.69108124405624
2026-06-27T13:59:45.949819,1782579486.7745903,0.4466020166873932,-0.1192672923207283,-107.10777282714844,0.9717509150505066,-0.25801125168800354,-4.625123977661133,-0.17463784012433867,-8.785709757358939,-13.67800481731863
2026-06-27T13:59:46.058558,1782579486.8825924,0.5594525337219238,-0.14922380447387695,-107.6019287109375,1.1191833019256592,-0.2970375120639801,-4.5225419998168945,-0.14379256873579635,-9.369427562306836,-13.94778608822824
2026-06-27T13:59:46.168293,1782579486.9905949,0.6885812282562256,-0.18349075317382812,-108.08399200439453,1.27298903465271,-0.3377770185470581,-4.4011406898498535,-0.08525449017074932,-9.938085219809043,-14.3450022448552
2026-06-27T13:59:46.276991,1782579487.095597,0.8303337693214417,-0.2211007922887802,-108.53907775878906,1.4275853633880615,-0.3787458837032318,-4.262472629547119,-0.02195138882920755,-10.479715778352954,-14.724495293333526
2026-06-27T13:59:46.385563,1782579487.2035995,0.9933043718338013,-0.26433584094047546,-108.99071502685547,1.590809941291809,-0.4220167398452759,-4.096006870269775,0.03238692536461381,-11.026992487018143,-15.01944928910329
2026-06-27T13:59:46.494250,1782579487.3086016,1.1687986850738525,-0.3108905553817749,-109.4111099243164,1.7518736124038696,-0.46472492814064026,-3.90498948097229,0.06476598009388308,-11.562016219104237,-15.176757725612404
2026-06-27T13:59:46.603335,1782579487.4166038,1.3670023679733276,-0.3634679913520813,-109.8206787109375,1.9182014465332031,-0.5088360905647278,-3.6714839935302734,0.07452237293370038,-12.1370220424818,-15.210455333686578
2026-06-27T13:59:46.712170,1782579487.5246062,1.5830284357070923,-0.42077216506004333,-110.20221710205078,2.08113169670105,-0.5520500540733337,-3.3824470043182373,0.06436021412068015,-12.7787419003956,-15.14818348060472
2026-06-27T13:59:46.821145,1782579487.6296084,1.8093825578689575,-0.48081573843955994,-110.53874969482422,2.2272841930389404,-0.5908157229423523,-3.0077857971191406,0.04264981799101516,-13.563851186813668,-15.039303525671766
2026-06-27T13:59:46.930434,1782579487.7406108,2.0637714862823486,-0.5482956171035767,-110.84263610839844,2.3488197326660156,-0.6230529546737671,-2.4300432205200195,0.015105364051671325,-14.72444242416952,-14.916640286443947
2026-06-27T13:59:47.039095,1782579487.845613,2.3186328411102295,-0.6159006953239441,-111.07587432861328,2.528972864151001,-0.670844316482544,-2.0994818210601807,-0.008984295360285137,-15.197032954952444,-14.82331730825857
2026-06-27T13:59:47.147785,1782579487.9536154,2.604667901992798,-0.6917757987976074,-111.29564666748047,2.7672743797302246,-0.7340661287307739,-1.9755748510360718,-0.022786165893572016,-14.552393802743357,-14.766740409421981
2026-06-27T13:59:47.256952,1782579488.0616176,2.9158246517181396,-0.7743157744407654,-111.5028076171875,2.991363048553467,-0.7935194969177246,-1.861119031906128,-0.024503323964789755,-13.390258905623877,-14.750987175521036
2026-06-27T13:59:47.365517,1782579488.16962,3.2500531673431396,-0.8629772663116455,-111.69786071777344,3.194330930709839,-0.8473691940307617,-1.7525272369384766,-0.018788834766251945,-12.045707662905325,-14.76617726826566
2026-06-27T13:59:47.474243,1782579488.2776222,3.605048418045044,-0.9571480751037598,-111.88184356689453,3.375993013381958,-0.8955647349357605,-1.6568679809570312,-0.010715177482563565,-10.694432914844766,-14.79815432721588
2026-06-27T13:59:47.583540,1782579488.3856246,3.9785399436950684,-1.0562257766723633,-112.05628967285156,3.5370097160339355,-0.9382806420326233,-1.5760945081710815,-0.0036655981747307858,-9.423546033183825,-14.833585803028214
2026-06-27T13:59:47.691636,1782579488.4906268,4.357325077056885,-1.1567081212997437,-112.21824645996094,3.6748390197753906,-0.974842369556427,-1.5107574462890625,0.0008419986158858555,-8.301509942139429,-14.86222994486245
2026-06-27T13:59:47.799810,1782579488.595629,4.749675750732422,-1.2607887983322144,-112.37394714355469,3.795631170272827,-1.0068823099136353,-1.4564317464828491,0.0029764897245849243,-7.302589516038463,-14.880472028775145
2026-06-27T13:59:47.909007,1782579488.7036314,5.165591239929199,-1.3711199760437012,-112.52863311767578,3.903780937194824,-1.0355679988861084,-1.4097907543182373,0.0033181069174258223,-6.401746410236162,-14.88770239808098
2026-06-27T13:59:48.018053,1782579488.8116336,5.592386722564697,-1.4843370914459229,-112.67870330810547,3.9973864555358887,-1.0603961944580078,-1.3703536987304688,0.002589743502547052,-5.62070742451988,-14.88534386178601
2026-06-27T13:59:48.127795,1782579488.916636,6.016356468200684,-1.596803903579712,-112.8208236694336,4.076132297515869,-1.081284523010254,-1.3373827934265137,0.0015236180702290242,-4.964980340935241,-14.877431845660627
2026-06-27T13:59:48.235572,1782579489.0216382,6.448026180267334,-1.711314082145691,-112.9596939086914,4.14431619644165,-1.0993731021881104,-1.3083534240722656,0.000529957108636784,-4.399968784488804,-14.8675564544921
2026-06-27T13:59:48.344289,1782579489.1296403,6.898972511291504,-1.8309382200241089,-113.09952545166016,4.2048821449279785,-1.115443468093872,-1.281577467918396,-0.00020034814250657792,-3.9016336562866276,-14.858350289605973
2026-06-27T13:59:48.453561,1782579489.2376428,7.355997562408447,-1.9521756172180176,-113.23661804199219,4.257089614868164,-1.1292986869812012,-1.257273554801941,-0.0005925975134557508,-3.476092200830003,-14.851932146845973
2026-06-27T13:59:48.562757,1782579489.345645,7.818263530731201,-2.0748043060302734,-113.37117004394531,4.302104949951172,-1.1412466764450073,-1.23452889919281,-0.0007055553302063231,-3.113414689958593,-14.848905797981464
2026-06-27T13:59:48.671403,1782579489.4506474,8.272029876708984,-2.1951775550842285,-113.49969482421875,4.339974403381348,-1.1512991189956665,-1.213802456855774,-0.0006383041573676146,-2.812323566830567,-14.84883468870982
2026-06-27T13:59:48.779171,1782579489.5556495,8.729501724243164,-2.3165359497070312,-113.62610626220703,4.372856140136719,-1.1600276231765747,-1.1940364837646484,-0.000489567722336169,-2.5548646126105057,-14.850713172891165
2026-06-27T13:59:48.888352,1782579489.6606517,9.19019603729248,-2.438749074935913,-113.75047302246094,4.40146017074585,-1.1676204204559326,-1.1750006675720215,-0.0003260351399753297,-2.3348354014605177,-14.8534986919568
2026-06-27T13:59:48.996562,1782579489.768654,9.666976928710938,-2.56523060798645,-113.87635803222656,4.427064418792725,-1.1744155883789062,-1.1560190916061401,-0.00018826965333402945,-2.141819899561782,-14.856358226031151
2026-06-27T13:59:49.105233,1782579489.8736563,10.13299560546875,-2.688856840133667,-113.99678802490234,4.4487738609313965,-1.1801774501800537,-1.1378788948059082,-9.939235103531507e-05,-1.9818141375800162,-14.858500498405348
2026-06-27T13:59:49.213936,1782579489.9756584,10.58774471282959,-2.8094935417175293,-114.11198425292969,4.467304706573486,-1.1850948333740234,-1.1208345890045166,-5.4151254654613034e-05,-1.848689778200493,-14.859721655727624
2026-06-27T13:59:49.324122,1782579490.0806608,11.057722091674805,-2.9341704845428467,-114.22876739501953,4.484109878540039,-1.18955397605896,-1.1034870147705078,-4.30711436358888e-05,-1.7312463332017876,-14.860101624553813
2026-06-27T13:59:49.431851,1782579490.188663,11.542854309082031,-3.062868356704712,-114.34700012207031,4.49933385848999,-1.193593978881836,-1.085767388343811,-5.269261634241433e-05,-1.6282724052990534,-14.859772634749287
2026-06-27T13:59:49.541076,1782579490.2936652,12.015995979309082,-3.1883842945098877,-114.46012878417969,4.512425899505615,-1.1970688104629517,-1.0688608884811401,-8.078101984606146e-05,-1.5427264181421143,-14.859063182475412
2026-06-27T13:59:49.650263,1782579490.4016676,12.504003524780273,-3.317845344543457,-114.57464599609375,4.524389266967773,-1.2002445459365845,-1.051841139793396,-0.00010651118350403052,-1.4673867612788074,-14.858240494257226
2026-06-27T13:59:49.759487,1782579490.5096698,12.993232727050781,-3.4476311206817627,-114.68732452392578,4.535038948059082,-1.2030723094940186,-1.0348713397979736,-0.00012461582668445446,-1.4031453630596828,-14.85753598511428
2026-06-27T13:59:49.869518,1782579490.6146722,13.469916343688965,-3.5740880966186523,-114.79512786865234,4.544315814971924,-1.205535888671875,-1.0184996128082275,-0.00012408897274010785,-1.3496946080177632,-14.857092748060309
2026-06-27T13:59:49.977019,1782579490.7196743,13.947525024414062,-3.7007908821105957,-114.90120697021484,4.552682876586914,-1.2077572345733643,-1.0022737979888916,-0.00012648748141706897,-1.3037784122054774,-14.85692499573063
2026-06-27T13:59:50.085343,1782579490.8246765,14.425971031188965,-3.8277156352996826,-115.0055923461914,4.560261249542236,-1.209769606590271,-0.9861850142478943,-0.00012082376476766759,-1.2642621048713059,-14.8569685859175
2026-06-27T13:59:50.194526,1782579490.932679,14.918878555297852,-3.958477020263672,-115.11121368408203,4.567347526550293,-1.2116514444351196,-0.9697685837745667,-0.000117315695666307,-1.2293330375674236,-14.857179836771534
2026-06-27T13:59:50.302555,1782579491.0406811,15.412515640258789,-4.089432239532471,-115.21507263183594,4.573813438415527,-1.2133690118789673,-0.9534827470779419,-0.00011146017725237499,-1.199296374536519,-14.857457044349783
2026-06-27T13:59:50.412226,1782579491.1426835,15.87934684753418,-4.213274955749512,-115.31155395507812,4.579427719116211,-1.214860439300537,-0.9382723569869995,-0.00010677288383497914,-1.1747519522739336,-14.857682577471875
2026-06-27T13:59:50.521457,1782579491.2506857,16.374235153198242,-4.344561576843262,-115.41201782226562,4.584915637969971,-1.2163182497024536,-0.9222232103347778,-9.464827170455297e-05,-1.1522069339949434,-14.857856121334427
2026-06-27T13:59:50.629656,1782579491.3556879,16.855924606323242,-4.472347736358643,-115.50804138183594,4.589861869812012,-1.2176322937011719,-0.9067891240119934,-9.216180158025419e-05,-1.1331763709437443,-14.857943437593663
2026-06-27T13:59:50.738910,1782579491.4606903,17.338115692138672,-4.600266933441162,-115.60244750976562,4.594472885131836,-1.2188575267791748,-0.89151930809021,-9.148481261521548e-05,-1.1166100510986117,-14.857963387081478
2026-06-27T13:59:50.847679,1782579491.5686924,17.834571838378906,-4.73197078704834,-115.69789123535156,4.59890604019165,-1.2200349569320679,-0.8759558200836182,-9.1734156179267e-05,-1.101628960849597,-14.85793189097005
2026-06-27T13:59:50.956347,1782579491.6736946,18.31768226623535,-4.860133647918701,-115.7890853881836,4.6029486656188965,-1.221109390258789,-0.8609442114830017,-9.223246112237708e-05,-1.0888573356312243,-14.857904563985832
2026-06-27T13:59:51.065591,1782579491.778697,18.801204681396484,-4.988406181335449,-115.87869262695312,4.606759548187256,-1.2221221923828125,-0.8460671305656433,-9.232736989180387e-05,-1.0775844446843619,-14.85791369611349
2026-06-27T13:59:51.174121,1782579491.8866992,19.298948287963867,-5.120451927185059,-115.96923828125,4.610464096069336,-1.223106861114502,-0.8309029340744019,-9.295439922038542e-05,-1.067320422824902,-14.857893120779192
2026-06-27T13:59:51.283380,1782579491.9917016,19.78323745727539,-5.248929500579834,-116.05571746826172,4.613877296447754,-1.224014401435852,-0.8163062334060669,-9.325281483360382e-05,-1.0584329610169672,-14.85790322899105
2026-06-27T13:59:51.392557,1782579492.0997038,20.281726837158203,-5.381174564361572,-116.14307403564453,4.617217063903809,-1.2249023914337158,-0.8014470934867859,-9.352479200076293e-05,-1.0502522410587167,-14.857909967034814
2026-06-27T13:59:51.501313,1782579492.204706,20.766708374023438,-5.509835720062256,-116.22648620605469,4.620311260223389,-1.2257250547409058,-0.7871384620666504,-9.351100420810776e-05,-1.0430964287208457,-14.857919247806189
2026-06-27T13:59:51.609391,1782579492.3127084,21.26587677001953,-5.642261028289795,-116.31071472167969,4.62335205078125,-1.2265335321426392,-0.7725907564163208,-8.760267041414014e-05,-1.0364368647714226,-14.857927243209874
2026-06-27T13:59:51.718581,1782579492.4177105,21.751487731933594,-5.771089553833008,-116.39110565185547,4.626182556152344,-1.2272859811782837,-0.7585803866386414,-7.060520643801155e-05,-1.0305239905858552,-14.85793455412989
2026-06-27T13:59:51.827365,1782579492.522713,22.23739242553711,-5.899995803833008,-116.47002410888672,4.628899097442627,-1.2280077934265137,-0.7447137236595154,-6.752589242579265e-05,-1.0251022394756368,-14.857937736073769
2026-06-27T13:59:51.936468,1782579492.6307151,22.737470626831055,-6.0326619148254395,-116.54969787597656,4.631582736968994,-1.2287209033966064,-0.7306486964225769,-6.765773582066822e-05,-1.0199149802174448,-14.857944093443532
2026-06-27T13:59:52.044506,1782579492.7357173,23.22393035888672,-6.161715984344482,-116.62569427490234,4.634090900421143,-1.229387640953064,-0.7170618176460266,-6.87089082178337e-05,-1.0153219424218543,-14.857949248722868
2026-06-27T13:59:52.154168,1782579492.8407197,23.710647583007812,-6.290838241577148,-116.70028686523438,4.636506080627441,-1.2300297021865845,-0.7035468816757202,-6.502559814230285e-05,-1.0110262765262523,-14.85795256204616
2026-06-27T13:59:52.262529,1782579492.948722,24.211528778076172,-6.423718452453613,-116.77554321289062,4.638903617858887,-1.230666995048523,-0.6900013089179993,-6.903173596729282e-05,-1.0068396391732417,-14.857958697923136
2026-06-27T13:59:52.372248,1782579493.053724,24.698745727539062,-6.552972316741943,-116.84730529785156,4.641150951385498,-1.2312642335891724,-0.6768883466720581,-6.811941625865468e-05,-1.0030269478000007,-14.857971047629
2026-06-27T13:59:52.480449,1782579493.1587265,25.186189651489258,-6.682288646697998,-116.91769409179688,4.6433210372924805,-1.2318413257598877,-0.6639943718910217,-6.754935302962889e-05,-0.9993749482334543,-14.858031929462552
2026-06-27T13:59:52.588675,1782579493.2667286,25.68779945373535,-6.815361499786377,-116.98869323730469,4.645475387573242,-1.2324140071868896,-0.6508201956748962,-6.977929649147194e-05,-0.9958167988604901,-14.858043132524022
2026-06-27T13:59:52.698016,1782579493.374731,26.175691604614258,-6.944796085357666,-117.05636596679688,4.647500038146973,-1.232952356338501,-0.6382208466529846,-6.83046883182067e-05,-0.9925466170558848,-14.85804628600212
2026-06-27T13:59:52.806451,1782579493.4797332,26.67774200439453,-7.077986717224121,-117.12460327148438,4.649509429931641,-1.2334873676300049,-0.6253867745399475,-6.440844511692552e-05,-0.9892987249049376,-14.858049533563946
2026-06-27T13:59:52.915590,1782579493.5877357,27.18000602722168,-7.2112345695495605,-117.19146728515625,4.651453495025635,-1.2340043783187866,-0.612787127494812,-6.410968227265849e-05,-0.986188755968116,-14.858053077834153
2026-06-27T13:59:53.025873,1782579493.6927378,27.668516159057617,-7.34083366394043,-117.25518798828125,4.653281211853027,-1.2344905138015747,-0.6006981730461121,-6.39818233311497e-05,-0.9832561964877454,-14.8580570324866
2026-06-27T13:59:53.134335,1782579493.80074,28.171178817749023,-7.47418737411499,-117.31940460205078,4.6550984382629395,-1.2349735498428345,-0.5884271860122681,-6.348053752059781e-05,-0.9803556143000253,-14.858087328086427
2026-06-27T13:59:53.241891,1782579493.9087424,28.67403221130371,-7.607592582702637,-117.38229370117188,4.65685510635376,-1.2354406118392944,-0.5763201713562012,-6.313045828620353e-05,-0.9775776186523633,-14.858103952762852
2026-06-27T13:59:53.349861,1782579494.0047445,29.121173858642578,-7.7262163162231445,-117.4371109008789,4.6583662033081055,-1.2358427047729492,-0.565654993057251,-6.296417272202622e-05,-0.9751594084995189,-14.858113482081624
2026-06-27T13:59:53.458552,1782579494.1097467,29.610395431518555,-7.856005668640137,-117.49590301513672,4.659969806671143,-1.2362693548202515,-0.554324209690094,-6.286156665742126e-05,-0.9725590273659155,-14.858119981376333
2026-06-27T13:59:53.567836,1782579494.2147489,30.09978675842285,-7.985838413238525,-117.55351257324219,4.661516189575195,-1.2366809844970703,-0.5429279208183289,-6.25204853137675e-05,-0.9700873931434603,-14.858122423799044
2026-06-27T13:59:53.676926,1782579494.3227513,30.603321075439453,-8.119426727294922,-117.61152648925781,4.66305685043335,-1.237090826034546,-0.5315332412719727,-6.208707462320592e-05,-0.9675835231039913,-14.858130956801073
2026-06-27T13:59:53.784631,1782579494.4277534,31.093032836914062,-8.249345779418945,-117.66676330566406,4.664504528045654,-1.2374759912490845,-0.5205973982810974,-6.168852838975484e-05,-0.9652049333907903,-14.85815812657059
2026-06-27T13:59:53.893562,1782579494.5327556,31.5828914642334,-8.379303932189941,-117.72087097167969,4.6659040451049805,-1.2378480434417725,-0.5098214745521545,-6.157849461309703e-05,-0.9628907444917413,-14.85815834328818
2026-06-27T13:59:54.002286,1782579494.640758,32.08689498901367,-8.51301383972168,-117.77533721923828,4.667294979095459,-1.2382181882858276,-0.4989164173603058,-6.1138497652863e-05,-0.9605883424898889,-14.858178702510337
2026-06-27T13:59:54.110616,1782579494.7457602,32.57704162597656,-8.643047332763672,-117.8271713256836,4.668601036071777,-1.2385655641555786,-0.4884774088859558,-6.101055885371387e-05,-0.9584023480081769,-14.858179218119005
2026-06-27T13:59:54.219709,1782579494.8537626,33.08133316040039,-8.776833534240723,-117.87935638427734,4.669898986816406,-1.2389110326766968,-0.47793373465538025,-6.093369132040394e-05,-0.9562101847482837,-14.858185834099649
2026-06-27T13:59:54.328692,1782579494.9587648,33.571746826171875,-8.906938552856445,-117.92900085449219,4.671118259429932,-1.2392351627349854,-0.4678308665752411,-6.0572826897842315e-05,-0.9541287167938207,-14.858205844950016
2026-06-27T13:59:54.437924,1782579495.0667672,34.07630157470703,-9.040796279907227,-117.97897338867188,4.672328472137451,-1.2395576238632202,-0.4576398432254791,-6.0423749709811986e-05,-0.9520166679445494,-14.858206549800304
2026-06-27T13:59:54.546587,1782579495.1747694,34.58098602294922,-9.174688339233398,-118.02784729003906,4.673494815826416,-1.239868402481079,-0.44756731390953064,-5.991641886630152e-05,-0.9500045218408516,-14.858237228031946
2026-06-27T13:59:54.654268,1782579495.2797716,35.071781158447266,-9.304893493652344,-118.07433319091797,4.674589157104492,-1.2401599884033203,-0.4379679560661316,-5.9689332031781766e-05,-0.9480781953625558,-14.858240950422532
2026-06-27T13:59:54.762376,1782579495.387774,35.57671356201172,-9.438850402832031,-118.1211166381836,4.675674915313721,-1.2404491901397705,-0.4282495081424713,-5.9628724804659514e-05,-0.9461491156209759,-14.858255215844988
2026-06-27T13:59:54.872551,1782579495.4927762,36.067726135253906,-9.56911563873291,-118.16559600830078,4.676692008972168,-1.240720272064209,-0.4189779460430145,-5.9454321429000404e-05,-0.9443226832174546,-14.858259165440554
2026-06-27T13:59:54.981146,1782579495.5977783,36.558834075927734,-9.699407577514648,-118.2091064453125,4.677674293518066,-1.2409818172454834,-0.4098677337169647,-5.5457187007868176e-05,-0.9425442381081335,-14.858260651597321
2026-06-27T13:59:55.089610,1782579495.7027807,37.05003356933594,-9.82972526550293,-118.25167846679688,4.678621768951416,-1.2412340641021729,-0.40091758966445923,-4.3459229522798566e-05,-0.9408115718822474,-14.858262306754
2026-06-27T13:59:55.199306,1782579495.8047829,37.52732849121094,-9.956344604492188,-118.29212951660156,4.679508209228516,-1.241470217704773,-0.39235663414001465,-3.7888974615108074e-05,-0.9391691894717265,-14.858289499976976
2026-06-27T13:59:55.308784,1782579495.906785,38.004695892333984,-10.082992553710938,-118.33171081542969,4.680363655090332,-1.241698145866394,-0.38395509123802185,-3.731940402956305e-05,-0.9375954893050504,-14.858293157449229
2026-06-27T13:59:55.416436,1782579496.0087872,38.48212432861328,-10.209659576416016,-118.3704605102539,4.68118953704834,-1.2419178485870361,-0.37567731738090515,-4.206655468568839e-05,-0.9360528324420575,-14.858295092144502
2026-06-27T13:59:55.526182,1782579496.1167896,38.987770080566406,-10.343796730041504,-118.41057586669922,4.682033061981201,-1.2421424388885498,-0.3671795427799225,-3.874211350407787e-05,-0.934424629199734,-14.858296919255405
2026-06-27T13:59:55.633558,1782579496.2217917,39.479434967041016,-10.47424030303955,-118.44868469238281,4.682821750640869,-1.2423522472381592,-0.35900965332984924,-3.817513508403765e-05,-0.9329008407136682,-14.858310343261595
2026-06-27T13:59:55.744307,1782579496.329794,39.9852180480957,-10.608428955078125,-118.48700714111328,4.683603763580322,-1.2425602674484253,-0.35076066851615906,-3.933158476390686e-05,-0.9313712787125071,-14.8583123508394
2026-06-27T13:59:55.852479,1782579496.4347963,40.47706604003906,-10.738905906677246,-118.52342224121094,4.684334754943848,-1.2427544593811035,-0.3428804874420166,-3.843006809004485e-05,-0.9299451019229428,-14.858314595485576
2026-06-27T13:59:55.961167,1782579496.5397985,40.96894454956055,-10.869413375854492,-118.55902099609375,4.685038089752197,-1.2429413795471191,-0.3351598083972931,-3.981485113603268e-05,-0.9285467815472767,-14.858344028555381
2026-06-27T13:59:56.069906,1782579496.6448007,41.46094512939453,-10.999930381774902,-118.59381103515625,4.685713768005371,-1.2431213855743408,-0.32758644223213196,-4.483301891824007e-05,-0.9271926319491265,-14.858346383716947
2026-06-27T13:59:56.178494,1782579496.752803,41.9670295715332,-11.134203910827637,-118.6287841796875,4.686380863189697,-1.2432992458343506,-0.319937139749527,-3.877571094532277e-05,-0.9258436543947777,-14.858346239767453
2026-06-27T13:59:56.287497,1782579496.8578053,42.459163665771484,-11.26476001739502,-118.66199493408203,4.687005519866943,-1.2434654235839844,-0.31266099214553833,-4.47081567784765e-05,-0.9245691672310453,-14.858348760634813
2026-06-27T13:59:56.396282,1782579496.9658077,42.96538162231445,-11.399067878723145,-118.69536590576172,4.687621593475342,-1.2436299324035645,-0.30530834197998047,-3.876850416492929e-05,-0.9233121549201604,-14.858362812587224
2026-06-27T13:59:56.505538,1782579497.0708098,43.45764923095703,-11.529658317565918,-118.72705078125,4.688197612762451,-1.2437833547592163,-0.2982906699180603,-4.28027610720437e-05,-0.9221296071630166,-14.858362942224932
2026-06-27T13:59:56.614230,1782579497.1788123,43.96398162841797,-11.664000511169434,-118.7588882446289,4.688766956329346,-1.243935227394104,-0.29127082228660583,-3.7569578561087296e-05,-0.9209384814274089,-14.85836573541244
2026-06-27T13:59:56.723462,1782579497.2838144,44.45637512207031,-11.7946195602417,-118.78910827636719,4.689298152923584,-1.2440766096115112,-0.2845628261566162,-3.981563236549924e-05,-0.9198159768414004,-14.858366009322657
2026-06-27T13:59:56.832039,1782579497.3888166,44.94877624511719,-11.925263404846191,-118.81864929199219,4.689808368682861,-1.2442127466201782,-0.2779889702796936,-3.911750253742001e-05,-0.91873567188925,-14.858399644280913
2026-06-27T13:59:56.940503,1782579497.493819,45.44123840332031,-12.055907249450684,-118.84749603271484,4.690298557281494,-1.2443432807922363,-0.2715468406677246,-3.788978584975289e-05,-0.9176890282677874,-14.858400107355775
2026-06-27T13:59:57.050676,1782579497.6018212,45.947845458984375,-12.190314292907715,-118.87647247314453,4.690781593322754,-1.2444722652435303,-0.2650626599788666,-3.561885822485368e-05,-0.9166468771196146,-14.858400590418503
2026-06-27T13:59:57.158314,1782579497.7098234,46.45445251464844,-12.324725151062012,-118.90475463867188,4.691246032714844,-1.244596004486084,-0.25872403383255005,-3.671471307925454e-05,-0.9156388550661478,-14.858401118888642
2026-06-27T13:59:57.267521,1782579497.8148258,46.94709014892578,-12.455411911010742,-118.93160247802734,4.691678047180176,-1.2447115182876587,-0.2526789903640747,-3.6596995260579686e-05,-0.9146923500475026,-14.85840178523525
2026-06-27T13:59:57.376772,1782579497.919828,47.43975830078125,-12.586122512817383,-118.95781707763672,4.692093372344971,-1.2448221445083618,-0.24675969779491425,-3.636365410998808e-05,-0.9137751069250478,-14.858402514333221
2026-06-27T13:59:57.485250,1782579498.02483,47.93242645263672,-12.716833114624023,-118.9834213256836,4.692491054534912,-1.2449281215667725,-0.24095098674297333,-3.600593924876574e-05,-0.9128933955450657,-14.858417317960136
2026-06-27T13:59:57.595953,1782579498.1298325,48.42518615722656,-12.847555160522461,-119.00843811035156,4.692873001098633,-1.2450299263000488,-0.23528775572776794,-3.5654805955520985e-05,-0.9120357672844854,-14.858418173329065
2026-06-27T13:59:57.703109,1782579498.2318347,48.903907775878906,-12.974563598632812,-119.03215026855469,4.693228244781494,-1.2451249361038208,-0.22988364100456238,-3.5329284063921386e-05,-0.9112306685320641,-14.858419137232906
2026-06-27T13:59:57.811340,1782579498.3398368,49.410789489746094,-13.10904312133789,-119.05667114257812,4.693589210510254,-1.245221734046936,-0.22432035207748413,-3.5081956088307386e-05,-0.9104079629462106,-14.858437564948632
2026-06-27T13:59:57.919779,1782579498.4448392,49.90360641479492,-13.239787101745605,-119.07994079589844,4.693925380706787,-1.2453113794326782,-0.21898441016674042,-3.372986855761571e-05,-0.9096450028504622,-14.85845002123707
2026-06-27T13:59:58.028959,1782579498.5498414,50.396541595458984,-13.370563507080078,-119.10265350341797,4.694247245788574,-1.245397686958313,-0.2137817144393921,-3.359387377086039e-05,-0.908901496456906,-14.858451113177948
2026-06-27T13:59:58.137752,1782579498.6578438,50.903560638427734,-13.505077362060547,-119.12545776367188,4.694564342498779,-1.2454824447631836,-0.20855170488357544,-3.316655296590829e-05,-0.9081654866094045,-14.858452223896059
2026-06-27T13:59:58.247056,1782579498.765846,51.410579681396484,-13.639591217041016,-119.147705078125,4.6948676109313965,-1.2455633878707886,-0.20338745415210724,-3.286594742635852e-05,-0.9074616200758916,-14.858450796547679
2026-06-27T13:59:58.355241,1782579498.8708482,51.90351486206055,-13.77037239074707,-119.16880798339844,4.695151329040527,-1.2456389665603638,-0.19855862855911255,-2.320844368799544e-05,-0.9067984598881293,-14.858452130474308
2026-06-27T13:59:58.464301,1782579498.9758506,52.39657974243164,-13.901183128356934,-119.18941497802734,4.6954216957092285,-1.2457109689712524,-0.19381102919578552,-1.0095770718491095e-05,-0.9061502410438682,-14.858453522892457
