time,sim_t,x,y,z,vx,vy,vz,roll_deg,pitch_deg,yaw_deg
2026-06-27T14:20:15.247075,1782580693.4333317,0.0,0.0,2.0397043228149414,0.0,0.0,0.0,0.0,0.0,0.0003895640909249624
2026-06-27T14:20:15.348972,1782580693.5323339,0.0,0.0,2.0397043228149414,0.0,0.0,0.0,0.0,0.0,0.0003895640909249624
2026-06-27T14:20:15.458778,1782580693.6433363,0.0,0.0,2.0397043228149414,0.0,0.0,0.0,0.0,0.0,0.0003895640909249624
2026-06-27T14:20:15.567932,1782580693.7513385,0.0,0.0,2.0397043228149414,0.0,0.0,0.0,0.0,0.0,0.0003895640909249624
2026-06-27T14:20:15.675099,1782580693.859341,0.0,0.0,2.0397043228149414,0.0,0.0,0.0,0.0,0.0,0.0003895640909249624
2026-06-27T14:20:15.784775,1782580693.964343,0.0,0.0,2.0397043228149414,0.0,0.0,0.0,0.0,0.0,0.0003895640909249624
2026-06-27T14:20:15.893479,1782580694.0723453,0.0,0.0,2.0397043228149414,0.0,0.0,0.0,0.0,0.0,0.0003895640909249624
2026-06-27T14:20:16.004256,1782580694.1803477,0.0,0.0,2.0397043228149414,0.0,0.0,0.0,0.0,0.0,0.0003895640909249624
2026-06-27T14:20:16.110443,1782580694.2883499,0.0,0.0,2.0397043228149414,0.0,0.0,0.0,0.0,0.0,0.0003895640909249624
2026-06-27T14:20:16.220190,1782580694.3963523,0.0,0.0,2.0397043228149414,0.0,0.0,0.0,0.0,0.0,0.0003895640909249624
2026-06-27T14:20:16.329922,1782580694.5043545,0.0,0.0,2.0397043228149414,0.0,0.0,0.0,0.0,0.0,0.0003895640909249624
2026-06-27T14:20:16.439117,1782580694.612357,0.0,0.0,2.0397043228149414,0.0,0.0,0.0,0.0,0.0,0.0003895640909249624
2026-06-27T14:20:16.548336,1782580694.720359,0.0,0.0,2.0397043228149414,0.0,0.0,0.0,0.0,0.0,0.0003895640909249624
2026-06-27T14:20:16.658540,1782580694.8313615,0.0,0.0,2.0397043228149414,0.0,0.0,0.0,0.0,0.0,0.0003895640909249624
2026-06-27T14:20:16.766171,1782580694.9363637,0.0,0.0,2.037428140640259,0.0,0.0,-0.16505137085914612,0.0,0.0,0.0003895640909249624
2026-06-27T14:20:16.874851,1782580695.041366,0.0,0.0,2.0031895637512207,0.0,0.0,-0.40821242332458496,0.0,0.0,0.0003895640909249624
2026-06-27T14:20:16.984035,1782580695.1493683,0.0,0.0,1.956762433052063,0.0,0.0,-0.4419781267642975,0.0,0.0,0.0003895640909249624
2026-06-27T14:20:17.093184,1782580695.2543705,0.0,0.0,1.9098505973815918,0.0,0.0,-0.4504756033420563,0.0,0.0,0.0003895640909249624
2026-06-27T14:20:17.201717,1782580695.3593729,0.0,0.0,1.8622592687606812,0.0,0.0,-0.4557986557483673,0.0,0.0,0.0003895640909249624
2026-06-27T14:20:17.309420,1782580695.467375,0.0,0.0,1.8127774000167847,0.0,0.0,-0.46040797233581543,0.0,0.0,0.0003895640909249624
2026-06-27T14:20:17.419155,1782580695.5753775,0.0,0.0,1.7628284692764282,0.0,0.0,-0.4644742012023926,0.0,0.0,0.0003895640909249624
2026-06-27T14:20:17.528429,1782580695.6773796,0.0,0.0,1.715273380279541,0.0,0.0,-0.46789464354515076,0.0,0.0,0.0003895640909249624
2026-06-27T14:20:17.635093,1782580695.7823818,0.0,0.0,1.6659750938415527,0.0,0.0,-0.4710385799407959,0.0,0.0,0.0003895640909249624
2026-06-27T14:20:17.744782,1782580695.8873842,0.0,0.0,1.6163647174835205,0.0,0.0,-0.47384145855903625,0.0,0.0,0.0003895640909249624
2026-06-27T14:20:17.854885,1782580695.9953864,0.0,0.0,1.5650475025177002,0.0,0.0,-0.4764074981212616,0.0,0.0,0.0003895640909249624
2026-06-27T14:20:17.963120,1782580696.1003885,0.0,0.0,1.5149047374725342,0.0,0.0,-0.478628009557724,0.0,0.0,0.0003895640909249624
2026-06-27T14:20:18.071733,1782580696.208391,0.0,0.0,1.4630998373031616,0.0,0.0,-0.48066097497940063,0.0,0.0,0.0003895640909249624
2026-06-27T14:20:18.179928,1782580696.313393,0.0,0.0,1.412535309791565,0.0,0.0,-0.4824201464653015,0.0,0.0,0.0003895640909249624
2026-06-27T14:20:18.289022,1782580696.4213955,0.0,0.0,1.3603440523147583,0.0,0.0,-0.4840308725833893,0.0,0.0,0.0003895640909249624
2026-06-27T14:20:18.398657,1782580696.5293977,0.0,0.0,1.307989478111267,0.0,0.0,-0.48546212911605835,0.0,0.0,0.0003895640909249624
2026-06-27T14:20:18.506415,1782580696.6344,0.0,0.0,1.256948471069336,0.0,0.0,-0.48670074343681335,0.0,0.0,0.0003895640909249624
2026-06-27T14:20:18.614597,1782580696.7394023,0.0,0.0,1.2057846784591675,0.0,0.0,-0.487805038690567,0.0,0.0,0.0003895640909249624
2026-06-27T14:20:18.723981,1782580696.8444045,0.0,0.0,1.1545113325119019,0.0,0.0,-0.48878955841064453,0.0,0.0,0.0003895640909249624
2026-06-27T14:20:18.832563,1782580696.9494066,0.0,0.0,1.1031403541564941,0.0,0.0,-0.4896673858165741,0.0,0.0,0.0003895640909249624
2026-06-27T14:20:18.941696,1782580697.054409,0.0,0.0,1.0516822338104248,0.0,0.0,-0.490449994802475,0.0,0.0,0.0003895640909249624
2026-06-27T14:20:19.050430,1782580697.1594112,0.0,0.0,1.000146746635437,0.0,0.0,-0.49114784598350525,0.0,0.0,0.0003895640909249624
2026-06-27T14:20:19.159633,1782580697.2644134,0.0,0.0,0.9485418796539307,0.0,0.0,-0.4917699992656708,0.0,0.0,0.0003895640909249624
2026-06-27T14:20:19.268718,1782580697.3724158,0.0,0.0,0.8953982591629028,0.0,0.0,-0.492339551448822,0.0,0.0,0.0003895640909249624
2026-06-27T14:20:19.377284,1782580697.480418,0.0,0.0,0.842196524143219,0.0,0.0,-0.4928457736968994,0.0,0.0,0.0003895640909249624
2026-06-27T14:20:19.485993,1782580697.5884204,0.0,0.0,0.7889432311058044,0.0,0.0,-0.4932956397533417,0.0,0.0,0.0003895640909249624
2026-06-27T14:20:19.595175,1782580697.6964226,0.0,0.0,0.7356441617012024,0.0,0.0,-0.4936954975128174,0.0,0.0,0.0003895640909249624
2026-06-27T14:20:19.703408,1782580697.804425,0.0,0.0,0.6823046803474426,0.0,0.0,-0.49405062198638916,0.0,0.0,0.0003895640909249624
2026-06-27T14:20:19.812673,1782580697.9124272,0.0,0.0,0.6289287209510803,0.0,0.0,-0.494366317987442,0.0,0.0,0.0003895640909249624
2026-06-27T14:20:19.921396,1782580698.0174296,0.0,0.0,0.577004611492157,0.0,0.0,-0.49463945627212524,0.0,0.0,0.0003895640909249624
2026-06-27T14:20:20.029556,1782580698.1254318,0.0,0.0,0.5238534212112427,0.0,0.0,-0.44553568959236145,0.0,0.0,0.0003895640909249624
2026-06-27T14:20:20.138215,1782580698.2334342,0.0,0.0,0.5016326308250427,0.0,0.0,-0.03401407226920128,0.0,0.0,0.0003895640909249624
2026-06-27T14:20:20.247306,1782580698.3414364,0.0,0.0,0.4986158311367035,0.0,0.0,-0.20424717664718628,0.0,0.0,0.00038417346663265474
2026-06-27T14:20:20.355022,1782580698.4494388,0.0,0.0,0.4375796914100647,0.0,0.0,-0.9241235852241516,0.0,0.0,0.00030966868844385686
2026-06-27T14:20:20.464790,1782580698.554441,0.0,0.0,0.3045201003551483,0.0,0.0,-1.6062854528427124,0.0,0.0,0.00019048876076239982
2026-06-27T14:20:20.573948,1782580698.6594431,0.0,0.0,0.1012943834066391,0.0,0.0,-2.2587263584136963,0.0,0.0,6.701488029917744e-05
2026-06-27T14:20:20.684159,1782580698.7644455,0.0,0.0,-0.1684306412935257,0.0,0.0,-2.8714540004730225,0.0,0.0,-3.203795834187574e-05
2026-06-27T14:20:20.793521,1782580698.8724477,0.0,0.0,-0.5104086399078369,0.0,0.0,-3.452516794204712,0.0,0.0,-9.33557110334503e-05
2026-06-27T14:20:20.900812,1782580698.97745,0.0,0.0,-0.900300920009613,0.0,0.0,-3.964966058731079,0.0,0.0,-0.00011255773640519724
2026-06-27T14:20:21.009285,1782580699.0824523,0.0,0.0,-1.3411898612976074,0.0,0.0,-4.4237446784973145,0.0,0.0,-0.00010061439592926822
2026-06-27T14:20:21.118928,1782580699.1904545,0.0,0.0,-1.8419445753097534,0.0,0.0,-4.840027809143066,0.0,0.0,-6.88073607167847e-05
2026-06-27T14:20:21.227621,1782580699.298457,0.0,0.0,-2.3836426734924316,0.0,0.0,-5.142233371734619,0.0,0.0,-3.125495035795371e-05
2026-06-27T14:20:21.336332,1782580699.403459,0.0,0.0,-2.9260339736938477,0.0,0.0,-5.171114921569824,0.0,0.0,4.912653718774857e-07
2026-06-27T14:20:21.445132,1782580699.5084612,0.0,0.0,-3.468343496322632,0.0,0.0,-5.157017230987549,0.0,0.0,2.1682323079404897e-05
2026-06-27T14:20:21.555152,1782580699.6134636,0.0,0.0,-4.008973598480225,0.0,0.0,-5.140606880187988,0.0,0.0,3.11251210318561e-05
2026-06-27T14:20:21.662873,1782580699.7184658,0.0,0.0,-4.5479416847229,0.0,0.0,-5.125498294830322,0.0,0.0,3.0513239713793328e-05
2026-06-27T14:20:21.771279,1782580699.823468,0.0,0.0,-5.085402011871338,0.0,0.0,-5.111875057220459,0.0,0.0,2.3189736233132044e-05
2026-06-27T14:20:21.880035,1782580699.9314704,0.0,0.0,-5.636804103851318,0.0,0.0,-5.099287509918213,0.0,0.0,1.2718541699309152e-05
2026-06-27T14:20:21.989454,1782580700.0364726,0.0,0.0,-6.171651840209961,0.0,0.0,-5.088296413421631,0.0,0.0,2.9819339778269867e-06
2026-06-27T14:20:22.098705,1782580700.144475,0.0,0.0,-6.72064208984375,0.0,0.0,-5.078144073486328,0.0,0.0,-4.53558130284777e-06
2026-06-27T14:20:22.207085,1782580700.2524772,0.0,0.0,-7.2685933113098145,0.0,0.0,-5.069040298461914,0.0,0.0,-9.40024833925499e-06
2026-06-27T14:20:22.317887,1782580700.3484793,0.0,0.0,-7.754876136779785,0.0,0.0,-5.061742305755615,0.0,0.0,-1.222529904019728e-05
2026-06-27T14:20:22.425155,1782580700.4504814,0.0,0.0,-8.270821571350098,0.0,0.0,-5.054725646972656,0.0,0.0,-1.4067134338461646e-05
2026-06-27T14:20:22.534432,1782580700.5524836,0.0,0.0,-8.786087036132812,0.0,0.0,-5.048397064208984,0.0,0.0,-1.1945972855629417e-05
2026-06-27T14:20:22.643678,1782580700.6514857,0.0,0.0,-9.285611152648926,0.0,0.0,-5.042847633361816,0.0,0.0,-9.966617090270067e-06
2026-06-27T14:20:22.751921,1782580700.7534878,0.0,0.0,-9.799727439880371,0.0,0.0,-5.037682056427002,0.0,0.0,-8.557976392953557e-06
2026-06-27T14:20:22.860658,1782580700.85549,0.0,0.0,-10.313340187072754,0.0,0.0,-5.033024311065674,0.0,0.0,-7.705791293820939e-06
2026-06-27T14:20:22.969439,1782580700.948492,0.0,0.0,-10.78123950958252,0.0,0.0,-5.029176712036133,0.0,0.0,-7.11353923969699e-06
2026-06-27T14:20:23.080339,1782580701.0534942,0.0,0.0,-11.309104919433594,0.0,0.0,-5.025245189666748,0.0,0.0,-6.44486756568608e-06
2026-06-27T14:20:23.188047,1782580701.1554964,0.0,0.0,-11.821513175964355,0.0,0.0,-5.021806240081787,0.0,0.0,-5.7953007966469106e-06
2026-06-27T14:20:23.296785,1782580701.2544985,0.0,0.0,-12.318530082702637,0.0,0.0,-5.018791198730469,0.0,0.0,-5.1648389325794835e-06
2026-06-27T14:20:23.404512,1782580701.359501,0.0,0.0,-12.845359802246094,0.0,0.0,-5.015906810760498,0.0,0.0,-4.496167258568575e-06
2026-06-27T14:20:23.516171,1782580701.461503,0.0,0.0,-13.35686206817627,0.0,0.0,-5.013383865356445,0.0,0.0,-3.846600489529409e-06
2026-06-27T14:20:23.623406,1782580701.5665052,0.0,0.0,-13.883153915405273,0.0,0.0,-5.011045455932617,0.0,0.0,-3.177928815518502e-06
2026-06-27T14:20:23.731835,1782580701.6715074,0.0,0.0,-14.409212112426758,0.0,0.0,-5.008942127227783,0.0,0.0,-2.5092571415075956e-06
2026-06-27T14:20:23.840564,1782580701.7795098,0.0,0.0,-14.950082778930664,0.0,0.0,-5.006999969482422,0.0,0.0,-1.8214805625249502e-06
2026-06-27T14:20:23.949261,1782580701.884512,0.0,0.0,-15.475738525390625,0.0,0.0,-5.00530481338501,0.0,0.0,-1.1528088885140449e-06
2026-06-27T14:20:24.059355,1782580701.9895144,0.0,0.0,-16.001224517822266,0.0,0.0,-5.003780364990234,0.0,0.0,-4.841372145031394e-07
2026-06-27T14:20:24.168085,1782580702.0945165,0.0,0.0,-16.52655792236328,0.0,0.0,-5.002409934997559,0.0,0.0,1.837280616738275e-07
2026-06-27T14:20:24.274993,1782580702.2025187,0.0,0.0,-17.066761016845703,0.0,0.0,-5.001143932342529,0.0,0.0,6.25029120449361e-07
2026-06-27T14:20:24.385191,1782580702.3105211,0.0,0.0,-17.606836318969727,0.0,0.0,-5.000009059906006,0.0,0.0,8.456857755854442e-07
2026-06-27T14:20:24.493948,1782580702.4155233,0.0,0.0,-18.131790161132812,0.0,0.0,-4.999018669128418,0.0,0.0,9.433718562945424e-07
2026-06-27T14:20:24.602663,1782580702.5235257,0.0,0.0,-18.67165184020996,0.0,0.0,-4.998103618621826,0.0,0.0,9.918172509805961e-07
2026-06-27T14:20:24.711788,1782580702.6285279,0.0,0.0,-19.1964168548584,0.0,0.0,-4.997305870056152,0.0,0.0,1.0303066444027958e-06
2026-06-27T14:20:24.820487,1782580702.73653,0.0,0.0,-19.736095428466797,0.0,0.0,-4.99656867980957,0.0,0.0,1.0400052497373886e-06
2026-06-27T14:20:24.929175,1782580702.8445325,0.0,0.0,-20.275699615478516,0.0,0.0,-4.995907306671143,0.0,0.0,1.0497038550719815e-06
2026-06-27T14:20:25.037977,1782580702.9495347,0.0,0.0,-20.800251007080078,0.0,0.0,-4.995330810546875,0.0,0.0,1.0591330547028353e-06
2026-06-27T14:20:25.145059,1782580703.057537,0.0,0.0,-21.339731216430664,0.0,0.0,-4.994797706604004,0.0,0.0,1.0688316600374282e-06
2026-06-27T14:20:25.255058,1782580703.1655393,0.0,0.0,-21.879159927368164,0.0,0.0,-4.994319915771484,0.0,0.0,1.0785302653720208e-06
2026-06-27T14:20:25.364073,1782580703.2735417,0.0,0.0,-22.41852569580078,0.0,0.0,-4.993891716003418,0.0,0.0,1.0389866580173218e-06
2026-06-27T14:20:25.472373,1782580703.3785439,0.0,0.0,-22.94287872314453,0.0,0.0,-4.993517875671387,0.0,0.0,9.919083420666733e-07
2026-06-27T14:20:25.580924,1782580703.4865463,0.0,0.0,-23.48217010498047,0.0,0.0,-4.993173122406006,0.0,0.0,9.434849313745778e-07
2026-06-27T14:20:25.690613,1782580703.5915484,0.0,0.0,-24.00644874572754,0.0,0.0,-4.992871284484863,0.0,0.0,8.964066154239293e-07
2026-06-27T14:20:25.799818,1782580703.6995506,0.0,0.0,-24.545671463012695,0.0,0.0,-4.992592811584473,0.0,0.0,8.479832047318337e-07
2026-06-27T14:20:25.908504,1782580703.807553,0.0,0.0,-25.084884643554688,0.0,0.0,-4.992342948913574,0.0,0.0,7.995597940397382e-07
2026-06-27T14:20:26.016799,1782580703.9125552,0.0,0.0,-25.60906219482422,0.0,0.0,-4.992124557495117,0.0,0.0,7.524814780890897e-07
2026-06-27T14:20:26.124984,1782580704.0175576,0.0,0.0,-26.13323974609375,0.0,0.0,-4.991929531097412,0.0,0.0,7.054031621384413e-07
2026-06-27T14:20:26.234636,1782580704.1255598,0.0,0.0,-26.672393798828125,0.0,0.0,-4.991748332977295,0.0,0.0,6.569797514463458e-07
2026-06-27T14:20:26.342824,1782580704.230562,0.0,0.0,-27.19650650024414,0.0,0.0,-4.99159049987793,0.0,0.0,6.099014354956972e-07
2026-06-27T14:20:26.452578,1782580704.3385644,0.0,0.0,-27.735591888427734,0.0,0.0,-4.991444110870361,0.0,0.0,5.614780248036017e-07
2026-06-27T14:20:26.561324,1782580704.4465666,0.0,0.0,-28.274677276611328,0.0,0.0,-4.991312503814697,0.0,0.0,5.130546141115062e-07
2026-06-27T14:20:26.670219,1782580704.551569,0.0,0.0,-28.79878807067871,0.0,0.0,-4.9911956787109375,0.0,0.0,4.659762981608577e-07
2026-06-27T14:20:26.779505,1782580704.6625712,0.0,0.0,-29.35283660888672,0.0,0.0,-4.991089820861816,0.0,0.0,4.1620799628281464e-07
2026-06-27T14:20:26.888273,1782580704.7675736,0.0,0.0,-29.876880645751953,0.0,0.0,-4.990998268127441,0.0,0.0,3.69130570887477e-07
2026-06-27T14:20:26.997017,1782580704.8755758,0.0,0.0,-30.415897369384766,0.0,0.0,-4.990912437438965,0.0,0.0,3.207080761951297e-07
2026-06-27T14:20:27.105738,1782580704.9835782,0.0,0.0,-30.954914093017578,0.0,0.0,-4.9908366203308105,0.0,0.0,2.722855815027824e-07
2026-06-27T14:20:27.214388,1782580705.0885804,0.0,0.0,-31.478958129882812,0.0,0.0,-4.990769863128662,0.0,0.0,2.2520815610744475e-07
2026-06-27T14:20:27.324037,1782580705.1965826,0.0,0.0,-32.017974853515625,0.0,0.0,-4.9907050132751465,0.0,0.0,1.7678566141509746e-07
2026-06-27T14:20:27.432845,1782580705.304585,0.0,0.0,-32.55699157714844,0.0,0.0,-4.990651607513428,0.0,0.0,1.2836316672275017e-07
2026-06-27T14:20:27.541490,1782580705.4125872,0.0,0.0,-33.09600830078125,0.0,0.0,-4.990600109100342,0.0,0.0,7.994054480821561e-08
2026-06-27T14:20:27.650614,1782580705.5205896,0.0,0.0,-33.63502502441406,0.0,0.0,-4.990553855895996,0.0,0.0,3.151787518536084e-08
2026-06-27T14:20:27.759675,1782580705.6285918,0.0,0.0,-34.174041748046875,0.0,0.0,-4.990516662597656,0.0,0.0,-1.6904749909728398e-08
2026-06-27T14:20:27.869128,1782580705.7335942,0.0,0.0,-34.69808578491211,0.0,0.0,-4.990482807159424,0.0,0.0,-6.398230888836266e-08
2026-06-27T14:20:27.976852,1782580705.8415964,0.0,0.0,-35.23710250854492,0.0,0.0,-4.990448474884033,0.0,0.0,-1.1240500077510022e-07
2026-06-27T14:20:28.085051,1782580705.9465988,0.0,0.0,-35.761146545410156,0.0,0.0,-4.990417957305908,0.0,0.0,-1.5948242617043786e-07
2026-06-27T14:20:28.194812,1782580706.057601,0.0,0.0,-36.31513595581055,0.0,0.0,-4.990391731262207,0.0,0.0,-2.0924999015979482e-07
2026-06-27T14:20:28.305012,1782580706.1626034,0.0,0.0,-36.83917999267578,0.0,0.0,-4.990370273590088,0.0,0.0,-2.5632741555513244e-07
2026-06-27T14:20:28.414204,1782580706.2706056,0.0,0.0,-37.378196716308594,0.0,0.0,-4.990349769592285,0.0,0.0,-3.0474991024747975e-07
2026-06-27T14:20:28.522916,1782580706.381608,0.0,0.0,-37.932186126708984,0.0,0.0,-4.990330696105957,0.0,0.0,-3.545174742368367e-07
2026-06-27T14:20:28.634679,1782580706.4896102,0.0,0.0,-38.4712028503418,0.0,0.0,-4.990313529968262,0.0,0.0,-4.02939968929184e-07
2026-06-27T14:20:28.740404,1782580706.5946126,0.0,0.0,-38.99524688720703,0.0,0.0,-4.990296840667725,0.0,0.0,-4.5001785232439577e-07
2026-06-27T14:20:28.848372,1782580706.7026148,0.0,0.0,-39.534263610839844,0.0,0.0,-4.990279674530029,0.0,0.0,-4.984412630164913e-07
2026-06-27T14:20:28.959154,1782580706.810617,0.0,0.0,-40.073280334472656,0.0,0.0,-4.990264892578125,0.0,0.0,-5.468646737085869e-07
2026-06-27T14:20:29.067401,1782580706.9186194,0.0,0.0,-40.61229705810547,0.0,0.0,-4.99025297164917,0.0,0.0,-5.952880844006824e-07
2026-06-27T14:20:29.176067,1782580707.0266216,0.0,0.0,-41.15131378173828,0.0,0.0,-4.9902424812316895,0.0,0.0,-6.43711495092778e-07
2026-06-27T14:20:29.284918,1782580707.134624,0.0,0.0,-41.690330505371094,0.0,0.0,-4.990234851837158,0.0,0.0,-6.921349057848735e-07
2026-06-27T14:20:29.394136,1782580707.2426262,0.0,0.0,-42.229347229003906,0.0,0.0,-4.990225315093994,0.0,0.0,-7.405583164769691e-07
2026-06-27T14:20:29.502831,1782580707.3506286,0.0,0.0,-42.76836395263672,0.0,0.0,-4.990217208862305,0.0,0.0,-7.889817271690647e-07
2026-06-27T14:20:29.611032,1782580707.4586308,0.0,0.0,-43.30738067626953,0.0,0.0,-4.99021053314209,0.0,0.0,-8.374051378611602e-07
2026-06-27T14:20:29.720746,1782580707.5666332,0.0,0.0,-43.846397399902344,0.0,0.0,-4.99020528793335,0.0,0.0,-8.858285485532558e-07
2026-06-27T14:20:29.829436,1782580707.6716354,0.0,0.0,-44.37044143676758,0.0,0.0,-4.990199565887451,0.0,0.0,-9.329068645039043e-07
2026-06-27T14:20:29.938142,1782580707.7796378,0.0,0.0,-44.90945816040039,0.0,0.0,-4.990194320678711,0.0,0.0,-9.813302751959999e-07
2026-06-27T14:20:30.047318,1782580707.88464,0.0,0.0,-45.433502197265625,0.0,0.0,-4.990189552307129,0.0,0.0,-1.0284085911466482e-06
2026-06-27T14:20:30.154963,1782580707.9926424,0.0,0.0,-45.97251892089844,0.0,0.0,-4.990185737609863,0.0,0.0,-1.076832001838744e-06
2026-06-27T14:20:30.264810,1782580708.1006446,0.0,0.0,-46.51153564453125,0.0,0.0,-4.990180969238281,0.0,0.0,-1.1252554125308395e-06
2026-06-27T14:20:30.373542,1782580708.2056468,0.0,0.0,-47.035579681396484,0.0,0.0,-4.990177154541016,0.0,0.0,-1.172333728481488e-06
2026-06-27T14:20:30.484256,1782580708.3136492,0.0,0.0,-47.5745964050293,0.0,0.0,-4.990174293518066,0.0,0.0,-1.2207571391735834e-06
2026-06-27T14:20:30.590898,1782580708.4186513,0.0,0.0,-48.09864044189453,0.0,0.0,-4.990170478820801,0.0,0.0,-1.267835455124232e-06
2026-06-27T14:20:30.699070,1782580708.5266538,0.0,0.0,-48.637657165527344,0.0,0.0,-4.990166187286377,0.0,0.0,-1.3162588658163273e-06
2026-06-27T14:20:30.808320,1782580708.631656,0.0,0.0,-49.16170120239258,0.0,0.0,-4.990164279937744,0.0,0.0,-1.363337181766976e-06
2026-06-27T14:20:30.917938,1782580708.7396584,0.0,0.0,-49.70071792602539,0.0,0.0,-4.990160942077637,0.0,0.0,-1.4117605924590717e-06
2026-06-27T14:20:31.025121,1782580708.8476605,0.0,0.0,-50.2397346496582,0.0,0.0,-4.990158557891846,0.0,0.0,-1.4601840031511673e-06
2026-06-27T14:20:31.134809,1782580708.955663,0.0,0.0,-50.778751373291016,0.0,0.0,-4.990156650543213,0.0,0.0,-1.5086074138432627e-06
2026-06-27T14:20:31.244015,1782580709.0606651,0.0,0.0,-51.30279541015625,0.0,0.0,-4.99015474319458,0.0,0.0,-1.5556857297939113e-06
2026-06-27T14:20:31.352325,1782580709.1686673,0.0,0.0,-51.84181213378906,0.0,0.0,-4.990152835845947,0.0,0.0,-1.604109140486007e-06
2026-06-27T14:20:31.460645,1782580709.2766697,0.0,0.0,-52.38069152832031,0.0,0.0,-4.990150451660156,0.0,0.0,-1.6525325511781023e-06
2026-06-27T14:20:31.569029,1782580709.384672,0.0,0.0,-52.91957092285156,0.0,0.0,-4.990149021148682,0.0,0.0,-1.700955961870198e-06
2026-06-27T14:20:31.679231,1782580709.4926744,0.0,0.0,-53.45845031738281,0.0,0.0,-4.990147113800049,0.0,0.0,-1.7493793725622936e-06
2026-06-27T14:20:31.787416,1782580709.6006765,0.0,0.0,-53.99732971191406,0.0,0.0,-4.990143775939941,0.0,0.0,-1.797802783254389e-06
2026-06-27T14:20:31.895089,1782580709.708679,0.0,0.0,-54.53620910644531,0.0,0.0,-4.990142345428467,0.0,0.0,-1.8462261939464846e-06
2026-06-27T14:20:32.004754,1782580709.8136811,0.0,0.0,-55.06011962890625,0.0,0.0,-4.990140914916992,0.0,0.0,-1.8933045098971331e-06
2026-06-27T14:20:32.113451,1782580709.9156833,0.0,0.0,-55.569061279296875,0.0,0.0,-4.990139961242676,0.0,0.0,-1.9390377311063346e-06
2026-06-27T14:20:32.223147,1782580710.0266857,0.0,0.0,-56.12290954589844,0.0,0.0,-4.990139007568359,0.0,0.0,-1.988806236539877e-06
2026-06-27T14:20:32.331884,1782580710.1316879,0.0,0.0,-56.646820068359375,0.0,0.0,-4.990138053894043,0.0,0.0,-2.0358845524905254e-06
2026-06-27T14:20:32.440066,1782580710.2396903,0.0,0.0,-57.185699462890625,0.0,0.0,-4.990137100219727,0.0,0.0,-2.084307963182621e-06
2026-06-27T14:20:32.549040,1782580710.3476925,0.0,0.0,-57.724578857421875,0.0,0.0,-4.990135192871094,0.0,0.0,-2.1327313738747166e-06
2026-06-27T14:20:32.658637,1782580710.455695,0.0,0.0,-58.263458251953125,0.0,0.0,-4.990133762359619,0.0,0.0,-2.1811547845668127e-06
2026-06-27T14:20:32.767318,1782580710.560697,0.0,0.0,-58.78736877441406,0.0,0.0,-4.990131855010986,0.0,0.0,-2.2282331005174612e-06
2026-06-27T14:20:32.876002,1782580710.6686995,0.0,0.0,-59.32624816894531,0.0,0.0,-4.990130424499512,0.0,0.0,-2.276656511209557e-06
2026-06-27T14:20:32.984686,1782580710.7767017,0.0,0.0,-59.86512756347656,0.0,0.0,-4.990129470825195,0.0,0.0,-2.3250799219016516e-06
2026-06-27T14:20:33.093473,1782580710.884704,0.0,0.0,-60.40400695800781,0.0,0.0,-4.990128517150879,0.0,0.0,-2.3735033325937477e-06
2026-06-27T14:20:33.203018,1782580710.9927063,0.0,0.0,-60.94288635253906,0.0,0.0,-4.990128040313721,0.0,0.0,-2.4219267432858433e-06
2026-06-27T14:20:33.311289,1782580711.1007087,0.0,0.0,-61.48176574707031,0.0,0.0,-4.990127086639404,0.0,0.0,-2.4703501539779385e-06
2026-06-27T14:20:33.419982,1782580711.208711,0.0,0.0,-62.02064514160156,0.0,0.0,-4.990126132965088,0.0,0.0,-2.518773564670034e-06
2026-06-27T14:20:33.529172,1782580711.3167133,0.0,0.0,-62.55952453613281,0.0,0.0,-4.990124702453613,0.0,0.0,-2.5671969753621298e-06
2026-06-27T14:20:33.638210,1782580711.4277155,0.0,0.0,-63.113372802734375,0.0,0.0,-4.990123271942139,0.0,0.0,-2.6169654807956725e-06
2026-06-27T14:20:33.747411,1782580711.532718,0.0,0.0,-63.63728332519531,0.0,0.0,-4.990120887756348,0.0,0.0,-2.6640437967463214e-06
2026-06-27T14:20:33.855560,1782580711.6407201,0.0,0.0,-64.17616271972656,0.0,0.0,-4.990119457244873,0.0,0.0,-2.712467207438417e-06
2026-06-27T14:20:33.964759,1782580711.7487223,0.0,0.0,-64.71504211425781,0.0,0.0,-4.990118980407715,0.0,0.0,-2.760890618130512e-06
2026-06-27T14:20:34.073816,1782580711.8537247,0.0,0.0,-65.23895263671875,0.0,0.0,-4.990118026733398,0.0,0.0,-2.8079689340811612e-06
2026-06-27T14:20:34.182814,1782580711.964727,0.0,0.0,-65.79280090332031,0.0,0.0,-4.990117073059082,0.0,0.0,-2.8577374395147035e-06
2026-06-27T14:20:34.290736,1782580712.0697293,0.0,0.0,-66.31671142578125,0.0,0.0,-4.990116119384766,0.0,0.0,-2.904815755465353e-06
2026-06-27T14:20:34.400456,1782580712.1777315,0.0,0.0,-66.8555908203125,0.0,0.0,-4.990115165710449,0.0,0.0,-2.9532391661574477e-06
2026-06-27T14:20:34.509155,1782580712.285734,0.0,0.0,-67.39447021484375,0.0,0.0,-4.990114212036133,0.0,0.0,-3.0016625768495433e-06
2026-06-27T14:20:34.619258,1782580712.3937361,0.0,0.0,-67.933349609375,0.0,0.0,-4.990113735198975,0.0,0.0,-3.0500859875416394e-06
2026-06-27T14:20:34.727425,1782580712.5017385,0.0,0.0,-68.47222900390625,0.0,0.0,-4.9901123046875,0.0,0.0,-3.098509398233735e-06
2026-06-27T14:20:34.835098,1782580712.6067407,0.0,0.0,-68.99613952636719,0.0,0.0,-4.990109443664551,0.0,0.0,-3.145587714184384e-06
2026-06-27T14:20:34.944885,1782580712.7117429,0.0,0.0,-69.52005004882812,0.0,0.0,-4.990109443664551,0.0,0.0,-3.192666030135032e-06
2026-06-27T14:20:35.054156,1782580712.8197453,0.0,0.0,-70.05892944335938,0.0,0.0,-4.990108489990234,0.0,0.0,-3.2410894408271272e-06
2026-06-27T14:20:35.162987,1782580712.9277475,0.0,0.0,-70.59780883789062,0.0,0.0,-4.990107536315918,0.0,0.0,-3.2895128515192233e-06
2026-06-27T14:20:35.271246,1782580713.03575,0.0,0.0,-71.13668823242188,0.0,0.0,-4.990106582641602,0.0,0.0,-3.337936262211319e-06
2026-06-27T14:20:35.379929,1782580713.143752,0.0,0.0,-71.67556762695312,0.0,0.0,-4.990105152130127,0.0,0.0,-3.3863596729034146e-06
2026-06-27T14:20:35.489952,1782580713.2517545,0.0,0.0,-72.21444702148438,0.0,0.0,-4.990105152130127,0.0,0.0,-3.4347828800400107e-06
2026-06-27T14:20:35.598641,1782580713.3597567,0.0,0.0,-72.75332641601562,0.0,0.0,-4.990103721618652,0.0,0.0,-3.483206290732106e-06
2026-06-27T14:20:35.707304,1782580713.4677591,0.0,0.0,-73.29220581054688,0.0,0.0,-4.990102767944336,0.0,0.0,-3.5316297014242016e-06
2026-06-27T14:20:35.816042,1782580713.5727613,0.0,0.0,-73.81611633300781,0.0,0.0,-4.9901018142700195,0.0,0.0,-3.57870801737485e-06
2026-06-27T14:20:35.925215,1782580713.6807637,0.0,0.0,-74.35499572753906,0.0,0.0,-4.990099906921387,0.0,0.0,-3.6271314280669457e-06
2026-06-27T14:20:36.033599,1782580713.785766,0.0,0.0,-74.87890625,0.0,0.0,-4.9900994300842285,0.0,0.0,-3.674209744017595e-06
2026-06-27T14:20:36.142317,1782580713.8937683,0.0,0.0,-75.41778564453125,0.0,0.0,-4.990098476409912,0.0,0.0,-3.72263315470969e-06
2026-06-27T14:20:36.251083,1782580713.9987705,0.0,0.0,-75.94169616699219,0.0,0.0,-4.990097522735596,0.0,0.0,-3.769711470660338e-06
2026-06-27T14:20:36.361211,1782580714.1067727,0.0,0.0,-76.48057556152344,0.0,0.0,-4.990096569061279,0.0,0.0,-3.818134881352435e-06
2026-06-27T14:20:36.469389,1782580714.211775,0.0,0.0,-77.00448608398438,0.0,0.0,-4.990095615386963,0.0,0.0,-3.865213197303083e-06
2026-06-27T14:20:36.578121,1782580714.3197773,0.0,0.0,-77.54336547851562,0.0,0.0,-4.9900946617126465,0.0,0.0,-3.913636607995179e-06
2026-06-27T14:20:36.686799,1782580714.4277797,0.0,0.0,-78.08224487304688,0.0,0.0,-4.990093231201172,0.0,0.0,-3.962060018687274e-06
2026-06-27T14:20:36.795980,1782580714.5357819,0.0,0.0,-78.62112426757812,0.0,0.0,-4.990092754364014,0.0,0.0,-4.01048342937937e-06
2026-06-27T14:20:36.904671,1782580714.640784,0.0,0.0,-79.14503479003906,0.0,0.0,-4.990091800689697,0.0,0.0,-4.057561745330019e-06
2026-06-27T14:20:37.013873,1782580714.7487864,0.0,0.0,-79.68391418457031,0.0,0.0,-4.990090370178223,0.0,0.0,-4.1059851560221144e-06
2026-06-27T14:20:37.123490,1782580714.8567886,0.0,0.0,-80.22279357910156,0.0,0.0,-4.990088939666748,0.0,0.0,-4.15440856671421e-06
2026-06-27T14:20:37.231696,1782580714.964791,0.0,0.0,-80.76167297363281,0.0,0.0,-4.990087985992432,0.0,0.0,-4.202831977406306e-06
2026-06-27T14:20:37.341019,1782580715.0727932,0.0,0.0,-81.30055236816406,0.0,0.0,-4.990087032318115,0.0,0.0,-4.251255388098401e-06
2026-06-27T14:20:37.449216,1782580715.1807957,0.0,0.0,-81.83943176269531,0.0,0.0,-4.990086078643799,0.0,0.0,-4.299678798790497e-06
2026-06-27T14:20:37.558431,1782580715.2887979,0.0,0.0,-82.37831115722656,0.0,0.0,-4.990085601806641,0.0,0.0,-4.3481022094825926e-06
2026-06-27T14:20:37.667186,1782580715.3968003,0.0,0.0,-82.91719055175781,0.0,0.0,-4.990084171295166,0.0,0.0,-4.396525620174688e-06
2026-06-27T14:20:37.775845,1782580715.5048025,0.0,0.0,-83.45606994628906,0.0,0.0,-4.990082740783691,0.0,0.0,-4.444949030866784e-06
2026-06-27T14:20:37.884588,1782580715.6098049,0.0,0.0,-83.97998046875,0.0,0.0,-4.990082263946533,0.0,0.0,-4.492027346817433e-06
2026-06-27T14:20:37.993320,1782580715.714807,0.0,0.0,-84.50389099121094,0.0,0.0,-4.990081310272217,0.0,0.0,-4.539105662768081e-06
2026-06-27T14:20:38.102563,1782580715.8228095,0.0,0.0,-85.04277038574219,0.0,0.0,-4.990079879760742,0.0,0.0,-4.587529073460177e-06
2026-06-27T14:20:38.211767,1782580715.9278116,0.0,0.0,-85.56668090820312,0.0,0.0,-4.990078926086426,0.0,0.0,-4.634607389410825e-06
2026-06-27T14:20:38.320521,1782580716.0358138,0.0,0.0,-86.10556030273438,0.0,0.0,-4.990077972412109,0.0,0.0,-4.683030800102921e-06
2026-06-27T14:20:38.429328,1782580716.1438162,0.0,0.0,-86.64443969726562,0.0,0.0,-4.990076541900635,0.0,0.0,-4.731454210795017e-06
2026-06-27T14:20:38.538522,1782580716.2488184,0.0,0.0,-87.16835021972656,0.0,0.0,-4.990076065063477,0.0,0.0,-4.778532526745666e-06
2026-06-27T14:20:38.648747,1782580716.3568208,0.0,0.0,-87.70722961425781,0.0,0.0,-4.99007511138916,0.0,0.0,-4.826955937437761e-06
2026-06-27T14:20:38.755077,1782580716.464823,0.0,0.0,-88.24610900878906,0.0,0.0,-4.990074157714844,0.0,0.0,-4.875379348129858e-06
2026-06-27T14:20:38.864389,1782580716.5728254,0.0,0.0,-88.78498840332031,0.0,0.0,-4.990072727203369,0.0,0.0,-4.923802758821953e-06
2026-06-27T14:20:38.973130,1782580716.6808276,0.0,0.0,-89.32386779785156,0.0,0.0,-4.990071773529053,0.0,0.0,-4.972226169514049e-06
2026-06-27T14:20:39.082831,1782580716.7828298,0.0,0.0,-89.83280944824219,0.0,0.0,-4.990070819854736,0.0,0.0,-5.0179593907232504e-06
2026-06-27T14:20:39.190557,1782580716.8908322,0.0,0.0,-90.37168884277344,0.0,0.0,-4.99006986618042,0.0,0.0,-5.066382801415346e-06
2026-06-27T14:20:39.299476,1782580716.9988344,0.0,0.0,-90.91056823730469,0.0,0.0,-4.9900689125061035,0.0,0.0,-5.114806212107442e-06
2026-06-27T14:20:39.408676,1782580717.1068368,0.0,0.0,-91.44944763183594,0.0,0.0,-4.990067958831787,0.0,0.0,-5.163229622799538e-06
2026-06-27T14:20:39.518338,1782580717.214839,0.0,0.0,-91.98832702636719,0.0,0.0,-4.990067005157471,0.0,0.0,-5.211653033491632e-06
2026-06-27T14:20:39.626030,1782580717.3228414,0.0,0.0,-92.52720642089844,0.0,0.0,-4.990066051483154,0.0,0.0,-5.2600764441837294e-06
2026-06-27T14:20:39.734720,1782580717.4308436,0.0,0.0,-93.06608581542969,0.0,0.0,-4.990065097808838,0.0,0.0,-5.308499854875824e-06
2026-06-27T14:20:39.843258,1782580717.538846,0.0,0.0,-93.60496520996094,0.0,0.0,-4.990063667297363,0.0,0.0,-5.35692326556792e-06
2026-06-27T14:20:39.952462,1782580717.6468482,0.0,0.0,-94.14384460449219,0.0,0.0,-4.990062713623047,0.0,0.0,-5.405346676260017e-06
2026-06-27T14:20:40.061357,1782580717.7548506,0.0,0.0,-94.68272399902344,0.0,0.0,-4.9900617599487305,0.0,0.0,-5.453770086952112e-06
2026-06-27T14:20:40.171020,1782580717.8598528,0.0,0.0,-95.20663452148438,0.0,0.0,-4.9900593757629395,0.0,0.0,-5.500848402902761e-06
2026-06-27T14:20:40.279868,1782580717.964855,0.0,0.0,-95.73054504394531,0.0,0.0,-4.9900593757629395,0.0,0.0,-5.547926718853409e-06
2026-06-27T14:20:40.388146,1782580718.0698574,0.0,0.0,-96.25445556640625,0.0,0.0,-4.990058898925781,0.0,0.0,-5.595005034804058e-06
2026-06-27T14:20:40.496326,1782580718.1778595,0.0,0.0,-96.7933349609375,0.0,0.0,-4.990056991577148,0.0,0.0,-5.6434284454961536e-06
2026-06-27T14:20:40.604522,1782580718.2828617,0.0,0.0,-97.31724548339844,0.0,0.0,-4.990056037902832,0.0,0.0,-5.690506761446802e-06
2026-06-27T14:20:40.714253,1782580718.3938642,0.0,0.0,-97.87109375,0.0,0.0,-4.990055561065674,0.0,0.0,-5.740275266880345e-06
2026-06-27T14:20:40.822957,1782580718.4988663,0.0,0.0,-98.39500427246094,0.0,0.0,-4.990054130554199,0.0,0.0,-5.787353582830994e-06
2026-06-27T14:20:40.931242,1782580718.6038687,0.0,0.0,-98.91891479492188,0.0,0.0,-4.990053176879883,0.0,0.0,-5.8344318987816436e-06
2026-06-27T14:20:41.040872,1782580718.711871,0.0,0.0,-99.45779418945312,0.0,0.0,-4.990052223205566,0.0,0.0,-5.882855309473738e-06
2026-06-27T14:20:41.149019,1782580718.8198733,0.0,0.0,-99.99667358398438,0.0,0.0,-4.99005126953125,0.0,0.0,-5.931278720165835e-06
2026-06-27T14:20:41.258684,1782580718.9308755,5.113457973493496e-06,-8.693752533872612e-06,-100.537841796875,0.00026790788979269564,-0.00044791228719986975,-4.733541488647461,-0.13262364101645124,-0.08598765010292608,-1.3724050911548429
2026-06-27T14:20:41.366962,1782580719.035878,0.00015812364290468395,-0.0002551302022766322,-101.02622985839844,0.0034170467406511307,-0.005452414508908987,-4.589870929718018,-0.5183404150424267,-0.4108691641143797,-6.014564657183314
2026-06-27T14:20:41.474761,1782580719.14088,0.0009293575421907008,-0.0014757693279534578,-101.5056381225586,0.012438707984983921,-0.019609836861491203,-4.558980464935303,-0.9070380574030047,-0.9371953861392293,-13.330774644526253
2026-06-27T14:20:41.583890,1782580719.2518826,0.003221615683287382,-0.005074106156826019,-102.01457977294922,0.030428703874349594,-0.04762827232480049,-4.625912189483643,-1.1294282600898293,-1.6853352814673155,-23.36492440870204
2026-06-27T14:20:41.693692,1782580719.3568847,0.007702651433646679,-0.012065946124494076,-102.50685119628906,0.05642198026180267,-0.08781778812408447,-4.759721755981445,-1.03856212708644,-2.508314297232932,-34.519244057576664
2026-06-27T14:20:41.801872,1782580719.4648871,0.015768516808748245,-0.02458215318620205,-103.0344009399414,0.09356170147657394,-0.1448443979024887,-4.981929302215576,-0.5968342701047177,-3.3699165574841414,-46.792705836967826
2026-06-27T14:20:41.910060,1782580719.5728893,0.02779172733426094,-0.04315723478794098,-103.5704116821289,0.12904590368270874,-0.1990274041891098,-4.910099983215332,0.061853723084956846,-4.151174115243014,-57.56951440059458
2026-06-27T14:20:42.019452,1782580719.6778915,0.043237894773483276,-0.06693955510854721,-104.0771255493164,0.1657610684633255,-0.25482484698295593,-4.732361316680908,0.7356549674618402,-4.801159021377099,-65.30275723375493
2026-06-27T14:20:42.129112,1782580719.788894,0.06403502076864243,-0.09885144978761673,-104.59093475341797,0.2102210521697998,-0.32199418544769287,-4.529666900634766,1.308472167664381,-5.402275068010235,-70.04912315607109
2026-06-27T14:20:42.237527,1782580719.893896,0.08868228644132614,-0.13652990758419037,-105.05865478515625,0.2609252333641052,-0.398135781288147,-4.3928117752075195,1.5924076387356105,-5.9489421587855364,-71.28417934857968
2026-06-27T14:20:42.346232,1782580719.9988985,0.11924811452627182,-0.1830737292766571,-105.5172348022461,0.32357069849967957,-0.4917788803577423,-4.364147663116455,1.5662346543519898,-6.510100555768954,-69.73163843631886
2026-06-27T14:20:42.454309,1782580720.1069007,0.15839672088623047,-0.24245303869247437,-105.99410247802734,0.4045258164405823,-0.6124501824378967,-4.497778415679932,1.2350747044886219,-7.102552636430736,-66.0126575135274
2026-06-27T14:20:42.563912,1782580720.2119029,0.20583051443099976,-0.3141431212425232,-106.48114013671875,0.5008721351623535,-0.7558848857879639,-4.790567874908447,0.7163480258720428,-7.679908326622047,-61.450221621022976
2026-06-27T14:20:42.671699,1782580720.3199053,0.26459914445877075,-0.40273579955101013,-107.001953125,0.5847145915031433,-0.8806681036949158,-4.806312561035156,0.13930441312119612,-8.287133066665008,-57.0707947544947
2026-06-27T14:20:42.780070,1782580720.4249074,0.3300425708293915,-0.5012322664260864,-107.50133514404297,0.6621624231338501,-0.9959694147109985,-4.698665618896484,-0.3287224532199063,-8.897714709409287,-53.99425405576743
2026-06-27T14:20:42.889260,1782580720.5329099,0.406015008687973,-0.6154395341873169,-108.0015640258789,0.7453597187995911,-1.1199358701705933,-4.561159610748291,-0.6235654927444676,-9.541739784147946,-52.38673259202278
2026-06-27T14:20:42.997992,1782580720.640912,0.4911917448043823,-0.7433692812919617,-108.4858627319336,0.8325384259223938,-1.2499841451644897,-4.403282642364502,-0.699557740170108,-10.197497114074922,-52.22692341731212
2026-06-27T14:20:43.107675,1782580720.7489145,0.5859696269035339,-0.885630190372467,-108.95186614990234,0.923054575920105,-1.3851699829101562,-4.221817493438721,-0.5874696980335216,-10.856790173834993,-53.08547709223456
2026-06-27T14:20:43.216399,1782580720.8539166,0.6876110434532166,-1.038129448890686,-109.38465881347656,1.013239860534668,-1.520003318786621,-4.016737461090088,-0.36638367774639824,-11.496084658656661,-54.39074698759188
2026-06-27T14:20:43.325095,1782580720.9589188,0.7987788319587708,-1.2048778533935547,-109.7940902709961,1.1042406558990479,-1.6561756134033203,-3.774779796600342,-0.11325801067599711,-12.145293947217715,-55.71542439936085
2026-06-27T14:20:43.433814,1782580721.0639212,0.9194445013999939,-1.3858436346054077,-110.1754150390625,1.1935850381851196,-1.789962887763977,-3.4776711463928223,0.10603094840628316,-12.851125293872336,-56.753411239135986
2026-06-27T14:20:43.543508,1782580721.1719234,1.0530487298965454,-1.5861961841583252,-110.530517578125,1.2783849239349365,-1.9170143604278564,-3.0744051933288574,0.2550501181859025,-13.731967880598043,-57.370906837145725
2026-06-27T14:20:43.651229,1782580721.2769258,1.1908060312271118,-1.7927682399749756,-110.82503509521484,1.342203140258789,-2.0126566886901855,-2.505279779434204,0.3146712539508411,-14.910784064849373,-57.53441566744609
2026-06-27T14:20:43.759905,1782580721.384928,1.3409415483474731,-2.017900228500366,-111.0731430053711,1.4515036344528198,-2.1765823364257812,-2.174800395965576,0.272572418479742,-15.378520519373401,-57.35138646313164
2026-06-27T14:20:43.869162,1782580721.4929304,1.505155086517334,-2.264150381088257,-111.30072784423828,1.5888968706130981,-2.382720708847046,-2.044074773788452,0.16274880659362528,-14.7032300164322,-56.96933171228571
2026-06-27T14:20:43.978838,1782580721.6009326,1.683813452720642,-2.532074451446533,-111.51480102539062,1.7175604104995728,-2.5757925510406494,-1.9203991889953613,0.05257506339389709,-13.515113005887319,-56.55123623888443
2026-06-27T14:20:44.087539,1782580721.7059348,1.8702203035354614,-2.811631917953491,-111.71038055419922,1.8310229778289795,-2.746065855026245,-1.8066784143447876,-0.021068443825575562,-12.185558015362458,-56.220138408405184
2026-06-27T14:20:44.195777,1782580721.8109372,2.0679330825805664,-3.1081557273864746,-111.89468383789062,1.9329503774642944,-2.8990302085876465,-1.706210970878601,-0.0556464388752494,-10.84920124491282,-56.01575567549979
2026-06-27T14:20:44.305140,1782580721.9159393,2.27575421333313,-3.419849395751953,-112.06917572021484,2.0236434936523438,-3.0351290702819824,-1.6205952167510986,-0.059870563774855466,-9.588986118428638,-55.94291192397653
2026-06-27T14:20:44.414340,1782580722.0209415,2.4925339221954346,-3.744985580444336,-112.23545837402344,2.103686809539795,-3.1552276611328125,-1.5488280057907104,-0.046810368695283884,-8.442276153450763,-55.975123097095455
2026-06-27T14:20:44.522423,1782580722.125944,2.717193841934204,-4.081944942474365,-112.39485931396484,2.173887252807617,-3.260526180267334,-1.489068627357483,-0.027934978013614768,-7.42082540912296,-56.07075136902271
2026-06-27T14:20:44.630932,1782580722.233946,2.9554550647735596,-4.439302921295166,-112.55282592773438,2.236764430999756,-3.3548007011413574,-1.4375836849212646,-0.010292107743736827,-6.500043219184666,-56.19107714513072
2026-06-27T14:20:44.740373,1782580722.3389482,3.1931705474853516,-4.795835971832275,-112.7015151977539,2.2898008823394775,-3.434279680252075,-1.3951648473739624,0.0016278935145142628,-5.7225832208344,-56.29559307961769
2026-06-27T14:20:44.849088,1782580722.4469507,3.443087100982666,-5.170658588409424,-112.85012817382812,2.3370156288146973,-3.504999876022339,-1.3575818538665771,0.007977057985229638,-5.032465512359677,-56.369644694339854
2026-06-27T14:20:44.958309,1782580722.5519528,3.6906116008758545,-5.541886329650879,-112.990966796875,2.376683473587036,-3.5643937587738037,-1.3255914449691772,0.009561999217368484,-4.455869027703677,-56.40320568209512
2026-06-27T14:20:45.066988,1782580722.653955,3.934782028198242,-5.908073902130127,-113.12471771240234,2.4100871086120605,-3.614398717880249,-1.2975865602493286,0.008382244062582197,-3.9740769760847496,-56.40392213858829
2026-06-27T14:20:45.176574,1782580722.7619574,4.189448356628418,-6.289994716644287,-113.25958251953125,2.4399027824401855,-3.6590371131896973,-1.271399974822998,0.005898452777986256,-3.5479968266507527,-56.3821469484575
2026-06-27T14:20:45.284731,1782580722.8669596,4.454428195953369,-6.687374114990234,-113.39554595947266,2.466392993927002,-3.6987082958221436,-1.2465429306030273,0.0031881834516194183,-3.1737427433943877,-56.34867606641445
2026-06-27T14:20:45.393371,1782580722.971962,4.714601993560791,-7.07753849029541,-113.52523040771484,2.4886574745178223,-3.7320668697357178,-1.223912000656128,0.0010685437286904098,-2.8633256162381073,-56.31629070628832
2026-06-27T14:20:45.502344,1782580723.0799642,4.984479904174805,-7.482255458831787,-113.65621948242188,2.508486270904541,-3.7617926597595215,-1.2018979787826538,-0.00033154450909238627,-2.591053956273795,-56.29076942599781
2026-06-27T14:20:45.611440,1782580723.1849663,5.248775959014893,-7.878599166870117,-113.78134155273438,2.5252084732055664,-3.786872625350952,-1.181406021118164,-0.0009680673457010527,-2.365438188816105,-56.27676987179007
2026-06-27T14:20:45.722154,1782580723.2899687,5.514711380004883,-8.2774019241333,-113.90435028076172,2.5397772789001465,-3.808729648590088,-1.161649465560913,-0.0010741292559894046,-2.1727070448553514,-56.27318222809155
2026-06-27T14:20:45.829873,1782580723.3889709,5.766763210296631,-8.655387878417969,-114.01844787597656,2.5518205165863037,-3.826800584793091,-1.1435258388519287,-0.0008889377112174717,-2.01678030555406,-56.2770906087257
2026-06-27T14:20:45.938572,1782580723.493973,6.027623176574707,-9.046585083007812,-114.13417053222656,2.5627505779266357,-3.8431997299194336,-1.1251683235168457,-0.0005731843785672769,-1.8787122222566042,-56.28540371342879
2026-06-27T14:20:46.047257,1782580723.5959752,6.2972493171691895,-9.450926780700684,-114.25135040283203,2.572664499282837,-3.8580710887908936,-1.107029914855957,-0.00025901265314968704,-1.7568083304739017,-56.29525152728696
2026-06-27T14:20:46.155018,1782580723.7009773,6.567852973937988,-9.856735229492188,-114.36665344238281,2.581402540206909,-3.8711769580841064,-1.0890798568725586,-3.172750902509301e-05,-1.65253859265505,-56.30382773516345
2026-06-27T14:20:46.264757,1782580723.8059797,6.839320659637451,-10.263840675354004,-114.48007202148438,2.5891358852386475,-3.882775068283081,-1.0714454650878906,8.644168952841234e-05,-1.5634047019700907,-56.309645055690304
2026-06-27T14:20:46.374702,1782580723.913982,7.119341850280762,-10.6837739944458,-114.5948257446289,2.5961930751800537,-3.893357992172241,-1.0536495447158813,0.00010059211944471493,-1.4849982318874975,-56.31234896696591
2026-06-27T14:20:46.482409,1782580724.018984,7.392275333404541,-11.0930757522583,-114.7045669555664,2.6023025512695312,-3.9025211334228516,-1.0365480184555054,3.703130199817382e-05,-1.4198250522776874,-56.31223015016461
2026-06-27T14:20:46.590959,1782580724.1239865,7.665812969207764,-11.503288269042969,-114.8125228881836,2.6077768802642822,-3.910733938217163,-1.0196572542190552,-6.537352130096806e-05,-1.363933068710562,-56.310332091352166
2026-06-27T14:20:46.702454,1782580724.2289886,7.939898490905762,-11.914319038391113,-114.91871643066406,2.612704038619995,-3.9181277751922607,-1.0029772520065308,-0.00017605818050116863,-1.3159103779895105,-56.30769777858052
2026-06-27T14:20:46.810147,1782580724.336991,8.22232723236084,-12.337862968444824,-115.026123046875,2.617281675338745,-3.9249989986419678,-0.986029326915741,-0.0002767604171699644,-1.2735680065806714,-56.30504972720864
2026-06-27T14:20:46.918441,1782580724.4419932,8.497364044189453,-12.750319480895996,-115.1288070678711,2.621318817138672,-3.9310638904571533,-0.9697266817092896,-0.0003516695980038737,-1.2381623085566147,-56.303141063355824
2026-06-27T14:20:47.026150,1782580724.5469954,8.772804260253906,-13.1633882522583,-115.22978973388672,2.6250052452087402,-3.936603546142578,-0.9535956382751465,-0.00039831104128878656,-1.2076007795036439,-56.30213647372563
2026-06-27T14:20:47.134839,1782580724.6519978,9.048615455627441,-13.577011108398438,-115.32908630371094,2.628387212753296,-3.941688060760498,-0.9376311898231506,-0.00042006014805413225,-1.181160666435122,-56.30198673735657
2026-06-27T14:20:47.244025,1782580724.7509997,9.308979034423828,-13.96746826171875,-115.42117309570312,2.6313328742980957,-3.9461185932159424,-0.9227274060249329,-0.00042439119478213355,-1.1594582332061614,-56.30244107356984
2026-06-27T14:20:47.353117,1782580724.8500018,9.569623947143555,-14.358348846435547,-115.51179504394531,2.6340718269348145,-3.9502389430999756,-0.9079389572143555,-0.00041937945214730907,-1.1404871635242968,-56.30321881411185
2026-06-27T14:20:47.461195,1782580724.9520042,9.838440895080566,-14.761487007141113,-115.60364532470703,2.6367039680480957,-3.954200267791748,-0.8929528594017029,-0.0004082158170044443,-1.1232904478157093,-56.30408027606426
2026-06-27T14:20:47.572793,1782580725.0570064,10.10751724243164,-15.165016174316406,-115.69396209716797,2.6391654014587402,-3.957902669906616,-0.8779686093330383,-0.0003942400853034958,-1.108199780046751,-56.30486610494547
2026-06-27T14:20:47.679978,1782580725.1620085,10.392685890197754,-15.592680931091309,-115.7879409790039,2.641608953475952,-3.961580276489258,-0.8624435663223267,-0.0003957136037287607,-1.0941181211654138,-56.30548784278272
2026-06-27T14:20:47.788694,1782580725.2640107,10.662247657775879,-15.99693775177002,-115.87515258789062,2.643777847290039,-3.9648454189300537,-0.8478028774261475,-0.00039760433428209503,-1.0824686654724707,-56.30577240319386
2026-06-27T14:20:47.896944,1782580725.3660128,10.932024002075195,-16.40152359008789,-115.96088409423828,2.6458277702331543,-3.967930793762207,-0.8331969380378723,-0.0003968053596303182,-1.0721599452595838,-56.305890444103234
2026-06-27T14:20:48.008128,1782580725.4710152,11.209948539733887,-16.818323135375977,-116.04759979248047,2.64782977104187,-3.970945119857788,-0.8185635805130005,-0.0004044622880919463,-1.0625674844657553,-56.30585158681803
2026-06-27T14:20:48.114421,1782580725.5760174,11.488077163696289,-17.235431671142578,-116.13279724121094,2.6497294902801514,-3.973806142807007,-0.8040603399276733,-0.00042498150928120364,-1.0539963550831164,-56.30563442957752
2026-06-27T14:20:48.223761,1782580725.6810195,11.766401290893555,-17.652833938598633,-116.21647644042969,2.6515347957611084,-3.9765281677246094,-0.7895581126213074,-0.0004315466253940416,-1.046390879040724,-56.305468549497924
2026-06-27T14:20:48.333434,1782580725.789022,12.05286979675293,-18.082454681396484,-116.30095672607422,2.653306484222412,-3.9792001247406006,-0.7749128937721252,-0.000441415495111869,-1.0392809342430867,-56.305469909166035
2026-06-27T14:20:48.441035,1782580725.891024,12.32359504699707,-18.488466262817383,-116.3792953491211,2.6549057960510254,-3.9816126823425293,-0.7611790895462036,-0.00044694128527092615,-1.0331727499316814,-56.30547817176956
2026-06-27T14:20:48.550754,1782580725.9990265,12.610419273376465,-18.918621063232422,-116.46073913574219,2.6565287113189697,-3.9840612411499023,-0.746845543384552,-0.0004497454777461376,-1.0272637950585017,-56.30558449697249
2026-06-27T14:20:48.659009,1782580726.0980287,12.873492240905762,-19.313161849975586,-116.5340347290039,2.65795636177063,-3.986215114593506,-0.7337960004806519,-0.0004470986676963616,-1.0222851811617444,-56.305684967731786
2026-06-27T14:20:48.768262,1782580726.2000308,13.144682884216309,-19.719873428344727,-116.60820007324219,2.659372329711914,-3.988352060317993,-0.7204901576042175,-0.00044536913066137304,-1.0175639673331909,-56.305791862485606
2026-06-27T14:20:48.876335,1782580726.302033,13.416014671325684,-20.126798629760742,-116.68102264404297,2.6607375144958496,-3.990412473678589,-0.7074475884437561,-0.0004432278551247143,-1.0131204708264352,-56.305894824392254
2026-06-27T14:20:48.985070,1782580726.407035,13.69546890258789,-20.545907974243164,-116.75460815429688,2.66209077835083,-3.9924559593200684,-0.6941158771514893,-0.00044081918164075746,-1.0088348309950785,-56.305997299585144
2026-06-27T14:20:49.095194,1782580726.5090373,13.967073440551758,-20.953245162963867,-116.82475280761719,2.663358449935913,-3.9943714141845703,-0.6813346743583679,-0.0004389947364189094,-1.0049425987296206,-56.306092279751304
2026-06-27T14:20:49.202996,1782580726.6110394,14.238804817199707,-21.360774993896484,-116.89360046386719,2.6645829677581787,-3.9962210655212402,-0.668700635433197,-0.00043725692749124756,-1.0012545886104618,-56.30620727205129
2026-06-27T14:20:49.311699,1782580726.7160418,14.518656730651855,-21.78048324584961,-116.96314239501953,2.665800094604492,-3.998060703277588,-0.6558424830436707,-0.0004345900247965459,-0.9976568285750005,-56.306315096874826
2026-06-27T14:20:49.420033,1782580726.821044,14.798633575439453,-22.20038414001465,-117.0313491821289,2.666975498199463,-3.9998373985290527,-0.6431462168693542,-0.0004288621367848737,-0.9942341657914896,-56.30641816560223
2026-06-27T14:20:49.529642,1782580726.9290462,15.086735725402832,-22.63247299194336,-117.10011291503906,2.6681430339813232,-4.0016021728515625,-0.6302478909492493,-0.00042198102193912146,-0.9908696244780811,-56.306526098858654
2026-06-27T14:20:49.638093,1782580727.0310485,15.358946800231934,-23.040725708007812,-117.16378021240234,2.669208526611328,-4.003213405609131,-0.618251383304596,-0.00042118544354771193,-0.9878308923889946,-56.30662155329709
2026-06-27T14:20:49.746842,1782580727.1360507,15.639276504516602,-23.461156845092773,-117.2280502319336,2.6702687740325928,-4.004818439483643,-0.6059685349464417,-0.00041995285099123844,-0.9848529693743934,-56.30672800475849
2026-06-27T14:20:49.856123,1782580727.2380528,15.911700248718262,-23.869731903076172,-117.28926849365234,2.671266555786133,-4.00632905960083,-0.5943703651428223,-0.0004075460020681004,-0.9819901009142933,-56.306843363786456
2026-06-27T14:20:49.964865,1782580727.3460553,16.200258255004883,-24.30251121520996,-117.35279846191406,2.672287702560425,-4.007872581481934,-0.58217853307724,-0.00039498793820444346,-0.9790846415600752,-56.30688885015723
2026-06-27T14:20:50.073573,1782580727.4510574,16.480905532836914,-24.72342300415039,-117.41331481933594,2.6732468605041504,-4.009324073791504,-0.5704574584960938,-0.0003941998333002382,-0.9764004232495668,-56.30688822921894
2026-06-27T14:20:50.183265,1782580727.5560596,16.76165199279785,-25.144481658935547,-117.47260284423828,2.6741743087768555,-4.010727882385254,-0.558929979801178,-0.0003936104182940698,-0.9737608448215334,-56.30695915691181
2026-06-27T14:20:50.292329,1782580727.661062,17.034465789794922,-25.553651809692383,-117.529052734375,2.675045967102051,-4.01204776763916,-0.5478800535202026,-0.00039201315095371,-0.9712893724775371,-56.30706513206083
2026-06-27T14:20:50.400030,1782580727.7630641,17.315401077270508,-25.97499656677246,-117.58597564697266,2.6759138107299805,-4.013361930847168,-0.5366837978363037,-0.00037800757982317165,-0.9688098902428756,-56.30716941224077
2026-06-27T14:20:50.509442,1782580727.8650663,17.588390350341797,-26.384431838989258,-117.64016723632812,2.676729440689087,-4.0145978927612305,-0.5259425640106201,-0.0003668780342224162,-0.9664530984253151,-56.307243333308804
2026-06-27T14:20:50.618636,1782580727.9670684,17.86145782470703,-26.793991088867188,-117.69328308105469,2.677517890930176,-4.015792369842529,-0.5153148174285889,-0.0003659064522081985,-0.9642079723679475,-56.30724603129189
2026-06-27T14:20:50.727336,1782580728.0720706,18.142648696899414,-27.215723037719727,-117.74684143066406,2.678304433822632,-4.016983985900879,-0.5046689510345459,-0.00035731176813911424,-0.9619019205680682,-56.30732906714984
2026-06-27T14:20:50.836628,1782580728.177073,18.423919677734375,-27.637577056884766,-117.79927825927734,2.6790640354156494,-4.018133640289307,-0.49413925409317017,-0.00033920188110868083,-0.9596639227243698,-56.30743523063249
2026-06-27T14:20:50.944777,1782580728.2820752,18.70526695251465,-28.059547424316406,-117.85061645507812,2.679797887802124,-4.01924467086792,-0.4837713837623596,-0.0003411474035311987,-0.9574889447346029,-56.30744798176039
2026-06-27T14:20:51.053483,1782580728.3870773,18.9866886138916,-28.481630325317383,-117.90087890625,2.6805062294006348,-4.020318984985352,-0.47356951236724854,-0.0003404088571057299,-0.9553696173250926,-56.307509822607294
2026-06-27T14:20:51.162692,1782580728.4920797,19.2681827545166,-28.903831481933594,-117.9500732421875,2.6811909675598145,-4.021356582641602,-0.4635332226753235,-0.0003381429660274691,-0.9533061837117038,-56.30761716688283
2026-06-27T14:20:51.271864,1782580728.597082,19.549747467041016,-29.326135635375977,-117.99822998046875,2.681852102279663,-4.0223588943481445,-0.45366257429122925,-0.0003339055772354782,-0.9512931076889789,-56.30767190706906
2026-06-27T14:20:51.380544,1782580728.705084,19.839427947998047,-29.76061248779297,-118.04668426513672,2.6825075149536133,-4.0233540534973145,-0.4436888098716736,-0.00031771397914805334,-0.949276679788519,-56.30767041314218
2026-06-27T14:20:51.489375,1782580728.8100865,20.121129989624023,-30.183124542236328,-118.09276580810547,2.683122396469116,-4.02428674697876,-0.4341515600681305,-0.0003107531273064265,-0.9473677720258431,-56.307756413750425
2026-06-27T14:20:51.600415,1782580728.9180887,20.410947799682617,-30.617807388305664,-118.1391372680664,2.6837334632873535,-4.025212287902832,-0.424529105424881,-0.00030982459914978804,-0.9454476195326957,-56.307869201331556
2026-06-27T14:20:51.707122,1782580729.0140908,20.66861915588379,-31.004270553588867,-118.17948913574219,2.6842572689056396,-4.026005744934082,-0.41608068346977234,-0.00030632994399039387,-0.9437866764002962,-56.30786654621502
2026-06-27T14:20:51.816370,1782580729.122093,20.95855712890625,-31.43914031982422,-118.22392272949219,2.684826374053955,-4.0268683433532715,-0.40675947070121765,-0.00030311539874888457,-0.9419686543375131,-56.30788816984628
2026-06-27T14:20:51.924543,1782580729.2270954,21.240495681762695,-31.86201286315918,-118.26617431640625,2.685358762741089,-4.027676105499268,-0.39786165952682495,-0.000298865291091656,-0.940247585501448,-56.30799192669375
2026-06-27T14:20:52.034720,1782580729.3290975,21.514427185058594,-32.27288055419922,-118.30632019042969,2.685856819152832,-4.0284342765808105,-0.3893706798553467,-0.00028581388846049354,-0.938623948620333,-56.308073905028074
2026-06-27T14:20:52.142842,1782580729.4340997,21.796476364135742,-32.6959114074707,-118.34675598144531,2.686351776123047,-4.029184818267822,-0.38071390986442566,-0.00028931025928923037,-0.9369780747698794,-56.30806881288817
2026-06-27T14:20:52.251055,1782580729.5391018,22.07857894897461,-33.1190185546875,-118.38629913330078,2.6868298053741455,-4.029910087585449,-0.37239202857017517,-0.00028125476633221425,-0.9353872742152902,-56.30807034841736
2026-06-27T14:20:52.360015,1782580729.6411042,22.352663040161133,-33.53012466430664,-118.42387390136719,2.6872758865356445,-4.030588150024414,-0.3643316924571991,-0.00027721140968854695,-0.9338934567773319,-56.30817494932479
2026-06-27T14:20:52.469680,1782580729.7491064,22.64291000366211,-33.965457916259766,-118.46276092529297,2.687730550765991,-4.03127908706665,-0.35593244433403015,-0.0002631285229609889,-0.9323608957283798,-56.308272234560796
2026-06-27T14:20:52.577861,1782580729.8541086,22.925159454345703,-34.3888053894043,-118.49971008300781,2.6881566047668457,-4.031925678253174,-0.3479800522327423,-0.00025842498205606135,-0.9309101255581643,-56.30828344543162
2026-06-27T14:20:52.687059,1782580729.959111,23.20744514465332,-34.81217956542969,-118.53583526611328,2.688565969467163,-4.032548904418945,-0.3401264250278473,-0.000256543792408098,-0.9295056645700354,-56.30828625720183
2026-06-27T14:20:52.795765,1782580730.0641131,23.489761352539062,-35.23565673828125,-118.57115173339844,2.6889607906341553,-4.033149719238281,-0.33250167965888977,-0.00025624896473520686,-0.9281121198101576,-56.30836289106025
2026-06-27T14:20:52.904462,1782580730.1691153,23.772140502929688,-35.65916442871094,-118.60567474365234,2.6893398761749268,-4.033727169036865,-0.32498252391815186,-0.00024094437487865358,-0.926767160413001,-56.30843205969088
2026-06-27T14:20:53.014307,1782580730.2711174,24.04646873474121,-36.070648193359375,-118.6384506225586,2.689694881439209,-4.034266471862793,-0.31780174374580383,-0.00024360399510404634,-0.9255037375703903,-56.30843582417183
2026-06-27T14:20:53.123368,1782580730.3731198,24.32084846496582,-36.48218536376953,-118.6705093383789,2.6900362968444824,-4.034785270690918,-0.3107987344264984,-0.00022989203673610048,-0.9242759547884002,-56.308453803430275
2026-06-27T14:20:53.231953,1782580730.481122,24.611392974853516,-36.91795349121094,-118.70368957519531,2.690383195877075,-4.035312175750732,-0.3034873902797699,-0.0002286222867564752,-0.9230240745053468,-56.308565250602136
2026-06-27T14:20:53.340712,1782580730.5801241,24.877765655517578,-37.31751251220703,-118.73340606689453,2.6906886100769043,-4.0357770919799805,-0.29690900444984436,-0.00023049103958484063,-0.9219160782303589,-56.30858470405206
2026-06-27T14:20:53.449423,1782580730.6851263,25.16030502319336,-37.74128723144531,-118.76421356201172,2.6910011768341064,-4.036252975463867,-0.29011601209640503,-0.00021880627297065304,-0.9207670022261969,-56.30858939246919
2026-06-27T14:20:53.558114,1782580730.7871287,25.434814453125,-38.153011322021484,-118.79348754882812,2.6912922859191895,-4.0366973876953125,-0.28363433480262756,-0.00022552852071974465,-0.9196746257081957,-56.30858818132762
2026-06-27T14:20:53.667220,1782580730.8921309,25.717409133911133,-38.57691955566406,-118.82290649414062,2.691580295562744,-4.037135601043701,-0.2770572304725647,-0.00021441589794635418,-0.9186040043710968,-56.308694041694366
2026-06-27T14:20:53.775923,1782580730.994133,25.99198341369629,-38.98871612548828,-118.85086059570312,2.6918492317199707,-4.037545680999756,-0.27080389857292175,-0.00020543471975438502,-0.9175887664238129,-56.30870040329882
2026-06-27T14:20:53.884321,1782580731.1021352,26.2827091217041,-39.424800872802734,-118.87974548339844,2.692122459411621,-4.037962913513184,-0.26434266567230225,-0.00020591306371203983,-0.916547557196052,-56.30871957951432
2026-06-27T14:20:53.993837,1782580731.2071376,26.565414428710938,-39.84884262084961,-118.90718841552734,2.6923773288726807,-4.0383524894714355,-0.2581905424594879,-0.000188435767220748,-0.9155618479235753,-56.30878691171228
2026-06-27T14:20:54.101528,1782580731.3031397,26.823898315429688,-40.23653793334961,-118.93170166015625,2.692600727081299,-4.038692474365234,-0.252642422914505,-0.00017855055130926013,-0.9146989412193448,-56.308787397885894
2026-06-27T14:20:54.209842,1782580731.4081419,27.106624603271484,-40.66058349609375,-118.95791625976562,2.692835807800293,-4.039051055908203,-0.24672314524650574,-0.00017946229209376996,-0.9137867932259791,-56.30878747657598
2026-06-27T14:20:54.319534,1782580731.513144,27.389408111572266,-41.08475875854492,-118.9835205078125,2.6930618286132812,-4.039395332336426,-0.24092882871627808,-0.0001785226426584833,-0.9129046747659101,-56.30889276208168
2026-06-27T14:20:54.429531,1782580731.6151462,27.664112091064453,-41.4968147277832,-119.00782012939453,2.693272590637207,-4.039716720581055,-0.23542356491088867,-0.00017470006052918306,-0.9120751624937733,-56.3089272412662
2026-06-27T14:20:54.537589,1782580731.7201486,27.946910858154297,-41.920989990234375,-119.03224182128906,2.6934807300567627,-4.040034770965576,-0.22986753284931183,-0.0001633338723700294,-0.9112475980165344,-56.3089279944405
2026-06-27T14:20:54.646295,1782580731.8251507,28.229761123657227,-42.345176696777344,-119.05608367919922,2.6936795711517334,-4.040339469909668,-0.22443461418151855,-0.0001676577663551249,-0.9104405360406471,-56.308928763289416
2026-06-27T14:20:54.755253,1782580731.930153,28.512611389160156,-42.76948547363281,-119.0793685913086,2.6938703060150146,-4.04063081741333,-0.2191440761089325,-0.00017487271540565064,-0.9096701326746754,-56.30898788356499
2026-06-27T14:20:54.862949,1782580732.032155,28.78738021850586,-43.181671142578125,-119.10145568847656,2.6940479278564453,-4.0409040451049805,-0.21408605575561523,-0.0001579434964122179,-0.9089497828123575,-56.30904574221244
2026-06-27T14:20:54.971132,1782580732.1371574,29.070287704467773,-43.605979919433594,-119.12366485595703,2.694222927093506,-4.041170597076416,-0.20895929634571075,-0.00013455125226942576,-0.9082312688507614,-56.30904732801384
2026-06-27T14:20:55.079985,1782580732.2391596,29.345121383666992,-44.018165588378906,-119.14473724365234,2.6943864822387695,-4.041418552398682,-0.2041195183992386,-0.00014279882719890253,-0.9075640683848292,-56.30904286508255
2026-06-27T14:20:55.190263,1782580732.3441617,29.62803840637207,-44.44252014160156,-119.1659164428711,2.694547176361084,-4.041666507720947,-0.19924978911876678,-0.00016342136166654542,-0.9068991818487518,-56.30907135031987
