time,sim_t,x,y,z,vx,vy,vz,roll_deg,pitch_deg,yaw_deg
2026-06-27T13:47:05.548114,1782578744.864763,0.0,0.0,2.0397043228149414,0.0,0.0,0.0,0.0,0.0,0.0003895640909249624
2026-06-27T13:47:05.655274,1782578744.9727654,0.0,0.0,2.0397043228149414,0.0,0.0,0.0,0.0,0.0,0.0003895640909249624
2026-06-27T13:47:05.764626,1782578745.0807676,0.0,0.0,2.0397043228149414,0.0,0.0,0.0,0.0,0.0,0.0003895640909249624
2026-06-27T13:47:05.873759,1782578745.18877,0.0,0.0,2.0397043228149414,0.0,0.0,0.0,0.0,0.0,0.0003895640909249624
2026-06-27T13:47:05.982460,1782578745.2967722,0.0,0.0,2.0397043228149414,0.0,0.0,0.0,0.0,0.0,0.0003895640909249624
2026-06-27T13:47:06.090883,1782578745.4047747,0.0,0.0,2.0397043228149414,0.0,0.0,0.0,0.0,0.0,0.0003895640909249624
2026-06-27T13:47:06.200897,1782578745.5127769,0.0,0.0,2.0397043228149414,0.0,0.0,0.0,0.0,0.0,0.0003895640909249624
2026-06-27T13:47:06.309114,1782578745.6177793,0.0,0.0,2.0397043228149414,0.0,0.0,0.0,0.0,0.0,0.0003895640909249624
2026-06-27T13:47:06.417863,1782578745.7257814,0.0,0.0,2.0397043228149414,0.0,0.0,0.0,0.0,0.0,0.0003895640909249624
2026-06-27T13:47:06.528071,1782578745.836784,0.0,0.0,2.0397043228149414,0.0,0.0,0.0,0.0,0.0,0.0003895640909249624
2026-06-27T13:47:06.635290,1782578745.941786,0.0,0.0,2.0397043228149414,0.0,0.0,0.0,0.0,0.0,0.0003895640909249624
2026-06-27T13:47:06.744479,1782578746.0497885,0.0,0.0,2.0397043228149414,0.0,0.0,0.0,0.0,0.0,0.0003895640909249624
2026-06-27T13:47:06.853198,1782578746.1577907,0.0,0.0,2.0397043228149414,0.0,0.0,0.0,0.0,0.0,0.0003895640909249624
2026-06-27T13:47:06.961618,1782578746.262793,0.0,0.0,2.0397043228149414,0.0,0.0,0.0,0.0,0.0,0.0003895640909249624
2026-06-27T13:47:07.070113,1782578746.3737953,0.0,0.0,2.0397043228149414,0.0,0.0,0.0,0.0,0.0,0.0003895640909249624
2026-06-27T13:47:07.181271,1782578746.4817977,0.0,0.0,2.018420934677124,0.0,0.0,-0.36775264143943787,0.0,0.0,0.0003895640909249624
2026-06-27T13:47:07.288954,1782578746.5867999,0.0,0.0,1.975193977355957,0.0,0.0,-0.43502312898635864,0.0,0.0,0.0003895640909249624
2026-06-27T13:47:07.398655,1782578746.6948023,0.0,0.0,1.9273730516433716,0.0,0.0,-0.44800812005996704,0.0,0.0,0.0003895640909249624
2026-06-27T13:47:07.505828,1782578746.8028045,0.0,0.0,1.8786382675170898,0.0,0.0,-0.4541039764881134,0.0,0.0,0.0003895640909249624
2026-06-27T13:47:07.615804,1782578746.910807,0.0,0.0,1.8293261528015137,0.0,0.0,-0.45893874764442444,0.0,0.0,0.0003895640909249624
2026-06-27T13:47:07.724843,1782578747.018809,0.0,0.0,1.779526710510254,0.0,0.0,-0.4631726145744324,0.0,0.0,0.0003895640909249624
2026-06-27T13:47:07.834042,1782578747.1238112,0.0,0.0,1.7306967973709106,0.0,0.0,-0.4668295979499817,0.0,0.0,0.0003895640909249624
2026-06-27T13:47:07.942218,1782578747.2318137,0.0,0.0,1.6800936460494995,0.0,0.0,-0.4701767861843109,0.0,0.0,0.0003895640909249624
2026-06-27T13:47:08.052014,1782578747.3398159,0.0,0.0,1.6291491985321045,0.0,0.0,-0.4731510877609253,0.0,0.0,0.0003895640909249624
2026-06-27T13:47:08.160707,1782578747.4448183,0.0,0.0,1.5793298482894897,0.0,0.0,-0.47572484612464905,0.0,0.0,0.0003895640909249624
2026-06-27T13:47:08.269422,1782578747.5528204,0.0,0.0,1.5278205871582031,0.0,0.0,-0.4780811667442322,0.0,0.0,0.0003895640909249624
2026-06-27T13:47:08.378515,1782578747.6578226,0.0,0.0,1.4775118827819824,0.0,0.0,-0.48012015223503113,0.0,0.0,0.0003895640909249624
2026-06-27T13:47:08.486710,1782578747.762825,0.0,0.0,1.4270009994506836,0.0,0.0,-0.48193803429603577,0.0,0.0,0.0003895640909249624
2026-06-27T13:47:08.595874,1782578747.8708272,0.0,0.0,1.3748588562011719,0.0,0.0,-0.4836023449897766,0.0,0.0,0.0003895640909249624
2026-06-27T13:47:08.704554,1782578747.9788296,0.0,0.0,1.3225479125976562,0.0,0.0,-0.48508134484291077,0.0,0.0,0.0003895640909249624
2026-06-27T13:47:08.813729,1782578748.0868318,0.0,0.0,1.2700855731964111,0.0,0.0,-0.4863956868648529,0.0,0.0,0.0003895640909249624
2026-06-27T13:47:08.921918,1782578748.1948342,0.0,0.0,1.2174893617630005,0.0,0.0,-0.4875636696815491,0.0,0.0,0.0003895640909249624
2026-06-27T13:47:09.030994,1782578748.3028364,0.0,0.0,1.1647741794586182,0.0,0.0,-0.48860159516334534,0.0,0.0,0.0003895640909249624
2026-06-27T13:47:09.140256,1782578748.4108388,0.0,0.0,1.1119532585144043,0.0,0.0,-0.4895239770412445,0.0,0.0,0.0003895640909249624
2026-06-27T13:47:09.249838,1782578748.515841,0.0,0.0,1.060509443283081,0.0,0.0,-0.4903220534324646,0.0,0.0,0.0003895640909249624
2026-06-27T13:47:09.358532,1782578748.6208432,0.0,0.0,1.0089865922927856,0.0,0.0,-0.49103376269340515,0.0,0.0,0.0003895640909249624
2026-06-27T13:47:09.466670,1782578748.7258456,0.0,0.0,0.9573929905891418,0.0,0.0,-0.4916684329509735,0.0,0.0,0.0003895640909249624
2026-06-27T13:47:09.575719,1782578748.8368478,0.0,0.0,0.9027829170227051,0.0,0.0,-0.49226444959640503,0.0,0.0,0.0003895640909249624
2026-06-27T13:47:09.684433,1782578748.9448502,0.0,0.0,0.8495888710021973,0.0,0.0,-0.492779016494751,0.0,0.0,0.0003895640909249624
2026-06-27T13:47:09.793498,1782578749.0528524,0.0,0.0,0.7963423728942871,0.0,0.0,-0.493236243724823,0.0,0.0,0.0003895640909249624
2026-06-27T13:47:09.902688,1782578749.1578548,0.0,0.0,0.7445303201675415,0.0,0.0,-0.49363207817077637,0.0,0.0,0.0003895640909249624
2026-06-27T13:47:10.011198,1782578749.265857,0.0,0.0,0.6911972761154175,0.0,0.0,-0.4939942955970764,0.0,0.0,0.0003895640909249624
2026-06-27T13:47:10.120384,1782578749.3738594,0.0,0.0,0.6378270387649536,0.0,0.0,-0.4943162500858307,0.0,0.0,0.0003895640909249624
2026-06-27T13:47:10.228508,1782578749.4818616,0.0,0.0,0.5844240784645081,0.0,0.0,-0.49460238218307495,0.0,0.0,0.0003895640909249624
2026-06-27T13:47:10.336951,1782578749.589864,0.0,0.0,0.5309918522834778,0.0,0.0,-0.49485665559768677,0.0,0.0,0.0003895640909249624
2026-06-27T13:47:10.445653,1782578749.6978662,0.0,0.0,0.5023338794708252,0.0,0.0,-0.06100236251950264,0.0,0.0,0.0003895640909249624
2026-06-27T13:47:10.554767,1782578749.7998683,0.0,0.0,0.5014299154281616,0.0,0.0,-0.06430532038211823,0.0,0.0,0.00038869587708055835
2026-06-27T13:47:10.663457,1782578749.9078708,0.0,0.0,0.45552876591682434,0.0,0.0,-0.7851616144180298,0.0,0.0,0.0003295100148739641
2026-06-27T13:47:10.773148,1782578750.018873,0.0,0.0,0.32789647579193115,0.0,0.0,-1.5103906393051147,0.0,0.0,0.00020861042427646807
2026-06-27T13:47:10.881849,1782578750.1238754,0.0,0.0,0.13449472188949585,0.0,0.0,-2.16774582862854,0.0,0.0,8.367866955425315e-05
2026-06-27T13:47:10.991578,1782578750.2318776,0.0,0.0,-0.1343783140182495,0.0,0.0,-2.803697109222412,0.0,0.0,-2.2530589328059005e-05
2026-06-27T13:47:11.099788,1782578750.33988,0.0,0.0,-0.46934834122657776,0.0,0.0,-3.3905937671661377,0.0,0.0,-8.871597445255437e-05
2026-06-27T13:47:11.209587,1782578750.4448822,0.0,0.0,-0.8530547022819519,0.0,0.0,-3.90910267829895,0.0,0.0,-0.00011218237355013293
2026-06-27T13:47:11.318801,1782578750.5528846,0.0,0.0,-1.3015424013137817,0.0,0.0,-4.386528491973877,0.0,0.0,-0.00010256548679217625
2026-06-27T13:47:11.425914,1782578750.6578867,0.0,0.0,-1.7841235399246216,0.0,0.0,-4.796500205993652,0.0,0.0,-7.284730880473623e-05
2026-06-27T13:47:11.535131,1782578750.759889,0.0,0.0,-2.291276216506958,0.0,0.0,-5.118541717529297,0.0,0.0,-3.742439511933362e-05
2026-06-27T13:47:11.643407,1782578750.864891,0.0,0.0,-2.8329429626464844,0.0,0.0,-5.171966552734375,0.0,0.0,-4.2996877552324795e-06
2026-06-27T13:47:11.752432,1782578750.9728935,0.0,0.0,-3.3909685611724854,0.0,0.0,-5.159379482269287,0.0,0.0,1.9385192752488553e-05
2026-06-27T13:47:11.861136,1782578751.0808957,0.0,0.0,-3.9472742080688477,0.0,0.0,-5.142428874969482,0.0,0.0,3.060579721368967e-05
2026-06-27T13:47:11.970487,1782578751.188898,0.0,0.0,-4.501805782318115,0.0,0.0,-5.126733779907227,0.0,0.0,3.088349251159466e-05
2026-06-27T13:47:12.079025,1782578751.2939003,0.0,0.0,-5.039389133453369,0.0,0.0,-5.112987041473389,0.0,0.0,2.398243997261161e-05
2026-06-27T13:47:12.188195,1782578751.4019027,0.0,0.0,-5.590904712677002,0.0,0.0,-5.100284576416016,0.0,0.0,1.3610537368834225e-05
2026-06-27T13:47:12.296002,1782578751.5069048,0.0,0.0,-6.125852584838867,0.0,0.0,-5.089193344116211,0.0,0.0,3.7439645497362043e-06
2026-06-27T13:47:12.405684,1782578751.614907,0.0,0.0,-6.674934387207031,0.0,0.0,-5.078948497772217,0.0,0.0,-4.024601631721575e-06
2026-06-27T13:47:12.514357,1782578751.7229095,0.0,0.0,-7.222967624664307,0.0,0.0,-5.069761753082275,0.0,0.0,-9.073856052066457e-06
2026-06-27T13:47:12.624046,1782578751.8279116,0.0,0.0,-7.754876136779785,0.0,0.0,-5.061742305755615,0.0,0.0,-1.222529904019728e-05
2026-06-27T13:47:12.732739,1782578751.932914,0.0,0.0,-8.285985946655273,0.0,0.0,-5.054530143737793,0.0,0.0,-1.4069287141425563e-05
2026-06-27T13:47:12.841322,1782578752.0379162,0.0,0.0,-8.816376686096191,0.0,0.0,-5.048044681549072,0.0,0.0,-1.1800400547191701e-05
2026-06-27T13:47:12.951039,1782578752.1429183,0.0,0.0,-9.346123695373535,0.0,0.0,-5.042211532592773,0.0,0.0,-9.770994555587344e-06
2026-06-27T13:47:13.060362,1782578752.2509208,0.0,0.0,-9.890398979187012,0.0,0.0,-5.036825180053711,0.0,0.0,-8.368274066421598e-06
2026-06-27T13:47:13.168050,1782578752.355923,0.0,0.0,-10.419026374816895,0.0,0.0,-5.032124042510986,0.0,0.0,-7.572056959018758e-06
2026-06-27T13:47:13.277309,1782578752.4639254,0.0,0.0,-10.962268829345703,0.0,0.0,-5.0277814865112305,0.0,0.0,-6.8842803800361055e-06
2026-06-27T13:47:13.385547,1782578752.5719275,0.0,0.0,-11.505067825317383,0.0,0.0,-5.023887634277344,0.0,0.0,-6.196503801053456e-06
2026-06-27T13:47:13.495246,1782578752.67993,0.0,0.0,-12.047467231750488,0.0,0.0,-5.0203986167907715,0.0,0.0,-5.508727222070807e-06
2026-06-27T13:47:13.603060,1782578752.7879322,0.0,0.0,-12.589509010314941,0.0,0.0,-5.017270088195801,0.0,0.0,-4.820950643088159e-06
2026-06-27T13:47:13.711131,1782578752.8929343,0.0,0.0,-13.11618709564209,0.0,0.0,-5.014537811279297,0.0,0.0,-4.152278969077252e-06
2026-06-27T13:47:13.819806,1782578753.0009367,0.0,0.0,-13.657630920410156,0.0,0.0,-5.012017250061035,0.0,0.0,-3.4645023900946047e-06
2026-06-27T13:47:13.929292,1782578753.108939,0.0,0.0,-14.19881534576416,0.0,0.0,-5.009756565093994,0.0,0.0,-2.7767258111119584e-06
2026-06-27T13:47:14.037965,1782578753.2169414,0.0,0.0,-14.739768981933594,0.0,0.0,-5.007730007171631,0.0,0.0,-2.088949232129312e-06
2026-06-27T13:47:14.145948,1782578753.3249435,0.0,0.0,-15.280515670776367,0.0,0.0,-5.005913257598877,0.0,0.0,-1.401172653146667e-06
2026-06-27T13:47:14.255639,1782578753.432946,0.0,0.0,-15.821076393127441,0.0,0.0,-5.004284858703613,0.0,0.0,-7.133960741640212e-07
2026-06-27T13:47:14.364219,1782578753.5409482,0.0,0.0,-16.361467361450195,0.0,0.0,-5.002824783325195,0.0,0.0,-2.5618935403751948e-08
2026-06-27T13:47:14.473815,1782578753.6489506,0.0,0.0,-16.90171241760254,0.0,0.0,-5.001516342163086,0.0,0.0,5.276190609977388e-07
2026-06-27T13:47:14.582523,1782578753.7569528,0.0,0.0,-17.441822052001953,0.0,0.0,-5.000342845916748,0.0,0.0,7.92942662747172e-07
2026-06-27T13:47:14.690812,1782578753.8649552,0.0,0.0,-17.981815338134766,0.0,0.0,-4.99929141998291,0.0,0.0,9.296457018445937e-07
2026-06-27T13:47:14.801121,1782578753.9729574,0.0,0.0,-18.521696090698242,0.0,0.0,-4.998348236083984,0.0,0.0,9.783601969011368e-07
2026-06-27T13:47:14.908706,1782578754.0809598,0.0,0.0,-19.061487197875977,0.0,0.0,-4.99750280380249,0.0,0.0,1.0265364912167015e-06
2026-06-27T13:47:15.018928,1782578754.185962,0.0,0.0,-19.586196899414062,0.0,0.0,-4.996765613555908,0.0,0.0,1.0373111927000017e-06
2026-06-27T13:47:15.128618,1782578754.2939644,0.0,0.0,-20.12582015991211,0.0,0.0,-4.996083736419678,0.0,0.0,1.0470097980345946e-06
2026-06-27T13:47:15.235845,1782578754.3989666,0.0,0.0,-20.650390625,0.0,0.0,-4.995489597320557,0.0,0.0,1.0564389976654484e-06
2026-06-27T13:47:15.345589,1782578754.509969,0.0,0.0,-21.20487403869629,0.0,0.0,-4.994925498962402,0.0,0.0,1.0664070087037799e-06
2026-06-27T13:47:15.454279,1782578754.6149712,0.0,0.0,-21.729318618774414,0.0,0.0,-4.994447708129883,0.0,0.0,1.075836208334634e-06
2026-06-27T13:47:15.563907,1782578754.7229733,0.0,0.0,-22.26870346069336,0.0,0.0,-4.994006156921387,0.0,0.0,1.0524376054317928e-06
2026-06-27T13:47:15.672142,1782578754.8309758,0.0,0.0,-22.808055877685547,0.0,0.0,-4.993610382080078,0.0,0.0,1.0040141947396972e-06
2026-06-27T13:47:15.780557,1782578754.935978,0.0,0.0,-23.332366943359375,0.0,0.0,-4.993264675140381,0.0,0.0,9.569358787890487e-07
2026-06-27T13:47:15.889703,1782578755.0409803,0.0,0.0,-23.856664657592773,0.0,0.0,-4.992953777313232,0.0,0.0,9.098575628384003e-07
2026-06-27T13:47:15.999232,1782578755.1489825,0.0,0.0,-24.39588737487793,0.0,0.0,-4.992667198181152,0.0,0.0,8.614341521463048e-07
2026-06-27T13:47:16.107943,1782578755.2539847,0.0,0.0,-24.92013168334961,0.0,0.0,-4.9924163818359375,0.0,0.0,8.143558361956563e-07
2026-06-27T13:47:16.217136,1782578755.358987,0.0,0.0,-25.444320678710938,0.0,0.0,-4.992191314697266,0.0,0.0,7.672775202450078e-07
2026-06-27T13:47:16.325668,1782578755.4669893,0.0,0.0,-25.983474731445312,0.0,0.0,-4.9919819831848145,0.0,0.0,7.188541095529123e-07
2026-06-27T13:47:16.434373,1782578755.5719914,0.0,0.0,-26.507652282714844,0.0,0.0,-4.991800785064697,0.0,0.0,6.717757936022638e-07
2026-06-27T13:47:16.543614,1782578755.6799939,0.0,0.0,-27.04676055908203,0.0,0.0,-4.991633415222168,0.0,0.0,6.233523829101682e-07
2026-06-27T13:47:16.651815,1782578755.787996,0.0,0.0,-27.585845947265625,0.0,0.0,-4.991482257843018,0.0,0.0,5.749289722180727e-07
2026-06-27T13:47:16.761456,1782578755.8959985,0.0,0.0,-28.12493133544922,0.0,0.0,-4.9913458824157715,0.0,0.0,5.265055615259771e-07
2026-06-27T13:47:16.869597,1782578756.0040007,0.0,0.0,-28.664016723632812,0.0,0.0,-4.99122953414917,0.0,0.0,4.780821508338816e-07
2026-06-27T13:47:16.979378,1782578756.112003,0.0,0.0,-29.203102111816406,0.0,0.0,-4.991126537322998,0.0,0.0,4.2965874014178604e-07
2026-06-27T13:47:17.087565,1782578756.2170053,0.0,0.0,-29.72715950012207,0.0,0.0,-4.99102783203125,0.0,0.0,3.825812638575735e-07
2026-06-27T13:47:17.195689,1782578756.3220077,0.0,0.0,-30.251203536987305,0.0,0.0,-4.9909443855285645,0.0,0.0,3.3550383846223584e-07
2026-06-27T13:47:17.305392,1782578756.4270098,0.0,0.0,-30.77524757385254,0.0,0.0,-4.990865230560303,0.0,0.0,2.884264130668982e-07
2026-06-27T13:47:17.414562,1782578756.535012,0.0,0.0,-31.31426429748535,0.0,0.0,-4.990795135498047,0.0,0.0,2.400039183745509e-07
2026-06-27T13:47:17.524275,1782578756.6430144,0.0,0.0,-31.853281021118164,0.0,0.0,-4.990726470947266,0.0,0.0,1.915814236822036e-07
2026-06-27T13:47:17.632018,1782578756.7450166,0.0,0.0,-32.36235046386719,0.0,0.0,-4.9906744956970215,0.0,0.0,1.458490675838756e-07
2026-06-27T13:47:17.740695,1782578756.853019,0.0,0.0,-32.9013671875,0.0,0.0,-4.9906229972839355,0.0,0.0,9.742652836376274e-08
2026-06-27T13:47:17.850810,1782578756.9610212,0.0,0.0,-33.44038391113281,0.0,0.0,-4.99057149887085,0.0,0.0,4.900381739369711e-08
2026-06-27T13:47:17.959987,1782578757.0690234,0.0,0.0,-33.979400634765625,0.0,0.0,-4.990531921386719,0.0,0.0,5.812003493869103e-10
2026-06-27T13:47:18.067752,1782578757.1740258,0.0,0.0,-34.50344467163086,0.0,0.0,-4.990497589111328,0.0,0.0,-4.6496344416143626e-08
2026-06-27T13:47:18.175965,1782578757.282028,0.0,0.0,-35.04246139526367,0.0,0.0,-4.9904632568359375,0.0,0.0,-9.49190490250999e-08
2026-06-27T13:47:18.285528,1782578757.3900304,0.0,0.0,-35.581478118896484,0.0,0.0,-4.990428924560547,0.0,0.0,-1.433415946063221e-07
2026-06-27T13:47:18.394051,1782578757.4980326,0.0,0.0,-36.1204948425293,0.0,0.0,-4.9904022216796875,0.0,0.0,-1.917640892986694e-07
2026-06-27T13:47:18.503450,1782578757.606035,0.0,0.0,-36.65951156616211,0.0,0.0,-4.990377902984619,0.0,0.0,-2.4018658399101666e-07
2026-06-27T13:47:18.612506,1782578757.7140372,0.0,0.0,-37.19852828979492,0.0,0.0,-4.990357875823975,0.0,0.0,-2.88609078683364e-07
2026-06-27T13:47:18.720737,1782578757.8220396,0.0,0.0,-37.737545013427734,0.0,0.0,-4.990337371826172,0.0,0.0,-3.370315733757113e-07
2026-06-27T13:47:18.830010,1782578757.9300418,0.0,0.0,-38.27656173706055,0.0,0.0,-4.990320205688477,0.0,0.0,-3.8545406806805855e-07
2026-06-27T13:47:18.939057,1782578758.0350442,0.0,0.0,-38.80060577392578,0.0,0.0,-4.9903035163879395,0.0,0.0,-4.3253162068558346e-07
2026-06-27T13:47:19.047638,1782578758.1460464,0.0,0.0,-39.35459518432617,0.0,0.0,-4.990285873413086,0.0,0.0,-4.823001261191261e-07
2026-06-27T13:47:19.156244,1782578758.2510488,0.0,0.0,-39.878639221191406,0.0,0.0,-4.990269660949707,0.0,0.0,-5.293784420697746e-07
2026-06-27T13:47:19.265509,1782578758.359051,0.0,0.0,-40.41765594482422,0.0,0.0,-4.99025821685791,0.0,0.0,-5.778018527618702e-07
2026-06-27T13:47:19.373565,1782578758.4640532,0.0,0.0,-40.94169998168945,0.0,0.0,-4.9902472496032715,0.0,0.0,-6.248801687125186e-07
2026-06-27T13:47:19.482243,1782578758.5720556,0.0,0.0,-41.480716705322266,0.0,0.0,-4.990238666534424,0.0,0.0,-6.733035794046141e-07
2026-06-27T13:47:19.590954,1782578758.6800578,0.0,0.0,-42.01973342895508,0.0,0.0,-4.99022912979126,0.0,0.0,-7.217269900967098e-07
2026-06-27T13:47:19.700163,1782578758.7880602,0.0,0.0,-42.55875015258789,0.0,0.0,-4.99022102355957,0.0,0.0,-7.701504007888053e-07
2026-06-27T13:47:19.809062,1782578758.8960624,0.0,0.0,-43.0977668762207,0.0,0.0,-4.990214824676514,0.0,0.0,-8.185738114809008e-07
2026-06-27T13:47:19.918604,1782578759.0040648,0.0,0.0,-43.636783599853516,0.0,0.0,-4.990208625793457,0.0,0.0,-8.669972221729964e-07
2026-06-27T13:47:20.025833,1782578759.112067,0.0,0.0,-44.17580032348633,0.0,0.0,-4.990200996398926,0.0,0.0,-9.154206328650919e-07
2026-06-27T13:47:20.135835,1782578759.2170694,0.0,0.0,-44.69984436035156,0.0,0.0,-4.990196228027344,0.0,0.0,-9.624989488157405e-07
2026-06-27T13:47:20.244758,1782578759.3220716,0.0,0.0,-45.2238883972168,0.0,0.0,-4.99019193649292,0.0,0.0,-1.0095772647663888e-06
2026-06-27T13:47:20.353750,1782578759.4300737,0.0,0.0,-45.76290512084961,0.0,0.0,-4.990188121795654,0.0,0.0,-1.0580006754584846e-06
2026-06-27T13:47:20.461992,1782578759.5350761,0.0,0.0,-46.286949157714844,0.0,0.0,-4.990184783935547,0.0,0.0,-1.105078991409133e-06
2026-06-27T13:47:20.571114,1782578759.6430783,0.0,0.0,-46.825965881347656,0.0,0.0,-4.990180015563965,0.0,0.0,-1.1535024021012286e-06
2026-06-27T13:47:20.680192,1782578759.7480807,0.0,0.0,-47.35000991821289,0.0,0.0,-4.990175724029541,0.0,0.0,-1.2005807180518769e-06
2026-06-27T13:47:20.789419,1782578759.856083,0.0,0.0,-47.8890266418457,0.0,0.0,-4.990171909332275,0.0,0.0,-1.2490041287439725e-06
2026-06-27T13:47:20.897545,1782578759.9640853,0.0,0.0,-48.428043365478516,0.0,0.0,-4.990168571472168,0.0,0.0,-1.297427539436068e-06
2026-06-27T13:47:21.006856,1782578760.0720875,0.0,0.0,-48.96706008911133,0.0,0.0,-4.990165710449219,0.0,0.0,-1.3458509501281636e-06
2026-06-27T13:47:21.115591,1782578760.18009,0.0,0.0,-49.50607681274414,0.0,0.0,-4.990163326263428,0.0,0.0,-1.3942743608202594e-06
2026-06-27T13:47:21.224285,1782578760.2880921,0.0,0.0,-50.04509353637695,0.0,0.0,-4.990159511566162,0.0,0.0,-1.442697771512355e-06
2026-06-27T13:47:21.332967,1782578760.3960946,0.0,0.0,-50.584110260009766,0.0,0.0,-4.9901580810546875,0.0,0.0,-1.4911211822044504e-06
2026-06-27T13:47:21.442169,1782578760.5010967,0.0,0.0,-51.108154296875,0.0,0.0,-4.990156650543213,0.0,0.0,-1.538199498155099e-06
2026-06-27T13:47:21.552188,1782578760.606099,0.0,0.0,-51.632198333740234,0.0,0.0,-4.99015474319458,0.0,0.0,-1.5852778141057475e-06
2026-06-27T13:47:21.660450,1782578760.7141013,0.0,0.0,-52.171180725097656,0.0,0.0,-4.990152359008789,0.0,0.0,-1.633701224797843e-06
2026-06-27T13:47:21.769171,1782578760.8221035,0.0,0.0,-52.710060119628906,0.0,0.0,-4.990148544311523,0.0,0.0,-1.6821246354899385e-06
2026-06-27T13:47:21.878838,1782578760.927106,0.0,0.0,-53.233970642089844,0.0,0.0,-4.990147590637207,0.0,0.0,-1.729202951440587e-06
2026-06-27T13:47:21.986908,1782578761.035108,0.0,0.0,-53.772850036621094,0.0,0.0,-4.990146160125732,0.0,0.0,-1.7776263621326825e-06
2026-06-27T13:47:22.095530,1782578761.1431105,0.0,0.0,-54.311729431152344,0.0,0.0,-4.990143775939941,0.0,0.0,-1.826049772824778e-06
2026-06-27T13:47:22.204743,1782578761.2511127,0.0,0.0,-54.850608825683594,0.0,0.0,-4.990141868591309,0.0,0.0,-1.8744731835168737e-06
2026-06-27T13:47:22.313953,1782578761.3561149,0.0,0.0,-55.37451934814453,0.0,0.0,-4.990139961242676,0.0,0.0,-1.9215514994675223e-06
2026-06-27T13:47:22.422367,1782578761.4641173,0.0,0.0,-55.91339874267578,0.0,0.0,-4.990139961242676,0.0,0.0,-1.969974910159618e-06
2026-06-27T13:47:22.530708,1782578761.5721195,0.0,0.0,-56.45227813720703,0.0,0.0,-4.990139007568359,0.0,0.0,-2.018398320851713e-06
2026-06-27T13:47:22.640489,1782578761.683122,0.0,0.0,-57.006126403808594,0.0,0.0,-4.990138053894043,0.0,0.0,-2.068166826285256e-06
2026-06-27T13:47:22.749727,1782578761.791124,0.0,0.0,-57.545005798339844,0.0,0.0,-4.99013614654541,0.0,0.0,-2.1165902369773514e-06
2026-06-27T13:47:22.857666,1782578761.8991265,0.0,0.0,-58.083885192871094,0.0,0.0,-4.990134239196777,0.0,0.0,-2.165013647669447e-06
2026-06-27T13:47:22.966994,1782578762.0041287,0.0,0.0,-58.60779571533203,0.0,0.0,-4.990132808685303,0.0,0.0,-2.212091963620096e-06
2026-06-27T13:47:23.074794,1782578762.112131,0.0,0.0,-59.14667510986328,0.0,0.0,-4.99013090133667,0.0,0.0,-2.2605153743121916e-06
2026-06-27T13:47:23.183521,1782578762.2201333,0.0,0.0,-59.68555450439453,0.0,0.0,-4.990128993988037,0.0,0.0,-2.3089387850042864e-06
2026-06-27T13:47:23.292196,1782578762.3281357,0.0,0.0,-60.22443389892578,0.0,0.0,-4.990128993988037,0.0,0.0,-2.357362195696383e-06
2026-06-27T13:47:23.401421,1782578762.433138,0.0,0.0,-60.74834442138672,0.0,0.0,-4.990128040313721,0.0,0.0,-2.404440511647031e-06
2026-06-27T13:47:23.511109,1782578762.5411403,0.0,0.0,-61.28722381591797,0.0,0.0,-4.990126132965088,0.0,0.0,-2.4528639223391266e-06
2026-06-27T13:47:23.619380,1782578762.628142,0.0,0.0,-61.72132110595703,0.0,0.0,-4.990126132965088,0.0,0.0,-2.491871669841092e-06
2026-06-27T13:47:23.729132,1782578762.7361443,0.0,0.0,-62.26020050048828,0.0,0.0,-4.9901251792907715,0.0,0.0,-2.5402950805331878e-06
2026-06-27T13:47:23.838818,1782578762.8441467,0.0,0.0,-62.79907989501953,0.0,0.0,-4.990124225616455,0.0,0.0,-2.5887184912252834e-06
2026-06-27T13:47:23.945640,1782578762.949149,0.0,0.0,-63.32299041748047,0.0,0.0,-4.990122318267822,0.0,0.0,-2.6357968071759323e-06
2026-06-27T13:47:24.055878,1782578763.0571513,0.0,0.0,-63.86186981201172,0.0,0.0,-4.9901204109191895,0.0,0.0,-2.684220217868028e-06
2026-06-27T13:47:24.164613,1782578763.1651535,0.0,0.0,-64.40074920654297,0.0,0.0,-4.990118980407715,0.0,0.0,-2.7326436285601236e-06
2026-06-27T13:47:24.273811,1782578763.273156,0.0,0.0,-64.93962860107422,0.0,0.0,-4.990118980407715,0.0,0.0,-2.7810670392522192e-06
2026-06-27T13:47:24.382407,1782578763.381158,0.0,0.0,-65.47850799560547,0.0,0.0,-4.990118026733398,0.0,0.0,-2.829490449944315e-06
2026-06-27T13:47:24.492611,1782578763.4861603,0.0,0.0,-66.0024185180664,0.0,0.0,-4.990117073059082,0.0,0.0,-2.876568765894963e-06
2026-06-27T13:47:24.600329,1782578763.5911627,0.0,0.0,-66.52632904052734,0.0,0.0,-4.990116596221924,0.0,0.0,-2.923647081845612e-06
2026-06-27T13:47:24.708525,1782578763.6961648,0.0,0.0,-67.05023956298828,0.0,0.0,-4.990115642547607,0.0,0.0,-2.97072539779626e-06
2026-06-27T13:47:24.819000,1782578763.8041673,0.0,0.0,-67.58911895751953,0.0,0.0,-4.990114688873291,0.0,0.0,-3.019148808488356e-06
2026-06-27T13:47:24.925540,1782578763.9091694,0.0,0.0,-68.11302947998047,0.0,0.0,-4.990113735198975,0.0,0.0,-3.0662271244390046e-06
2026-06-27T13:47:25.035722,1782578764.0141716,0.0,0.0,-68.6369400024414,0.0,0.0,-4.990111827850342,0.0,0.0,-3.113305440389653e-06
2026-06-27T13:47:25.145387,1782578764.122174,0.0,0.0,-69.17581939697266,0.0,0.0,-4.990110397338867,0.0,0.0,-3.1617288510817487e-06
2026-06-27T13:47:25.253274,1782578764.2301762,0.0,0.0,-69.7146987915039,0.0,0.0,-4.990109443664551,0.0,0.0,-3.210152261773844e-06
2026-06-27T13:47:25.361476,1782578764.3351786,0.0,0.0,-70.23860931396484,0.0,0.0,-4.990108489990234,0.0,0.0,-3.2572305777244933e-06
2026-06-27T13:47:25.470633,1782578764.4431808,0.0,0.0,-70.7774887084961,0.0,0.0,-4.990107536315918,0.0,0.0,-3.3056539884165885e-06
2026-06-27T13:47:25.579831,1782578764.551183,0.0,0.0,-71.31636810302734,0.0,0.0,-4.990106582641602,0.0,0.0,-3.354077399108684e-06
2026-06-27T13:47:25.688913,1782578764.6561854,0.0,0.0,-71.84027862548828,0.0,0.0,-4.990105628967285,0.0,0.0,-3.4011557150593327e-06
2026-06-27T13:47:25.797646,1782578764.7611876,0.0,0.0,-72.36418914794922,0.0,0.0,-4.990104675292969,0.0,0.0,-3.4482338274544817e-06
2026-06-27T13:47:25.905823,1782578764.86919,0.0,0.0,-72.90306854248047,0.0,0.0,-4.990103244781494,0.0,0.0,-3.496657238146577e-06
2026-06-27T13:47:26.015515,1782578764.9771922,0.0,0.0,-73.44194793701172,0.0,0.0,-4.990102291107178,0.0,0.0,-3.5450806488386726e-06
2026-06-27T13:47:26.124750,1782578765.0851946,0.0,0.0,-73.96585845947266,0.0,0.0,-4.990100860595703,0.0,0.0,-3.592158964789321e-06
2026-06-27T13:47:26.233967,1782578765.1931968,0.0,0.0,-74.51970672607422,0.0,0.0,-4.9900994300842285,0.0,0.0,-3.641927470222864e-06
2026-06-27T13:47:26.342171,1782578765.3011992,0.0,0.0,-75.05858612060547,0.0,0.0,-4.990098476409912,0.0,0.0,-3.6903508809149603e-06
2026-06-27T13:47:26.450861,1782578765.4062014,0.0,0.0,-75.5824966430664,0.0,0.0,-4.990097999572754,0.0,0.0,-3.737429196865608e-06
2026-06-27T13:47:26.560054,1782578765.5142035,0.0,0.0,-76.12137603759766,0.0,0.0,-4.9900970458984375,0.0,0.0,-3.7858526075577045e-06
2026-06-27T13:47:26.669311,1782578765.622206,0.0,0.0,-76.6602554321289,0.0,0.0,-4.990095615386963,0.0,0.0,-3.8342760182498e-06
2026-06-27T13:47:26.778512,1782578765.7302082,0.0,0.0,-77.19913482666016,0.0,0.0,-4.9900946617126465,0.0,0.0,-3.882699428941896e-06
2026-06-27T13:47:26.887731,1782578765.8412106,0.0,0.0,-77.75298309326172,0.0,0.0,-4.99009370803833,0.0,0.0,-3.932467934375438e-06
2026-06-27T13:47:26.996896,1782578765.9462128,0.0,0.0,-78.27689361572266,0.0,0.0,-4.990093231201172,0.0,0.0,-3.979546250326087e-06
2026-06-27T13:47:27.105643,1782578766.0542152,0.0,0.0,-78.8157730102539,0.0,0.0,-4.990091800689697,0.0,0.0,-4.027969661018183e-06
2026-06-27T13:47:27.214887,1782578766.1622174,0.0,0.0,-79.35465240478516,0.0,0.0,-4.990090370178223,0.0,0.0,-4.076393071710278e-06
2026-06-27T13:47:27.323045,1782578766.2702198,0.0,0.0,-79.8935317993164,0.0,0.0,-4.990089416503906,0.0,0.0,-4.124816482402373e-06
2026-06-27T13:47:27.432341,1782578766.378222,0.0,0.0,-80.43241119384766,0.0,0.0,-4.990087985992432,0.0,0.0,-4.1732398930944695e-06
2026-06-27T13:47:27.541448,1782578766.4832244,0.0,0.0,-80.9563217163086,0.0,0.0,-4.990086078643799,0.0,0.0,-4.220318209045118e-06
2026-06-27T13:47:27.650136,1782578766.5912266,0.0,0.0,-81.49520111083984,0.0,0.0,-4.990086078643799,0.0,0.0,-4.268741619737213e-06
2026-06-27T13:47:27.759362,1782578766.696229,0.0,0.0,-82.01911163330078,0.0,0.0,-4.990085601806641,0.0,0.0,-4.315819935687862e-06
2026-06-27T13:47:27.868203,1782578766.8042312,0.0,0.0,-82.55799102783203,0.0,0.0,-4.990084171295166,0.0,0.0,-4.364243346379958e-06
2026-06-27T13:47:27.975857,1782578766.9092333,0.0,0.0,-83.08190155029297,0.0,0.0,-4.99008321762085,0.0,0.0,-4.411321662330607e-06
2026-06-27T13:47:28.085223,1782578767.0172358,0.0,0.0,-83.62078094482422,0.0,0.0,-4.990082263946533,0.0,0.0,-4.459745073022702e-06
2026-06-27T13:47:28.194963,1782578767.128238,0.0,0.0,-84.17462921142578,0.0,0.0,-4.990081310272217,0.0,0.0,-4.509513578456245e-06
2026-06-27T13:47:28.303142,1782578767.2332404,0.0,0.0,-84.69853973388672,0.0,0.0,-4.9900803565979,0.0,0.0,-4.556591894406893e-06
2026-06-27T13:47:28.411689,1782578767.3412426,0.0,0.0,-85.23741912841797,0.0,0.0,-4.990078926086426,0.0,0.0,-4.605015305098988e-06
2026-06-27T13:47:28.520900,1782578767.449245,0.0,0.0,-85.77629852294922,0.0,0.0,-4.990077972412109,0.0,0.0,-4.653438715791086e-06
2026-06-27T13:47:28.630094,1782578767.5572472,0.0,0.0,-86.31517791748047,0.0,0.0,-4.990077018737793,0.0,0.0,-4.7018621264831805e-06
2026-06-27T13:47:28.739175,1782578767.6652496,0.0,0.0,-86.85405731201172,0.0,0.0,-4.990076065063477,0.0,0.0,-4.750285537175276e-06
2026-06-27T13:47:28.847794,1782578767.7702518,0.0,0.0,-87.37796783447266,0.0,0.0,-4.99007511138916,0.0,0.0,-4.797363853125925e-06
2026-06-27T13:47:28.956505,1782578767.875254,0.0,0.0,-87.9018783569336,0.0,0.0,-4.990074157714844,0.0,0.0,-4.844442169076573e-06
2026-06-27T13:47:29.065267,1782578767.9802563,0.0,0.0,-88.42578887939453,0.0,0.0,-4.9900736808776855,0.0,0.0,-4.891520485027223e-06
2026-06-27T13:47:29.174453,1782578768.0852585,0.0,0.0,-88.94969940185547,0.0,0.0,-4.990072727203369,0.0,0.0,-4.938598800977871e-06
2026-06-27T13:47:29.283033,1782578768.193261,0.0,0.0,-89.48857879638672,0.0,0.0,-4.9900712966918945,0.0,0.0,-4.987022211669967e-06
2026-06-27T13:47:29.392476,1782578768.301263,0.0,0.0,-90.02745819091797,0.0,0.0,-4.99006986618042,0.0,0.0,-5.035445622362062e-06
2026-06-27T13:47:29.500664,1782578768.4092655,0.0,0.0,-90.56633758544922,0.0,0.0,-4.990068435668945,0.0,0.0,-5.083869033054158e-06
2026-06-27T13:47:29.610356,1782578768.5172677,0.0,0.0,-91.10521697998047,0.0,0.0,-4.990068435668945,0.0,0.0,-5.132292443746254e-06
2026-06-27T13:47:29.719045,1782578768.6222699,0.0,0.0,-91.6291275024414,0.0,0.0,-4.990067481994629,0.0,0.0,-5.179370759696902e-06
2026-06-27T13:47:29.827722,1782578768.7302723,0.0,0.0,-92.16800689697266,0.0,0.0,-4.9900665283203125,0.0,0.0,-5.227794170388997e-06
2026-06-27T13:47:29.935897,1782578768.8382745,0.0,0.0,-92.7068862915039,0.0,0.0,-4.99006462097168,0.0,0.0,-5.276217581081095e-06
2026-06-27T13:47:30.047475,1782578768.946277,0.0,0.0,-93.24576568603516,0.0,0.0,-4.990063190460205,0.0,0.0,-5.324640991773189e-06
2026-06-27T13:47:30.155672,1782578769.048279,0.0,0.0,-93.75470733642578,0.0,0.0,-4.990063190460205,0.0,0.0,-5.3703742129823925e-06
2026-06-27T13:47:30.263443,1782578769.1532812,0.0,0.0,-94.27861785888672,0.0,0.0,-4.990062236785889,0.0,0.0,-5.41745252893304e-06
2026-06-27T13:47:30.372706,1782578769.2612836,0.0,0.0,-94.81749725341797,0.0,0.0,-4.990061283111572,0.0,0.0,-5.465875939625136e-06
2026-06-27T13:47:30.480360,1782578769.3692858,0.0,0.0,-95.35637664794922,0.0,0.0,-4.990060329437256,0.0,0.0,-5.514299350317232e-06
2026-06-27T13:47:30.590555,1782578769.4772882,0.0,0.0,-95.89525604248047,0.0,0.0,-4.9900593757629395,0.0,0.0,-5.5627227610093275e-06
2026-06-27T13:47:30.699267,1782578769.5822904,0.0,0.0,-96.4191665649414,0.0,0.0,-4.990058422088623,0.0,0.0,-5.609801076959976e-06
2026-06-27T13:47:30.809463,1782578769.6932929,0.0,0.0,-96.97301483154297,0.0,0.0,-4.990057468414307,0.0,0.0,-5.659569582393519e-06
2026-06-27T13:47:30.917036,1782578769.795295,0.0,0.0,-97.4819564819336,0.0,0.0,-4.990056037902832,0.0,0.0,-5.705302803602721e-06
2026-06-27T13:47:31.025196,1782578769.9032972,0.0,0.0,-98.02083587646484,0.0,0.0,-4.990055084228516,0.0,0.0,-5.753726214294815e-06
2026-06-27T13:47:31.134429,1782578770.0112996,0.0,0.0,-98.5597152709961,0.0,0.0,-4.990054130554199,0.0,0.0,-5.802149624986912e-06
2026-06-27T13:47:31.243545,1782578770.1193018,0.0,0.0,-99.09859466552734,0.0,0.0,-4.990053176879883,0.0,0.0,-5.850573035679008e-06
2026-06-27T13:47:31.351746,1782578770.2243042,0.0,0.0,-99.62250518798828,0.0,0.0,-4.990052223205566,0.0,0.0,-5.897651351629657e-06
2026-06-27T13:47:31.460426,1782578770.3323064,7.75625008664349e-10,-2.4627558325995835e-10,-100.16126251220703,3.93739099990853e-07,-1.250387526852137e-07,-4.967515468597412,-0.0005153229850668793,-0.0016245867434829624,-0.017082893039786683
2026-06-27T13:47:31.569631,1782578770.4403088,4.378193261800334e-05,-1.273013731406536e-05,-100.68933868408203,0.001613510656170547,-0.0004612075863406062,-4.851449489593506,-0.06809415025390579,-0.2755267944139203,-1.8170318834814603
2026-06-27T13:47:31.679917,1782578770.548311,0.0006851605721749365,-0.00019278156105428934,-101.2169189453125,0.012474644929170609,-0.0034800590947270393,-4.948657512664795,-0.14879606379101654,-0.8719512777696363,-5.753874432089332
2026-06-27T13:47:31.788116,1782578770.6563134,0.0031606131233274937,-0.0008791157742962241,-101.7552719116211,0.03526446595788002,-0.009740948677062988,-4.9994072914123535,-0.1357530676185617,-1.6196265365999714,-10.501430269323995
2026-06-27T13:47:31.895717,1782578770.7643156,0.008765507489442825,-0.0024207117967307568,-102.29519653320312,0.07080090045928955,-0.01940934918820858,-4.996993541717529,-0.018298990545867054,-2.418423360571986,-14.719610387091562
2026-06-27T13:47:32.005411,1782578770.872318,0.018960386514663696,-0.005204854067414999,-102.83439636230469,0.12030918896198273,-0.03275215998291969,-4.987240791320801,0.14433409584215112,-3.2092387635702044,-17.592670256000478
2026-06-27T13:47:32.114286,1782578770.9803202,0.035246841609478,-0.009623270481824875,-103.37232971191406,0.18352395296096802,-0.049645911902189255,-4.973368167877197,0.2760358859592236,-3.974771286934773,-18.885452264550484
2026-06-27T13:47:32.223026,1782578771.0883226,0.059073708951473236,-0.016049867495894432,-103.908447265625,0.2598540484905243,-0.06991630047559738,-4.953540802001953,0.32793533612922654,-4.729262594467845,-18.80928483672738
2026-06-27T13:47:32.331745,1782578771.1963248,0.09182608872652054,-0.02484157867729664,-104.44207763671875,0.34866786003112793,-0.09340997040271759,-4.926893711090088,0.2882340612350767,-5.457562422633539,-17.827221393138714
2026-06-27T13:47:32.440947,1782578771.3043272,0.13480928540229797,-0.036336638033390045,-104.9723892211914,0.44918349385261536,-0.11994930356740952,-4.89198637008667,0.18026256974564173,-6.1589581142795,-16.46432786902064
2026-06-27T13:47:32.549652,1782578771.4123294,0.18924160301685333,-0.05085368826985359,-105.4984130859375,0.5605629086494446,-0.149344801902771,-4.847174644470215,0.04502962580730128,-6.83076942803428,-15.164824902361318
2026-06-27T13:47:32.658678,1782578771.5203319,0.25625211000442505,-0.0686909556388855,-106.01898193359375,0.6819764971733093,-0.18140189349651337,-4.7909040451049805,-0.07567504995578712,-7.475969745430151,-14.214148524485449
2026-06-27T13:47:32.767863,1782578771.628334,0.33688125014305115,-0.09012534469366074,-106.53279113769531,0.8125972747802734,-0.21591724455356598,-4.721668720245361,-0.15280067585547957,-8.098850558940569,-13.72338950491503
2026-06-27T13:47:32.877015,1782578771.7333362,0.42922961711883545,-0.11465445160865784,-107.0244369506836,0.9476291537284851,-0.2516287863254547,-4.640505313873291,-0.17564849843459923,-8.686357069420858,-13.656417070938812
2026-06-27T13:47:32.985300,1782578771.8413386,0.5394085049629211,-0.14390376210212708,-107.5203628540039,1.0939182043075562,-0.2903463840484619,-4.540581703186035,-0.15141413999718636,-9.277701222248691,-13.889794782799688
2026-06-27T13:47:33.094996,1782578771.9493408,0.6657618880271912,-0.17743536829948425,-108.00458526611328,1.2468434572219849,-0.3308478891849518,-4.422816753387451,-0.09601545159237247,-9.847223765896553,-14.276148408635347
2026-06-27T13:47:33.203740,1782578772.0573432,0.8089359998703003,-0.21542315185070038,-108.47498321533203,1.405242919921875,-0.3728213906288147,-4.284054756164551,-0.030686931467657504,-10.40376351856492,-14.674395428283574
2026-06-27T13:47:33.312237,1782578772.1593454,0.9600827097892761,-0.25552165508270264,-108.90437316894531,1.5586944818496704,-0.4134991466999054,-4.130310535430908,0.023276400906145498,-10.92207589504951,-14.972141519605396
2026-06-27T13:47:33.421141,1782578772.2643476,1.1321845054626465,-0.3011767566204071,-109.3287124633789,1.719465970993042,-0.4561282992362976,-3.94569993019104,0.060112591555244434,-11.45497744036301,-15.155758955452013
2026-06-27T13:47:33.530335,1782578772.37235,1.3268907070159912,-0.35282644629478455,-109.74310302734375,1.8859535455703735,-0.5002809166908264,-3.720705509185791,0.07436976002185147,-12.022318129277194,-15.212760983900264
2026-06-27T13:47:33.640830,1782578772.4833524,1.5456639528274536,-0.41085922718048096,-110.14104461669922,2.055145502090454,-0.5451555252075195,-3.439260482788086,0.06703129400382811,-12.647878665095826,-15.163306215178046
2026-06-27T13:47:33.748044,1782578772.5883546,1.7693233489990234,-0.47018781304359436,-110.48405456542969,2.2031614780426025,-0.5844153761863708,-3.0797195434570312,0.04684232543755738,-13.410157509769029,-15.059526129033358
2026-06-27T13:47:33.858273,1782578772.6963568,2.014346122741699,-0.5351830124855042,-110.78992462158203,2.3278634548187256,-0.6174924969673157,-2.5511085987091064,0.020381851934819,-14.490804441158282,-14.938749760263155
2026-06-27T13:47:33.965262,1782578772.8013592,2.265624523162842,-0.601837694644928,-111.03083801269531,2.4839541912078857,-0.6588996052742004,-2.1317367553710938,-0.0048154135934612066,-15.222453488676337,-14.839251208311017
2026-06-27T13:47:34.074324,1782578772.9123614,2.554853916168213,-0.6785596609115601,-111.25928497314453,2.728383779525757,-0.7237468361854553,-1.9951146841049194,-0.021424300137117828,-14.710615537996922,-14.7731907787393
2026-06-27T13:47:34.183080,1782578773.0173638,2.853120803833008,-0.7576802968978882,-111.4629135131836,2.9496917724609375,-0.7824622988700867,-1.88340163230896,-0.024934667589605688,-13.638568937748506,-14.751221079217549
2026-06-27T13:47:34.291827,1782578773.125366,3.1830732822418213,-0.8452069759368896,-111.66028594970703,3.1568045616149902,-0.8374118804931641,-1.7728724479675293,-0.02023157400925919,-12.310816586509011,-14.761452230088397
2026-06-27T13:47:34.401583,1782578773.2333684,3.5342373847961426,-0.9383614659309387,-111.8463134765625,3.3425512313842773,-0.8866916298866272,-1.6743888854980469,-0.012288944146414574,-10.951473362822206,-14.791289023670043
2026-06-27T13:47:34.509999,1782578773.3353705,3.8833112716674805,-1.0309616327285767,-112.01293182373047,3.4988291263580322,-0.9281509518623352,-1.5948827266693115,-0.005232457677761803,-9.729760467703086,-14.825011827530373
2026-06-27T13:47:34.619430,1782578773.4403727,4.258333683013916,-1.1304454803466797,-112.17670440673828,3.6412649154663086,-0.9659355878829956,-1.5264424085617065,-8.497777977312672e-05,-8.577021650329488,-14.855743682186462
2026-06-27T13:47:34.728572,1782578773.5483751,4.658687591552734,-1.2366492748260498,-112.33831787109375,3.7696011066436768,-0.9999775290489197,-1.4680371284484863,0.002665510265569305,-7.518648788498719,-14.87731575926627
2026-06-27T13:47:34.836692,1782578773.6533773,5.060342788696289,-1.3431978225708008,-112.4898910522461,3.878312110900879,-1.028812050819397,-1.4207308292388916,0.003357947362732107,-6.614088513089586,-14.88693553346976
2026-06-27T13:47:34.945867,1782578773.7583795,5.472655773162842,-1.4525728225708008,-112.63691711425781,3.9728474617004395,-1.053886890411377,-1.3806501626968384,0.0028482387078739998,-5.825224301947753,-14.886767680486482
2026-06-27T13:47:35.055961,1782578773.8633819,5.894221782684326,-1.5644028186798096,-112.78004455566406,4.054873943328857,-1.0756444931030273,-1.3463881015777588,0.0018279937590007954,-5.141687286285238,-14.880048566084547
2026-06-27T13:47:35.163151,1782578773.968384,6.3238139152526855,-1.678360939025879,-112.9197998046875,4.125912189483643,-1.0944900512695312,-1.3163584470748901,0.0007840913249053679,-4.55200948079758,-14.87040426982268
2026-06-27T13:47:35.271509,1782578774.0763862,6.772914409637451,-1.7974951267242432,-113.06046295166016,4.189023017883301,-1.1112353801727295,-1.2888537645339966,-3.856475763862132e-05,-4.031587486223755,-14.860682849537179
2026-06-27T13:47:35.381172,1782578774.1813886,7.215620517730713,-1.9149330854415894,-113.19450378417969,4.242006301879883,-1.125295639038086,-1.2645328044891357,-0.000511886922777353,-3.598470497081218,-14.853545409597855
2026-06-27T13:47:35.489929,1782578774.2893908,7.676371097564697,-2.0371594429016113,-113.3298110961914,4.289096355438232,-1.1377943754196167,-1.2414335012435913,-0.0006984785762332178,-3.217611554602858,-14.84948536924481
2026-06-27T13:47:35.600156,1782578774.3973932,8.141851425170898,-2.1606407165527344,-113.46270751953125,4.329740047454834,-1.1485828161239624,-1.2197576761245728,-0.0006717854023036226,-2.8931298548675426,-14.84861491197387
2026-06-27T13:47:35.707924,1782578774.5023954,8.598319053649902,-2.2817327976226807,-113.58972930908203,4.363961696624756,-1.1576673984527588,-1.1997548341751099,-0.0005372048172588263,-2.6238903967186453,-14.850042510826512
2026-06-27T13:47:35.816622,1782578774.6103976,9.071325302124023,-2.407212257385254,-113.71823120117188,4.394503116607666,-1.1657747030258179,-1.1799407005310059,-0.00036579662694502274,-2.3878205374916126,-14.852755140533647
2026-06-27T13:47:35.925298,1782578774.7154,9.534144401550293,-2.52998948097229,-113.84114074707031,4.420325756072998,-1.1726285219192505,-1.161336064338684,-0.0002194089216907889,-2.1920643200960286,-14.855606263065368
2026-06-27T13:47:36.034981,1782578774.8264022,10.026161193847656,-2.6605124473571777,-113.96897888183594,4.444079399108887,-1.1789329051971436,-1.1421595811843872,-0.0001106948149988082,-2.0159883686104365,-14.858089530187343
2026-06-27T13:47:36.143374,1782578774.9314046,10.493851661682129,-2.7845826148986816,-114.08796691894531,4.46368932723999,-1.184136986732483,-1.1244304180145264,-5.3802735139480775e-05,-1.8742606313853134,-14.859545009188851
2026-06-27T13:47:36.252410,1782578775.0424068,10.990361213684082,-2.9162981510162354,-114.21176147460938,4.481845378875732,-1.188955307006836,-1.1061168909072876,-4.392582337842242e-05,-1.7466663058664533,-14.860101092222562
2026-06-27T13:47:36.360622,1782578775.1474092,11.461772918701172,-3.041356086730957,-114.32698822021484,4.496933460235596,-1.1929595470428467,-1.0889153480529785,-4.939055551169148e-05,-1.6440793584653026,-14.859869781926403
2026-06-27T13:47:36.469007,1782578775.2494113,11.92114543914795,-3.163219928741455,-114.43722534179688,4.5099310874938965,-1.1964097023010254,-1.0724340677261353,-6.753896350036871e-05,-1.5585291613703245,-14.859231768712736
2026-06-27T13:47:36.581212,1782578775.3604138,12.422468185424805,-3.296213150024414,-114.55528259277344,4.522488594055176,-1.1997427940368652,-1.054822564125061,-9.13647489295157e-05,-1.4788844378260904,-14.858380593406729
2026-06-27T13:47:36.686947,1782578775.462416,12.884303092956543,-3.4187324047088623,-114.66204833984375,4.532767295837402,-1.2024716138839722,-1.0386797189712524,-0.00010729214454516851,-1.4164616964917895,-14.857680247854635
2026-06-27T13:47:36.795709,1782578775.564418,13.347135543823242,-3.5415141582489014,-114.76717376708984,4.542012691497803,-1.204926609992981,-1.0227106809616089,-0.00011884183217974408,-1.3626110610013429,-14.857190254439947
2026-06-27T13:47:36.905405,1782578775.6724203,13.838167190551758,-3.6717779636383057,-114.87672424316406,4.550833225250244,-1.207268476486206,-1.0060110092163086,-0.00011949838759771408,-1.3136231563434417,-14.856948133189727
2026-06-27T13:47:37.013645,1782578775.7804227,14.33010482788086,-3.8022820949554443,-114.98448944091797,4.558792591094971,-1.2093820571899414,-0.9894462823867798,-0.00012086921236387175,-1.2717022308190098,-14.856949652882587
2026-06-27T13:47:37.121696,1782578775.8854249,14.809163093566895,-3.9293696880340576,-115.08753967285156,4.565819263458252,-1.2112478017807007,-0.9734752774238586,-0.00011750156892649089,-1.2366486988230099,-14.857121478525274
2026-06-27T13:47:37.231484,1782578775.9934273,15.302642822265625,-4.060283184051514,-115.1917953491211,4.572415351867676,-1.212999939918518,-0.9571655988693237,-0.00011021056828291521,-1.2055888058041053,-14.857397156871684
2026-06-27T13:47:37.340072,1782578776.0984294,15.78307056427002,-4.1877336502075195,-115.29147338867188,4.578297138214111,-1.2145625352859497,-0.9414559602737427,-9.232492499648828e-05,-1.1795302408456332,-14.857641189013231
2026-06-27T13:47:37.449311,1782578776.2064316,16.27784538269043,-4.3189897537231445,-115.39228820800781,4.583873271942139,-1.2160433530807495,-0.9254099130630493,-8.874076394370053e-05,-1.1563383161566017,-14.85782933235061
2026-06-27T13:47:37.558215,1782578776.311434,16.759429931640625,-4.446747303009033,-115.4886474609375,4.588891506195068,-1.2173758745193481,-0.9099673628807068,-8.647683522734335e-05,-1.1367704114563157,-14.857935248138682
2026-06-27T13:47:37.666761,1782578776.4164362,17.241519927978516,-4.57464075088501,-115.58338928222656,4.593564033508301,-1.2186174392700195,-0.8946555852890015,-8.568901217167994e-05,-1.1197048232086475,-14.857968666712992
2026-06-27T13:47:37.775949,1782578776.5214384,17.724088668823242,-4.702659606933594,-115.6765365600586,4.5979323387146,-1.2197779417037964,-0.8794719576835632,-8.598700906093716e-05,-1.1047683630683682,-14.857939779450103
2026-06-27T13:47:37.884030,1782578776.6264408,18.20709800720215,-4.830796718597412,-115.76810455322266,4.602031230926514,-1.2208672761917114,-0.8644263744354248,-8.662293713797799e-05,-1.0916355495438808,-14.857908875024817
2026-06-27T13:47:37.993319,1782578776.734443,18.704345703125,-4.962710380554199,-115.8606185913086,4.605999946594238,-1.2219219207763672,-0.8490775227546692,-8.696426285396695e-05,-1.0797585194774062,-14.857916431842751
2026-06-27T13:47:38.101679,1782578776.8394454,19.18817901611328,-5.091066360473633,-115.94898986816406,4.609644412994385,-1.2228903770446777,-0.8343101739883423,-8.757406689733981e-05,-1.069528692112376,-14.857883638726515
2026-06-27T13:47:38.210865,1782578776.9444475,19.672386169433594,-5.219521522521973,-116.03584289550781,4.613100051879883,-1.223809003829956,-0.8196766972541809,-8.759574435414704e-05,-1.0604062154738547,-14.857893147607781
2026-06-27T13:47:38.320528,1782578777.0524497,20.170795440673828,-5.351744651794434,-116.12356567382812,4.6164774894714355,-1.224707007408142,-0.8047726154327393,-8.57070280884944e-05,-1.052036005323262,-14.857904630029635
2026-06-27T13:47:38.429744,1782578777.157452,20.65570068359375,-5.4803853034973145,-116.20731353759766,4.619606971740723,-1.2255383729934692,-0.7904245853424072,-7.66107828460831e-05,-1.0446968171419304,-14.857910932432468
2026-06-27T13:47:38.538450,1782578777.2624543,21.140928268432617,-5.60911226272583,-116.28955841064453,4.622594833374023,-1.226332426071167,-0.7761432528495789,-6.974661466773462e-05,-1.0381113331506167,-14.857916480263643
2026-06-27T13:47:38.647678,1782578777.3704565,21.640338897705078,-5.74160099029541,-116.37261962890625,4.625540256500244,-1.2271147966384888,-0.7617776989936829,-7.138453829829023e-05,-1.031866089213227,-14.857925436640075
2026-06-27T13:47:38.755361,1782578777.478459,22.140064239501953,-5.874173641204834,-116.45410919189453,4.628359794616699,-1.2278639078140259,-0.7475173473358154,-7.162645172538897e-05,-1.0261662664052036,-14.857930537698662
2026-06-27T13:47:38.864816,1782578777.583461,22.626190185546875,-6.003139019012451,-116.5318832397461,4.6309919357299805,-1.2285630702972412,-0.7337687015533447,-7.20097473161901e-05,-1.0210775721652612,-14.857934502281493
2026-06-27T13:47:38.973069,1782578777.6884634,23.11258888244629,-6.132176876068115,-116.60820770263672,4.633522033691406,-1.2292357683181763,-0.7201768755912781,-7.177465589935716e-05,-1.01634260705718,-14.857939334463632
2026-06-27T13:47:39.082792,1782578777.7934656,23.5992488861084,-6.2612833976745605,-116.68312072753906,4.635958194732666,-1.2298839092254639,-0.7067251801490784,-7.158691683742345e-05,-1.0119406826112287,-14.857944970210959
2026-06-27T13:47:39.191005,1782578777.8954678,24.072240829467773,-6.386765003204346,-116.75455474853516,4.638241767883301,-1.2304911613464355,-0.6938575506210327,-7.123746755626902e-05,-1.0079084319573846,-14.857957630080016
2026-06-27T13:47:39.300265,1782578778.00047,24.55938720703125,-6.516000747680664,-116.82672119140625,4.640509128570557,-1.2310940027236938,-0.6806582808494568,-6.696776501501939e-05,-1.0040615776682689,-14.858003171428354
2026-06-27T13:47:39.409970,1782578778.1084723,25.060691833496094,-6.648994445800781,-116.8995132446289,4.642761707305908,-1.2316930294036865,-0.6673420667648315,-6.37674711624378e-05,-1.000279197464356,-14.85800773669105
2026-06-27T13:47:39.518181,1782578778.2134745,25.54830551147461,-6.778354167938232,-116.96890258789062,4.644874095916748,-1.2322547435760498,-0.6544405221939087,-6.419286353888201e-05,-0.9968203575934044,-14.85801042011137
2026-06-27T13:47:39.625877,1782578778.318477,26.036136627197266,-6.907772064208984,-117.03695678710938,4.646919250488281,-1.2327983379364014,-0.641865074634552,-6.636929067006635e-05,-0.993490378321843,-14.858015151432904
2026-06-27T13:47:39.735568,1782578778.426479,26.538124084472656,-7.0409464836120605,-117.10558319091797,4.648950576782227,-1.2333388328552246,-0.6290509700775146,-6.488676062571423e-05,-0.9901951321612139,-14.858050660695476
2026-06-27T13:47:39.844264,1782578778.5314813,27.02637481689453,-7.170476913452148,-117.17098236083984,4.650859355926514,-1.2338461875915527,-0.6166715025901794,-6.436020729914088e-05,-0.987156519324526,-14.858064857645585
2026-06-27T13:47:39.953477,1782578778.6394837,27.52878189086914,-7.303762912750244,-117.23690795898438,4.652760028839111,-1.234351634979248,-0.6042747497558594,-6.430171429057034e-05,-0.9841011545083684,-14.858068534965836
2026-06-27T13:47:40.062581,1782578778.7444859,28.017427444458008,-7.4333977699279785,-117.29971313476562,4.654542922973633,-1.2348259687423706,-0.5922245383262634,-6.400280652867023e-05,-0.9812495632634342,-14.858070078995487
2026-06-27T13:47:40.170756,1782578778.8524883,28.52022361755371,-7.566787242889404,-117.3630142211914,4.656318664550781,-1.2352981567382812,-0.5801248550415039,-6.368302268091623e-05,-0.9784037282252351,-14.858096152470031
2026-06-27T13:47:40.280427,1782578778.9604905,29.02320671081543,-7.7002272605896,-117.42501831054688,4.658031463623047,-1.2357537746429443,-0.5680508613586426,-6.357541558889469e-05,-0.9756749685617163,-14.858118101733874
2026-06-27T13:47:40.388724,1782578779.0654926,29.51239776611328,-7.8300065994262695,-117.48405456542969,4.659643173217773,-1.2361828088760376,-0.5565686821937561,-6.316986156876976e-05,-0.9730929630858719,-14.85812993291319
2026-06-27T13:47:40.498455,1782578779.170495,30.001750946044922,-7.9598307609558105,-117.54190826416016,4.661202430725098,-1.2365975379943848,-0.5452503561973572,-6.292809781771145e-05,-0.9705814686652844,-14.858134888520619
2026-06-27T13:47:40.606644,1782578779.2784972,30.505258560180664,-8.093409538269043,-117.60016632080078,4.662753582000732,-1.2370103597640991,-0.5338454246520996,-6.263750844682642e-05,-0.9680554852018048,-14.858137223735895
2026-06-27T13:47:40.715835,1782578779.3864996,31.008926391601562,-8.227031707763672,-117.6572036743164,4.664250373840332,-1.2374087572097778,-0.5224772095680237,-6.254206479843894e-05,-0.9656574004234879,-14.858139847865433
2026-06-27T13:47:40.825919,1782578779.4915018,31.49875831604004,-8.356983184814453,-117.71149444580078,4.665658950805664,-1.2377837896347046,-0.5116961598396301,-6.235290646093164e-05,-0.9633306075768006,-14.858140035762483
2026-06-27T13:47:40.933154,1782578779.596504,31.988737106323242,-8.48697280883789,-117.76466369628906,4.667018890380859,-1.238145351409912,-0.5009713172912598,-6.225605528247771e-05,-0.9611049579997779,-14.858143055987167
2026-06-27T13:47:41.041445,1782578779.7015064,32.47885513305664,-8.616999626159668,-117.81671142578125,4.668336391448975,-1.238495945930481,-0.49055227637290955,-6.16845265088673e-05,-0.9588970142871486,-14.858175023738426
2026-06-27T13:47:41.150168,1782578779.8065085,32.96910858154297,-8.747062683105469,-117.86768341064453,4.669609069824219,-1.2388347387313843,-0.4802757501602173,-6.1015069399145127e-05,-0.9567337272141816,-14.858232493477423
2026-06-27T13:47:41.259057,1782578779.914511,33.473506927490234,-8.880877494812012,-117.91899871826172,4.670872688293457,-1.2391709089279175,-0.46987059712409973,-6.0731791334685576e-05,-0.9545585365704472,-14.858235655821455
2026-06-27T13:47:41.368755,1782578780.0195131,33.96402359008789,-9.01101016998291,-117.96780395507812,4.672058582305908,-1.2394862174987793,-0.4599004089832306,-6.0357697076476536e-05,-0.9525164217553652,-14.858236509534466
2026-06-27T13:47:41.475804,1782578780.1275153,34.468685150146484,-9.14489459991455,-118.01692199707031,4.673234939575195,-1.2397997379302979,-0.4498273730278015,-6.010085244131168e-05,-0.9504659861960113,-14.858239957429491
2026-06-27T13:47:41.585513,1782578780.2325177,34.95944595336914,-9.275092124938965,-118.06364440917969,4.674338340759277,-1.24009370803833,-0.44018369913101196,-6.019588876104081e-05,-0.94853006314642,-14.858241051273652
2026-06-27T13:47:41.694680,1782578780.33752,35.450321197509766,-9.405320167541504,-118.10936737060547,4.675403594970703,-1.2403773069381714,-0.4306933283805847,-5.750267821214814e-05,-0.9466580359245848,-14.85824231186304
2026-06-27T13:47:41.803056,1782578780.445522,35.95532989501953,-9.539299011230469,-118.1553726196289,4.676459789276123,-1.2406585216522217,-0.42117807269096375,-4.997016435812198e-05,-0.9447312957949185,-14.858246107985174
2026-06-27T13:47:41.912087,1782578780.5505245,36.446407318115234,-9.669583320617676,-118.19910430908203,4.677449703216553,-1.240921974182129,-0.4120329022407532,-4.5276118267354655e-05,-0.9429494229899069,-14.858247590887904
2026-06-27T13:47:42.020820,1782578780.6585267,36.95164108276367,-9.803616523742676,-118.24311065673828,4.678430557250977,-1.2411832809448242,-0.40272286534309387,-3.770997067295301e-05,-0.9411624401629685,-14.858249093578094
2026-06-27T13:47:42.132088,1782578780.766529,37.45698547363281,-9.937684059143066,-118.28611755371094,4.679378032684326,-1.2414345741271973,-0.3936351537704468,-4.1007127080410365e-05,-0.9394214356285894,-14.858250610762742
2026-06-27T13:47:42.238812,1782578780.8685312,37.93433380126953,-10.064327239990234,-118.32584381103516,4.680239200592041,-1.2416638135910034,-0.3852309584617615,-3.8084585080850674e-05,-0.9378087906440538,-14.858281349495282
2026-06-27T13:47:42.347519,1782578780.9735334,38.42580032348633,-10.19471549987793,-118.36583709716797,4.681093215942383,-1.2418913841247559,-0.3767227828502655,-4.241907307289973e-05,-0.9361981941450587,-14.858298893501658
2026-06-27T13:47:42.456987,1782578781.0815358,38.931434631347656,-10.328851699829102,-118.40605926513672,4.681939125061035,-1.2421166896820068,-0.3681233525276184,-4.4086424209749594e-05,-0.9345898009354158,-14.85830072080346
2026-06-27T13:47:42.564707,1782578781.186538,39.4230842590332,-10.4592924118042,-118.44429779052734,4.682730674743652,-1.2423274517059326,-0.35992756485939026,-3.64820218172051e-05,-0.9330707706676391,-14.858300212456232
2026-06-27T13:47:42.673941,1782578781.2945404,39.92886734008789,-10.593477249145508,-118.48271179199219,4.683515548706055,-1.2425363063812256,-0.3516544699668884,-4.3707925462534894e-05,-0.9315513144745702,-14.85830479468165
2026-06-27T13:47:42.783192,1782578781.4025426,40.43475341796875,-10.727682113647461,-118.52025604248047,4.684269428253174,-1.242737054824829,-0.3435487449169159,-4.022400832822736e-05,-0.9300690955069526,-14.8583043396152
2026-06-27T13:47:42.891285,1782578781.5045447,40.912567138671875,-10.85445785522461,-118.55491638183594,4.684955596923828,-1.2429192066192627,-0.33606886863708496,-4.3360132163733555e-05,-0.9287023400923891,-14.858315428599136
2026-06-27T13:47:42.999976,1782578781.609547,41.404563903808594,-10.984970092773438,-118.58979797363281,4.685634136199951,-1.243099570274353,-0.32843679189682007,-4.192041712731466e-05,-0.9273581871614405,-14.858327502007592
2026-06-27T13:47:43.108903,1782578781.7175493,41.9106330871582,-11.119243621826172,-118.62486267089844,4.686305046081543,-1.2432785034179688,-0.3207882046699524,-3.816647330989047e-05,-0.9260072276372019,-14.858369332097547
2026-06-27T13:47:43.218084,1782578781.8225515,42.402767181396484,-11.249794960021973,-118.65816497802734,4.68693208694458,-1.2434452772140503,-0.313427209854126,-4.4129974055788986e-05,-0.9247505546493177,-14.858369285556527
2026-06-27T13:47:43.327719,1782578781.9245536,42.88084030151367,-11.376641273498535,-118.68978881835938,4.68751859664917,-1.2436020374298096,-0.30652904510498047,-3.776506317259847e-05,-0.9235357087765319,-14.858372031997485
2026-06-27T13:47:43.435945,1782578782.029556,43.37310791015625,-11.50722599029541,-118.72159576416016,4.688099384307861,-1.2437565326690674,-0.2995220720767975,-4.360184911374081e-05,-0.9223328375712597,-14.858372104574899
2026-06-27T13:47:43.545202,1782578782.1375582,43.87944030761719,-11.641568183898926,-118.75357055664062,4.6886725425720215,-1.2439095973968506,-0.2924569547176361,-3.8681728139323214e-05,-0.9211387893559685,-14.858372285165792
2026-06-27T13:47:43.653405,1782578782.2425606,44.37181091308594,-11.772181510925293,-118.783935546875,4.689206123352051,-1.2440520524978638,-0.28568026423454285,-4.017945477615412e-05,-0.9200189350829774,-14.85837517357507
2026-06-27T13:47:43.762091,1782578782.3505628,44.87828063964844,-11.9065580368042,-118.81442260742188,4.689734935760498,-1.2441933155059814,-0.27893808484077454,-3.805049135657298e-05,-0.9189004775953089,-14.858395638228401
2026-06-27T13:47:43.871144,1782578782.455565,45.370723724365234,-12.037201881408691,-118.84336853027344,4.69022798538208,-1.244324803352356,-0.2724851965904236,-3.8375250047609616e-05,-0.9178445137478761,-14.85839867286701
2026-06-27T13:47:43.979918,1782578782.5635674,45.8773307800293,-12.17160415649414,-118.87245178222656,4.690714359283447,-1.2444547414779663,-0.2659851312637329,-3.982836083420798e-05,-0.9167941296896256,-14.858399108891751
2026-06-27T13:47:44.089175,1782578782.6655695,46.35579299926758,-12.298547744750977,-118.8992691040039,4.691156387329102,-1.2445722818374634,-0.2599576413631439,-3.877027106222351e-05,-0.9158352314334579,-14.858399754938569
2026-06-27T13:47:44.197935,1782578782.7705717,46.84840393066406,-12.429227828979492,-118.92623901367188,4.691591262817383,-1.244688630104065,-0.2538725435733795,-3.838490150770803e-05,-0.9148842784239901,-14.858400413918297
2026-06-27T13:47:44.305608,1782578782.8725739,47.326995849609375,-12.556203842163086,-118.95185089111328,4.69199800491333,-1.2447972297668457,-0.2480967938899994,-3.8180575870932825e-05,-0.9139889966831952,-14.858401187316627
2026-06-27T13:47:44.415669,1782578782.9805763,47.833740234375,-12.690649032592773,-118.97830963134766,4.69241189956665,-1.2449076175689697,-0.2421216517686844,-3.7933650886507755e-05,-0.9130713565250899,-14.858419416022052
2026-06-27T13:47:44.524367,1782578783.0885785,48.340553283691406,-12.82509994506836,-119.00414276123047,4.692809104919434,-1.2450131177902222,-0.2362682968378067,-3.7807336943084943e-05,-0.912181359285809,-14.858420203208988
2026-06-27T13:47:44.633330,1782578783.1935809,48.83335494995117,-12.955843925476074,-119.02865600585938,4.693177700042725,-1.2451117038726807,-0.23069579899311066,-3.734553554144555e-05,-0.911347073544375,-14.858421108433204
2026-06-27T13:47:44.742879,1782578783.304583,49.35431671142578,-13.094058990478516,-119.05394744873047,4.6935505867004395,-1.2452114820480347,-0.22491945326328278,-3.679853523141262e-05,-0.9104969541208413,-14.85844737825997
2026-06-27T13:47:44.851144,1782578783.4095855,49.84711837768555,-13.22480297088623,-119.07728576660156,4.693887233734131,-1.245301604270935,-0.21958792209625244,-3.586483239049097e-05,-0.909723976714893,-14.85845716457515
2026-06-27T13:47:44.959820,1782578783.5145876,50.34005355834961,-13.355575561523438,-119.10006713867188,4.694210052490234,-1.2453880310058594,-0.2143688052892685,-3.568633675861821e-05,-0.9089810029333381,-14.858458257818683
2026-06-27T13:47:45.069002,1782578783.62259,50.84707260131836,-13.490089416503906,-119.12293243408203,4.694529056549072,-1.2454732656478882,-0.20911599695682526,-3.549376251495892e-05,-0.9082456694852741,-14.858459367933282
2026-06-27T13:47:45.178703,1782578783.7305923,51.35409164428711,-13.624603271484375,-119.1452407836914,4.694834232330322,-1.2455549240112305,-0.20398415625095367,-3.383599108998055e-05,-0.9075331227666967,-14.858457933594806
2026-06-27T13:47:45.285838,1782578783.8355944,51.84702682495117,-13.755380630493164,-119.1664047241211,4.695118427276611,-1.2456308603286743,-0.19910581409931183,-2.6613413302806365e-05,-0.9068726480409421,-14.858459253605973
2026-06-27T13:47:45.395095,1782578783.9405968,52.3400764465332,-13.886191368103027,-119.18706512451172,4.695389270782471,-1.2457032203674316,-0.19433601200580597,-1.0899994433429775e-05,-0.9062305481672469,-14.858460678920448
