time,sim_t,x,y,z,vx,vy,vz,roll_deg,pitch_deg,yaw_deg
2026-06-27T13:40:59.016900,1782578387.431138,0.0,0.0,2.0397043228149414,0.0,0.0,0.0,0.0,0.0,0.0003895640909249624
2026-06-27T13:40:59.120639,1782578387.5331402,0.0,0.0,2.0397043228149414,0.0,0.0,0.0,0.0,0.0,0.0003895640909249624
2026-06-27T13:40:59.229916,1782578387.6321423,0.0,0.0,2.0397043228149414,0.0,0.0,0.0,0.0,0.0,0.0003895640909249624
2026-06-27T13:40:59.337173,1782578387.7371445,0.0,0.0,2.0397043228149414,0.0,0.0,0.0,0.0,0.0,0.0003895640909249624
2026-06-27T13:40:59.446929,1782578387.8421469,0.0,0.0,2.0397043228149414,0.0,0.0,0.0,0.0,0.0,0.0003895640909249624
2026-06-27T13:40:59.555634,1782578387.950149,0.0,0.0,2.0397043228149414,0.0,0.0,0.0,0.0,0.0,0.0003895640909249624
2026-06-27T13:40:59.664777,1782578388.0581515,0.0,0.0,2.0397043228149414,0.0,0.0,0.0,0.0,0.0,0.0003895640909249624
2026-06-27T13:40:59.773097,1782578388.1631536,0.0,0.0,2.0397043228149414,0.0,0.0,0.0,0.0,0.0,0.0003895640909249624
2026-06-27T13:40:59.881609,1782578388.271156,0.0,0.0,2.0397043228149414,0.0,0.0,0.0,0.0,0.0,0.0003895640909249624
2026-06-27T13:40:59.991767,1782578388.3761582,0.0,0.0,2.0397043228149414,0.0,0.0,0.0,0.0,0.0,0.0003895640909249624
2026-06-27T13:41:00.100017,1782578388.4811604,0.0,0.0,2.0397043228149414,0.0,0.0,0.0,0.0,0.0,0.0003895640909249624
2026-06-27T13:41:00.208203,1782578388.5891628,0.0,0.0,2.0397043228149414,0.0,0.0,0.0,0.0,0.0,0.0003895640909249624
2026-06-27T13:41:00.318110,1782578388.694165,0.0,0.0,2.0397043228149414,0.0,0.0,0.0,0.0,0.0,0.0003895640909249624
2026-06-27T13:41:00.426285,1782578388.8021672,0.0,0.0,2.0397043228149414,0.0,0.0,0.0,0.0,0.0,0.0003895640909249624
2026-06-27T13:41:00.534577,1782578388.9101696,0.0,0.0,2.0247700214385986,0.0,0.0,-0.3356570899486542,0.0,0.0,0.0003895640909249624
2026-06-27T13:41:00.643827,1782578389.0181718,0.0,0.0,1.9816927909851074,0.0,0.0,-0.43129032850265503,0.0,0.0,0.0003895640909249624
2026-06-27T13:41:00.752497,1782578389.1231742,0.0,0.0,1.9354256391525269,0.0,0.0,-0.44667673110961914,0.0,0.0,0.0003895640909249624
2026-06-27T13:41:00.862551,1782578389.2311764,0.0,0.0,1.8868043422698975,0.0,0.0,-0.4532151520252228,0.0,0.0,0.0003895640909249624
2026-06-27T13:41:00.969095,1782578389.3331785,0.0,0.0,1.8403288125991821,0.0,0.0,-0.457923948764801,0.0,0.0,0.0003895640909249624
2026-06-27T13:41:01.078272,1782578389.441181,0.0,0.0,1.7906323671340942,0.0,0.0,-0.4622756838798523,0.0,0.0,0.0003895640909249624
2026-06-27T13:41:01.186907,1782578389.546183,0.0,0.0,1.7418915033340454,0.0,0.0,-0.4660305082798004,0.0,0.0,0.0003895640909249624
2026-06-27T13:41:01.295605,1782578389.6511855,0.0,0.0,1.6927779912948608,0.0,0.0,-0.4693767726421356,0.0,0.0,0.0003895640909249624
2026-06-27T13:41:01.404904,1782578389.7591877,0.0,0.0,1.6419154405593872,0.0,0.0,-0.4724401831626892,0.0,0.0,0.0003895640909249624
2026-06-27T13:41:01.514121,1782578389.8671901,0.0,0.0,1.5907407999038696,0.0,0.0,-0.4751622974872589,0.0,0.0,0.0003895640909249624
2026-06-27T13:41:01.622853,1782578389.9751923,0.0,0.0,1.539288878440857,0.0,0.0,-0.477581262588501,0.0,0.0,0.0003895640909249624
2026-06-27T13:41:01.731600,1782578390.0831947,0.0,0.0,1.4875905513763428,0.0,0.0,-0.47973084449768066,0.0,0.0,0.0003895640909249624
2026-06-27T13:41:01.840155,1782578390.188197,0.0,0.0,1.437118411064148,0.0,0.0,-0.48159095644950867,0.0,0.0,0.0003895640909249624
2026-06-27T13:41:01.949350,1782578390.296199,0.0,0.0,1.3850115537643433,0.0,0.0,-0.4832940101623535,0.0,0.0,0.0003895640909249624
2026-06-27T13:41:02.058532,1782578390.4042015,0.0,0.0,1.3327317237854004,0.0,0.0,-0.48480725288391113,0.0,0.0,0.0003895640909249624
2026-06-27T13:41:02.166694,1782578390.5092037,0.0,0.0,1.281756043434143,0.0,0.0,-0.48611679673194885,0.0,0.0,0.0003895640909249624
2026-06-27T13:41:02.275718,1782578390.617206,0.0,0.0,1.229188084602356,0.0,0.0,-0.4873158633708954,0.0,0.0,0.0003895640909249624
2026-06-27T13:41:02.384461,1782578390.7252083,0.0,0.0,1.176498293876648,0.0,0.0,-0.48838141560554504,0.0,0.0,0.0003895640909249624
2026-06-27T13:41:02.494131,1782578390.8332107,0.0,0.0,1.1236997842788696,0.0,0.0,-0.4893283545970917,0.0,0.0,0.0003895640909249624
2026-06-27T13:41:02.602416,1782578390.9352129,0.0,0.0,1.073745846748352,0.0,0.0,-0.4901255667209625,0.0,0.0,0.0003895640909249624
2026-06-27T13:41:02.711118,1782578391.040215,0.0,0.0,1.0222423076629639,0.0,0.0,-0.4908585250377655,0.0,0.0,0.0003895640909249624
2026-06-27T13:41:02.820360,1782578391.1452172,0.0,0.0,0.970666229724884,0.0,0.0,-0.49151208996772766,0.0,0.0,0.0003895640909249624
2026-06-27T13:41:02.929445,1782578391.2532196,0.0,0.0,0.9175488948822021,0.0,0.0,-0.49211040139198303,0.0,0.0,0.0003895640909249624
2026-06-27T13:41:03.037137,1782578391.3582218,0.0,0.0,0.8658484816551208,0.0,0.0,-0.49262818694114685,0.0,0.0,0.0003895640909249624
2026-06-27T13:41:03.148322,1782578391.4662242,0.0,0.0,0.812617301940918,0.0,0.0,-0.4931022524833679,0.0,0.0,0.0003895640909249624
2026-06-27T13:41:03.256014,1782578391.5712264,0.0,0.0,0.7608185410499573,0.0,0.0,-0.49351251125335693,0.0,0.0,0.0003895640909249624
2026-06-27T13:41:03.364212,1782578391.6792288,0.0,0.0,0.7074975967407227,0.0,0.0,-0.49388808012008667,0.0,0.0,0.0003895640909249624
2026-06-27T13:41:03.473419,1782578391.781231,0.0,0.0,0.6571035981178284,0.0,0.0,-0.4942042827606201,0.0,0.0,0.0003895640909249624
2026-06-27T13:41:03.582808,1782578391.889233,0.0,0.0,0.6037120223045349,0.0,0.0,-0.494502991437912,0.0,0.0,0.0003895640909249624
2026-06-27T13:41:03.691003,1782578391.9972355,0.0,0.0,0.5502899885177612,0.0,0.0,-0.49476826190948486,0.0,0.0,0.0003895640909249624
2026-06-27T13:41:03.801176,1782578392.1022377,0.0,0.0,0.5074054002761841,0.0,0.0,-0.19910869002342224,0.0,0.0,0.0003895640909249624
2026-06-27T13:41:03.909350,1782578392.21024,0.0,0.0,0.5013306140899658,0.0,0.0,0.013605348765850067,0.0,0.0,0.0003895640909249624
2026-06-27T13:41:04.018572,1782578392.3182423,0.0,0.0,0.47948750853538513,0.0,0.0,-0.545595645904541,0.0,0.0,0.00035824149910283147
2026-06-27T13:41:04.127327,1782578392.4262445,0.0,0.0,0.38190189003944397,0.0,0.0,-1.2584490776062012,0.0,0.0,0.00025466704143628125
2026-06-27T13:41:04.236508,1782578392.531247,0.0,0.0,0.21437187492847443,0.0,0.0,-1.9275729656219482,0.0,0.0,0.000128963319580145
2026-06-27T13:41:04.347340,1782578392.636249,0.0,0.0,-0.021674472838640213,0.0,0.0,-2.5618176460266113,0.0,0.0,1.4625459390353999e-05
2026-06-27T13:41:04.455070,1782578392.7382512,0.0,0.0,-0.31265878677368164,0.0,0.0,-3.1362178325653076,0.0,0.0,-6.471545875155609e-05
2026-06-27T13:41:04.562305,1782578392.8432536,0.0,0.0,-0.6708996891975403,0.0,0.0,-3.678645133972168,0.0,0.0,-0.00010622415100269442
2026-06-27T13:41:04.671469,1782578392.9512558,0.0,0.0,-1.0958627462387085,0.0,0.0,-4.1813788414001465,0.0,0.0,-0.00011022588276693053
2026-06-27T13:41:04.780659,1782578393.056258,0.0,0.0,-1.558184027671814,0.0,0.0,-4.615622043609619,0.0,0.0,-8.791870129921862e-05
2026-06-27T13:41:04.890389,1782578393.1612604,0.0,0.0,-2.0633251667022705,0.0,0.0,-4.997334957122803,0.0,0.0,-5.31318806372148e-05
2026-06-27T13:41:04.997979,1782578393.2632625,0.0,0.0,-2.5847554206848145,0.0,0.0,-5.166353702545166,0.0,0.0,-1.8589668548006358e-05
2026-06-27T13:41:05.105683,1782578393.3712647,0.0,0.0,-3.1431379318237305,0.0,0.0,-5.166512966156006,0.0,0.0,1.0372658201791437e-05
2026-06-27T13:41:05.214893,1782578393.476267,0.0,0.0,-3.6848037242889404,0.0,0.0,-5.150357723236084,0.0,0.0,2.682254238141756e-05
2026-06-27T13:41:05.324992,1782578393.5812693,0.0,0.0,-4.224751949310303,0.0,0.0,-5.134381294250488,0.0,0.0,3.192697662659835e-05
2026-06-27T13:41:05.432166,1782578393.6862714,0.0,0.0,-4.763097763061523,0.0,0.0,-5.119876384735107,0.0,0.0,2.817279766189102e-05
2026-06-27T13:41:05.541588,1782578393.7942739,0.0,0.0,-5.315318584442139,0.0,0.0,-5.1064629554748535,0.0,0.0,1.896170449198428e-05
2026-06-27T13:41:05.650982,1782578393.899276,0.0,0.0,-5.850882053375244,0.0,0.0,-5.094750881195068,0.0,0.0,8.637965562081743e-06
2026-06-27T13:41:05.759697,1782578394.0072784,0.0,0.0,-6.400531768798828,0.0,0.0,-5.0839314460754395,0.0,0.0,-5.236211800964516e-07
2026-06-27T13:41:05.867886,1782578394.1122806,0.0,0.0,-6.93385124206543,0.0,0.0,-5.074484825134277,0.0,0.0,-6.69466598947998e-06
2026-06-27T13:41:05.977936,1782578394.2202828,0.0,0.0,-7.481428623199463,0.0,0.0,-5.065759181976318,0.0,0.0,-1.0766089457222737e-05
2026-06-27T13:41:06.086051,1782578394.3282852,0.0,0.0,-8.02811336517334,0.0,0.0,-5.057937145233154,0.0,0.0,-1.3381526846882867e-05
2026-06-27T13:41:06.194723,1782578394.4362874,0.0,0.0,-8.573996543884277,0.0,0.0,-5.050924301147461,0.0,0.0,-1.3062116513331077e-05
2026-06-27T13:41:06.303398,1782578394.5442898,0.0,0.0,-9.119162559509277,0.0,0.0,-5.044636249542236,0.0,0.0,-1.0543256437573652e-05
2026-06-27T13:41:06.412369,1782578394.652292,0.0,0.0,-9.663689613342285,0.0,0.0,-5.038997173309326,0.0,0.0,-8.87307134991353e-06
2026-06-27T13:41:06.521042,1782578394.7602944,0.0,0.0,-10.207634925842285,0.0,0.0,-5.033944606781006,0.0,0.0,-7.840602030105077e-06
2026-06-27T13:41:06.630774,1782578394.8682966,0.0,0.0,-10.751063346862793,0.0,0.0,-5.029414176940918,0.0,0.0,-7.1517490496404696e-06
2026-06-27T13:41:06.739382,1782578394.976299,0.0,0.0,-11.294028282165527,0.0,0.0,-5.0253520011901855,0.0,0.0,-6.46397247065782e-06
2026-06-27T13:41:06.846889,1782578395.0813012,0.0,0.0,-11.821513175964355,0.0,0.0,-5.021806240081787,0.0,0.0,-5.7953007966469106e-06
2026-06-27T13:41:06.956977,1782578395.1863034,0.0,0.0,-12.34864330291748,0.0,0.0,-5.018618106842041,0.0,0.0,-5.126629122636002e-06
2026-06-27T13:41:07.065834,1782578395.2913058,0.0,0.0,-12.875455856323242,0.0,0.0,-5.015750885009766,0.0,0.0,-4.457957448625095e-06
2026-06-27T13:41:07.174915,1782578395.399308,0.0,0.0,-13.417022705078125,0.0,0.0,-5.01310396194458,0.0,0.0,-3.7701808696424485e-06
2026-06-27T13:41:07.282892,1782578395.5043104,0.0,0.0,-13.943285942077637,0.0,0.0,-5.010793685913086,0.0,0.0,-3.1015091956315417e-06
2026-06-27T13:41:07.392612,1782578395.6153126,0.0,0.0,-14.499371528625488,0.0,0.0,-5.008603572845459,0.0,0.0,-2.394627711677155e-06
2026-06-27T13:41:07.501646,1782578395.723315,0.0,0.0,-15.040207862854004,0.0,0.0,-5.0066962242126465,0.0,0.0,-1.7068511326945093e-06
2026-06-27T13:41:07.610957,1782578395.8283172,0.0,0.0,-15.56583309173584,0.0,0.0,-5.005031585693359,0.0,0.0,-1.0381794586836038e-06
2026-06-27T13:41:07.718239,1782578395.9333193,0.0,0.0,-16.091289520263672,0.0,0.0,-5.003535270690918,0.0,0.0,-3.6950768289494874e-07
2026-06-27T13:41:07.828429,1782578396.0413218,0.0,0.0,-16.631607055664062,0.0,0.0,-5.002152919769287,0.0,0.0,2.9943428737500596e-07
2026-06-27T13:41:07.936598,1782578396.149324,0.0,0.0,-17.171783447265625,0.0,0.0,-5.000913619995117,0.0,0.0,6.796543583259358e-07
2026-06-27T13:41:08.046819,1782578396.239326,0.0,0.0,-17.621835708618164,0.0,0.0,-4.999979496002197,0.0,0.0,8.491841312906795e-07
2026-06-27T13:41:08.155220,1782578396.3413281,0.0,0.0,-18.131790161132812,0.0,0.0,-4.999018669128418,0.0,0.0,9.433718562945424e-07
2026-06-27T13:41:08.263485,1782578396.4493303,0.0,0.0,-18.67165184020996,0.0,0.0,-4.998103618621826,0.0,0.0,9.918172509805961e-07
2026-06-27T13:41:08.372521,1782578396.5573328,0.0,0.0,-19.211408615112305,0.0,0.0,-4.997284412384033,0.0,0.0,1.0305760501065346e-06
2026-06-27T13:41:08.481743,1782578396.665335,0.0,0.0,-19.75108528137207,0.0,0.0,-4.996549129486084,0.0,0.0,1.0402746554411272e-06
2026-06-27T13:41:08.590926,1782578396.7703373,0.0,0.0,-20.275699615478516,0.0,0.0,-4.995907306671143,0.0,0.0,1.0497038550719815e-06
2026-06-27T13:41:08.699581,1782578396.8783395,0.0,0.0,-20.815237045288086,0.0,0.0,-4.995315074920654,0.0,0.0,1.0594024604065741e-06
2026-06-27T13:41:08.807030,1782578396.983342,0.0,0.0,-21.32474708557129,0.0,0.0,-4.994811534881592,0.0,0.0,1.0685622543336894e-06
2026-06-27T13:41:08.916752,1782578397.088344,0.0,0.0,-21.86417579650879,0.0,0.0,-4.994332313537598,0.0,0.0,1.078260859668282e-06
2026-06-27T13:41:09.025207,1782578397.1963463,0.0,0.0,-22.40354347229004,0.0,0.0,-4.993903160095215,0.0,0.0,1.040331752758769e-06
2026-06-27T13:41:09.134894,1782578397.3043487,0.0,0.0,-22.94287872314453,0.0,0.0,-4.993517875671387,0.0,0.0,9.919083420666733e-07
2026-06-27T13:41:09.242973,1782578397.4093509,0.0,0.0,-23.46718978881836,0.0,0.0,-4.993182182312012,0.0,0.0,9.448300261160249e-07
2026-06-27T13:41:09.352157,1782578397.514353,0.0,0.0,-23.991470336914062,0.0,0.0,-4.992879390716553,0.0,0.0,8.977517101653764e-07
2026-06-27T13:41:09.460845,1782578397.6193554,0.0,0.0,-24.515714645385742,0.0,0.0,-4.992607116699219,0.0,0.0,8.506733942147279e-07
2026-06-27T13:41:09.569017,1782578397.7213576,0.0,0.0,-25.024978637695312,0.0,0.0,-4.992369651794434,0.0,0.0,8.049401730055266e-07
2026-06-27T13:41:09.677258,1782578397.8293598,0.0,0.0,-25.564132690429688,0.0,0.0,-4.9921417236328125,0.0,0.0,7.56516762313431e-07
2026-06-27T13:41:09.786836,1782578397.9373622,0.0,0.0,-26.103286743164062,0.0,0.0,-4.991940021514893,0.0,0.0,7.080933516213355e-07
2026-06-27T13:41:09.895538,1782578398.0423644,0.0,0.0,-26.627464294433594,0.0,0.0,-4.991762638092041,0.0,0.0,6.610150356706871e-07
2026-06-27T13:41:10.004756,1782578398.1503668,0.0,0.0,-27.16655731201172,0.0,0.0,-4.991599082946777,0.0,0.0,6.125916249785914e-07
2026-06-27T13:41:10.114948,1782578398.258369,0.0,0.0,-27.705642700195312,0.0,0.0,-4.991451740264893,0.0,0.0,5.641682142864959e-07
2026-06-27T13:41:10.222127,1782578398.3663714,0.0,0.0,-28.244728088378906,0.0,0.0,-4.991319179534912,0.0,0.0,5.157448035944004e-07
2026-06-27T13:41:10.332818,1782578398.4743736,0.0,0.0,-28.7838134765625,0.0,0.0,-4.991199016571045,0.0,0.0,4.673213929023048e-07
2026-06-27T13:41:10.440953,1782578398.582376,0.0,0.0,-29.322891235351562,0.0,0.0,-4.991095542907715,0.0,0.0,4.1889813487683393e-07
2026-06-27T13:41:10.550111,1782578398.6903782,0.0,0.0,-29.861907958984375,0.0,0.0,-4.991000652313232,0.0,0.0,3.7047564018448667e-07
2026-06-27T13:41:10.657261,1782578398.7983806,0.0,0.0,-30.400924682617188,0.0,0.0,-4.990914821624756,0.0,0.0,3.2205314549213935e-07
2026-06-27T13:41:10.766957,1782578398.9063828,0.0,0.0,-30.93994140625,0.0,0.0,-4.990838527679443,0.0,0.0,2.7363065079979204e-07
2026-06-27T13:41:10.875920,1782578399.0143852,0.0,0.0,-31.478958129882812,0.0,0.0,-4.990769863128662,0.0,0.0,2.2520815610744475e-07
2026-06-27T13:41:10.984659,1782578399.1223874,0.0,0.0,-32.017974853515625,0.0,0.0,-4.9907050132751465,0.0,0.0,1.7678566141509746e-07
2026-06-27T13:41:11.094324,1782578399.2303898,0.0,0.0,-32.55699157714844,0.0,0.0,-4.990651607513428,0.0,0.0,1.2836316672275017e-07
2026-06-27T13:41:11.202582,1782578399.335392,0.0,0.0,-33.08103561401367,0.0,0.0,-4.990601539611816,0.0,0.0,8.128562046633463e-08
2026-06-27T13:41:11.312251,1782578399.4403942,0.0,0.0,-33.605079650878906,0.0,0.0,-4.990556716918945,0.0,0.0,3.42080201404895e-08
2026-06-27T13:41:11.420687,1782578399.5483966,0.0,0.0,-34.14409637451172,0.0,0.0,-4.990518569946289,0.0,0.0,-1.4214604954599742e-08
2026-06-27T13:41:11.529367,1782578399.6563988,0.0,0.0,-34.68311309814453,0.0,0.0,-4.99048376083374,0.0,0.0,-6.263723323024366e-08
2026-06-27T13:41:11.637052,1782578399.7614012,0.0,0.0,-35.207157135009766,0.0,0.0,-4.990450382232666,0.0,0.0,-1.0971486218108092e-07
2026-06-27T13:41:11.746517,1782578399.8664033,0.0,0.0,-35.731201171875,0.0,0.0,-4.990418910980225,0.0,0.0,-1.5679228757641857e-07
2026-06-27T13:41:11.854758,1782578399.9744055,0.0,0.0,-36.27021789550781,0.0,0.0,-4.990394592285156,0.0,0.0,-2.0521478226876586e-07
2026-06-27T13:41:11.963461,1782578400.082408,0.0,0.0,-36.809234619140625,0.0,0.0,-4.9903717041015625,0.0,0.0,-2.5363727696111315e-07
2026-06-27T13:41:12.072325,1782578400.18741,0.0,0.0,-37.33327865600586,0.0,0.0,-4.99035120010376,0.0,0.0,-3.007147023564508e-07
2026-06-27T13:41:12.180525,1782578400.2954125,0.0,0.0,-37.87229537963867,0.0,0.0,-4.99033260345459,0.0,0.0,-3.491371970487981e-07
2026-06-27T13:41:12.289134,1782578400.4034147,0.0,0.0,-38.411312103271484,0.0,0.0,-4.9903154373168945,0.0,0.0,-3.975596917411454e-07
2026-06-27T13:41:12.397832,1782578400.5084171,0.0,0.0,-38.93535614013672,0.0,0.0,-4.990298748016357,0.0,0.0,-4.4463747335860737e-07
2026-06-27T13:41:12.507880,1782578400.6134193,0.0,0.0,-39.45940017700195,0.0,0.0,-4.99028205871582,0.0,0.0,-4.917157893092558e-07
2026-06-27T13:41:12.615555,1782578400.7214215,0.0,0.0,-39.998416900634766,0.0,0.0,-4.990267276763916,0.0,0.0,-5.401392000013514e-07
2026-06-27T13:41:12.725284,1782578400.829424,0.0,0.0,-40.53743362426758,0.0,0.0,-4.990255355834961,0.0,0.0,-5.88562610693447e-07
2026-06-27T13:41:12.834006,1782578400.934426,0.0,0.0,-41.06147766113281,0.0,0.0,-4.9902448654174805,0.0,0.0,-6.356409266440954e-07
2026-06-27T13:41:12.942685,1782578401.0424285,0.0,0.0,-41.600494384765625,0.0,0.0,-4.990234851837158,0.0,0.0,-6.840643373361909e-07
2026-06-27T13:41:13.051825,1782578401.1504307,0.0,0.0,-42.13951110839844,0.0,0.0,-4.990227699279785,0.0,0.0,-7.324877480282866e-07
2026-06-27T13:41:13.160417,1782578401.258433,0.0,0.0,-42.67852783203125,0.0,0.0,-4.990219593048096,0.0,0.0,-7.809111587203821e-07
2026-06-27T13:41:13.269636,1782578401.3634353,0.0,0.0,-43.202571868896484,0.0,0.0,-4.990212917327881,0.0,0.0,-8.279894746710305e-07
2026-06-27T13:41:13.378328,1782578401.4684374,0.0,0.0,-43.72661590576172,0.0,0.0,-4.990205764770508,0.0,0.0,-8.75067790621679e-07
2026-06-27T13:41:13.486867,1782578401.5764399,0.0,0.0,-44.26563262939453,0.0,0.0,-4.990199565887451,0.0,0.0,-9.234912013137745e-07
2026-06-27T13:41:13.596105,1782578401.681442,0.0,0.0,-44.789676666259766,0.0,0.0,-4.990196228027344,0.0,0.0,-9.70569517264423e-07
2026-06-27T13:41:13.705345,1782578401.7864442,0.0,0.0,-45.313720703125,0.0,0.0,-4.990191459655762,0.0,0.0,-1.0176478332150714e-06
2026-06-27T13:41:13.814024,1782578401.8914466,0.0,0.0,-45.837764739990234,0.0,0.0,-4.990187644958496,0.0,0.0,-1.0647261491657201e-06
2026-06-27T13:41:13.922741,1782578401.9964488,0.0,0.0,-46.36180877685547,0.0,0.0,-4.990183353424072,0.0,0.0,-1.1118044651163684e-06
2026-06-27T13:41:14.033917,1782578402.1044512,0.0,0.0,-46.90082550048828,0.0,0.0,-4.99017858505249,0.0,0.0,-1.160227875808464e-06
2026-06-27T13:41:14.140599,1782578402.2124534,0.0,0.0,-47.439842224121094,0.0,0.0,-4.990174293518066,0.0,0.0,-1.2086512865005595e-06
2026-06-27T13:41:14.249696,1782578402.3204558,0.0,0.0,-47.978858947753906,0.0,0.0,-4.990170478820801,0.0,0.0,-1.2570746971926551e-06
2026-06-27T13:41:14.357210,1782578402.425458,0.0,0.0,-48.50290298461914,0.0,0.0,-4.990167140960693,0.0,0.0,-1.3041530131433034e-06
2026-06-27T13:41:14.466863,1782578402.5304601,0.0,0.0,-49.026947021484375,0.0,0.0,-4.990164279937744,0.0,0.0,-1.3512313290939522e-06
2026-06-27T13:41:14.576789,1782578402.6384625,0.0,0.0,-49.56596374511719,0.0,0.0,-4.990161895751953,0.0,0.0,-1.3996547397860478e-06
2026-06-27T13:41:14.684945,1782578402.7434647,0.0,0.0,-50.09000778198242,0.0,0.0,-4.99015998840332,0.0,0.0,-1.4467330557366963e-06
2026-06-27T13:41:14.793139,1782578402.851467,0.0,0.0,-50.629024505615234,0.0,0.0,-4.990157127380371,0.0,0.0,-1.4951564664287917e-06
2026-06-27T13:41:14.902316,1782578402.9594693,0.0,0.0,-51.16804122924805,0.0,0.0,-4.9901556968688965,0.0,0.0,-1.5435798771208874e-06
2026-06-27T13:41:15.011349,1782578403.0674715,0.0,0.0,-51.70705795288086,0.0,0.0,-4.990154266357422,0.0,0.0,-1.592003287812983e-06
2026-06-27T13:41:15.120001,1782578403.175474,0.0,0.0,-52.2459716796875,0.0,0.0,-4.9901509284973145,0.0,0.0,-1.6404266985050784e-06
2026-06-27T13:41:15.229178,1782578403.2864764,0.0,0.0,-52.79981994628906,0.0,0.0,-4.990149021148682,0.0,0.0,-1.6901952039386211e-06
2026-06-27T13:41:15.337861,1782578403.3944786,0.0,0.0,-53.33869934082031,0.0,0.0,-4.990147113800049,0.0,0.0,-1.7386186146307168e-06
2026-06-27T13:41:15.446537,1782578403.502481,0.0,0.0,-53.87757873535156,0.0,0.0,-4.990145683288574,0.0,0.0,-1.7870420253228122e-06
2026-06-27T13:41:15.556216,1782578403.6104832,0.0,0.0,-54.41645812988281,0.0,0.0,-4.990143775939941,0.0,0.0,-1.8354654360149078e-06
2026-06-27T13:41:15.664847,1782578403.7184856,0.0,0.0,-54.95533752441406,0.0,0.0,-4.990140914916992,0.0,0.0,-1.8838888467070034e-06
2026-06-27T13:41:15.774051,1782578403.8234878,0.0,0.0,-55.479248046875,0.0,0.0,-4.990139961242676,0.0,0.0,-1.930967162657652e-06
2026-06-27T13:41:15.882285,1782578403.93149,0.0,0.0,-56.01812744140625,0.0,0.0,-4.990139007568359,0.0,0.0,-1.9793905733497476e-06
2026-06-27T13:41:15.991980,1782578404.0394924,0.0,0.0,-56.5570068359375,0.0,0.0,-4.990138053894043,0.0,0.0,-2.027813984041843e-06
2026-06-27T13:41:16.101149,1782578404.1444945,0.0,0.0,-57.08091735839844,0.0,0.0,-4.990137577056885,0.0,0.0,-2.0748922999924913e-06
2026-06-27T13:41:16.209381,1782578404.252497,0.0,0.0,-57.61979675292969,0.0,0.0,-4.990135669708252,0.0,0.0,-2.123315710684587e-06
2026-06-27T13:41:16.317688,1782578404.3574991,0.0,0.0,-58.143707275390625,0.0,0.0,-4.990133762359619,0.0,0.0,-2.1703940266352355e-06
2026-06-27T13:41:16.425924,1782578404.4625013,0.0,0.0,-58.66761779785156,0.0,0.0,-4.990131855010986,0.0,0.0,-2.2174723425858844e-06
2026-06-27T13:41:16.534614,1782578404.5705037,0.0,0.0,-59.20649719238281,0.0,0.0,-4.990130424499512,0.0,0.0,-2.26589575327798e-06
2026-06-27T13:41:16.645811,1782578404.6815062,0.0,0.0,-59.760345458984375,0.0,0.0,-4.990129470825195,0.0,0.0,-2.315664258711522e-06
2026-06-27T13:41:16.752518,1782578404.7865083,0.0,0.0,-60.28425598144531,0.0,0.0,-4.990128517150879,0.0,0.0,-2.362742574662171e-06
2026-06-27T13:41:16.861223,1782578404.8915105,0.0,0.0,-60.80816650390625,0.0,0.0,-4.990128040313721,0.0,0.0,-2.4098208906128194e-06
2026-06-27T13:41:16.970466,1782578404.9965127,0.0,0.0,-61.33207702636719,0.0,0.0,-4.990127086639404,0.0,0.0,-2.456899206563468e-06
2026-06-27T13:41:17.079147,1782578405.101515,0.0,0.0,-61.855987548828125,0.0,0.0,-4.990126132965088,0.0,0.0,-2.503977522514116e-06
2026-06-27T13:41:17.188225,1782578405.2095172,0.0,0.0,-62.394866943359375,0.0,0.0,-4.99012565612793,0.0,0.0,-2.5524009332062117e-06
2026-06-27T13:41:17.296808,1782578405.3145196,0.0,0.0,-62.91877746582031,0.0,0.0,-4.990124702453613,0.0,0.0,-2.59947924915686e-06
2026-06-27T13:41:17.405501,1782578405.4195218,0.0,0.0,-63.44268798828125,0.0,0.0,-4.9901227951049805,0.0,0.0,-2.646557565107509e-06
2026-06-27T13:41:17.514747,1782578405.527524,0.0,0.0,-63.9815673828125,0.0,0.0,-4.990120887756348,0.0,0.0,-2.6949809757996048e-06
2026-06-27T13:41:17.623906,1782578405.6355264,0.0,0.0,-64.52044677734375,0.0,0.0,-4.990119457244873,0.0,0.0,-2.7434043864917004e-06
2026-06-27T13:41:17.732196,1782578405.7435286,0.0,0.0,-65.059326171875,0.0,0.0,-4.990118026733398,0.0,0.0,-2.791827797183796e-06
2026-06-27T13:41:17.841373,1782578405.851531,0.0,0.0,-65.59820556640625,0.0,0.0,-4.990117073059082,0.0,0.0,-2.8402512078758912e-06
2026-06-27T13:41:17.950290,1782578405.9595332,0.0,0.0,-66.1370849609375,0.0,0.0,-4.990117073059082,0.0,0.0,-2.888674618567987e-06
2026-06-27T13:41:18.064001,1782578406.0645356,0.0,0.0,-66.66099548339844,0.0,0.0,-4.990116119384766,0.0,0.0,-2.935752934518636e-06
2026-06-27T13:41:18.170268,1782578406.1695378,0.0,0.0,-67.18490600585938,0.0,0.0,-4.990115165710449,0.0,0.0,-2.982831250469284e-06
2026-06-27T13:41:18.277926,1782578406.27154,0.0,0.0,-67.69384765625,0.0,0.0,-4.990114212036133,0.0,0.0,-3.0285644716784858e-06
2026-06-27T13:41:18.385648,1782578406.3795424,0.0,0.0,-68.23272705078125,0.0,0.0,-4.990112781524658,0.0,0.0,-3.0769878823705814e-06
2026-06-27T13:41:18.494825,1782578406.4845445,0.0,0.0,-68.75663757324219,0.0,0.0,-4.990111351013184,0.0,0.0,-3.12406619832123e-06
2026-06-27T13:41:18.602388,1782578406.5895467,0.0,0.0,-69.28054809570312,0.0,0.0,-4.990109443664551,0.0,0.0,-3.1711445142718784e-06
2026-06-27T13:41:18.711096,1782578406.697549,0.0,0.0,-69.81942749023438,0.0,0.0,-4.990108489990234,0.0,0.0,-3.2195679249639736e-06
2026-06-27T13:41:18.820343,1782578406.8025513,0.0,0.0,-70.34333801269531,0.0,0.0,-4.990108013153076,0.0,0.0,-3.266646240914623e-06
2026-06-27T13:41:18.929539,1782578406.9105537,0.0,0.0,-70.88221740722656,0.0,0.0,-4.99010705947876,0.0,0.0,-3.3150696516067182e-06
2026-06-27T13:41:19.037211,1782578407.0125558,0.0,0.0,-71.39115905761719,0.0,0.0,-4.990106105804443,0.0,0.0,-3.3608028728159196e-06
2026-06-27T13:41:19.145656,1782578407.120558,0.0,0.0,-71.93003845214844,0.0,0.0,-4.990105152130127,0.0,0.0,-3.4092262835080153e-06
2026-06-27T13:41:19.254317,1782578407.2285604,0.0,0.0,-72.46891784667969,0.0,0.0,-4.990104675292969,0.0,0.0,-3.4576494906446114e-06
2026-06-27T13:41:19.362945,1782578407.3365626,0.0,0.0,-73.00779724121094,0.0,0.0,-4.990103721618652,0.0,0.0,-3.5060729013367067e-06
2026-06-27T13:41:19.472116,1782578407.441565,0.0,0.0,-73.53170776367188,0.0,0.0,-4.990102767944336,0.0,0.0,-3.553151217287355e-06
2026-06-27T13:41:19.581779,1782578407.5525672,0.0,0.0,-74.08555603027344,0.0,0.0,-4.990099906921387,0.0,0.0,-3.602919722720898e-06
2026-06-27T13:41:19.690269,1782578407.6605697,0.0,0.0,-74.62443542480469,0.0,0.0,-4.990099906921387,0.0,0.0,-3.6513431334129935e-06
2026-06-27T13:41:19.798946,1782578407.7685719,0.0,0.0,-75.16331481933594,0.0,0.0,-4.990098476409912,0.0,0.0,-3.69976654410509e-06
2026-06-27T13:41:19.907128,1782578407.8765743,0.0,0.0,-75.70219421386719,0.0,0.0,-4.990097522735596,0.0,0.0,-3.7481899547971848e-06
2026-06-27T13:41:20.016590,1782578407.9815764,0.0,0.0,-76.22610473632812,0.0,0.0,-4.9900970458984375,0.0,0.0,-3.795268270747834e-06
2026-06-27T13:41:20.125212,1782578408.0895789,0.0,0.0,-76.76498413085938,0.0,0.0,-4.990096092224121,0.0,0.0,-3.843691681439929e-06
2026-06-27T13:41:20.234485,1782578408.197581,0.0,0.0,-77.30386352539062,0.0,0.0,-4.990095138549805,0.0,0.0,-3.892115092132025e-06
2026-06-27T13:41:20.343580,1782578408.3055835,0.0,0.0,-77.84274291992188,0.0,0.0,-4.990094184875488,0.0,0.0,-3.940538502824121e-06
2026-06-27T13:41:20.452284,1782578408.4135857,0.0,0.0,-78.38162231445312,0.0,0.0,-4.990093231201172,0.0,0.0,-3.988961913516216e-06
2026-06-27T13:41:20.561462,1782578408.521588,0.0,0.0,-78.92050170898438,0.0,0.0,-4.990091800689697,0.0,0.0,-4.037385324208312e-06
2026-06-27T13:41:20.670205,1782578408.6265903,0.0,0.0,-79.44441223144531,0.0,0.0,-4.990090370178223,0.0,0.0,-4.084463640158961e-06
2026-06-27T13:41:20.779410,1782578408.7345924,0.0,0.0,-79.98329162597656,0.0,0.0,-4.9900898933410645,0.0,0.0,-4.132887050851056e-06
2026-06-27T13:41:20.887937,1782578408.8425949,0.0,0.0,-80.52217102050781,0.0,0.0,-4.990088939666748,0.0,0.0,-4.181310461543152e-06
2026-06-27T13:41:20.997107,1782578408.947597,0.0,0.0,-81.04608154296875,0.0,0.0,-4.990087985992432,0.0,0.0,-4.2283887774938e-06
2026-06-27T13:41:21.106326,1782578409.0555995,0.0,0.0,-81.5849609375,0.0,0.0,-4.990087032318115,0.0,0.0,-4.276812188185896e-06
2026-06-27T13:41:21.215007,1782578409.1636016,0.0,0.0,-82.12384033203125,0.0,0.0,-4.990085601806641,0.0,0.0,-4.325235598877992e-06
2026-06-27T13:41:21.323359,1782578409.2686038,0.0,0.0,-82.64775085449219,0.0,0.0,-4.990084648132324,0.0,0.0,-4.37231391482864e-06
2026-06-27T13:41:21.431841,1782578409.3766062,0.0,0.0,-83.18663024902344,0.0,0.0,-4.990084171295166,0.0,0.0,-4.420737325520736e-06
2026-06-27T13:41:21.542085,1782578409.4846084,0.0,0.0,-83.72550964355469,0.0,0.0,-4.990082740783691,0.0,0.0,-4.469160736212832e-06
2026-06-27T13:41:21.650283,1782578409.5926108,0.0,0.0,-84.26438903808594,0.0,0.0,-4.990082263946533,0.0,0.0,-4.517584146904927e-06
2026-06-27T13:41:21.760041,1782578409.700613,0.0,0.0,-84.80326843261719,0.0,0.0,-4.9900803565979,0.0,0.0,-4.566007557597024e-06
2026-06-27T13:41:21.867257,1782578409.8056154,0.0,0.0,-85.32717895507812,0.0,0.0,-4.990078926086426,0.0,0.0,-4.613085873547671e-06
2026-06-27T13:41:21.976980,1782578409.9106176,0.0,0.0,-85.85108947753906,0.0,0.0,-4.990078449249268,0.0,0.0,-4.660164189498321e-06
2026-06-27T13:41:22.086804,1782578410.02162,0.0,0.0,-86.40493774414062,0.0,0.0,-4.990076541900635,0.0,0.0,-4.709932694931863e-06
2026-06-27T13:41:22.194311,1782578410.1266222,0.0,0.0,-86.92884826660156,0.0,0.0,-4.990076541900635,0.0,0.0,-4.757011010882512e-06
2026-06-27T13:41:22.303068,1782578410.2316244,0.0,0.0,-87.4527587890625,0.0,0.0,-4.990075588226318,0.0,0.0,-4.804089326833161e-06
2026-06-27T13:41:22.412264,1782578410.3336265,0.0,0.0,-87.96170043945312,0.0,0.0,-4.990074157714844,0.0,0.0,-4.849822548042362e-06
2026-06-27T13:41:22.522502,1782578410.438629,0.0,0.0,-88.48561096191406,0.0,0.0,-4.990072727203369,0.0,0.0,-4.896900863993011e-06
2026-06-27T13:41:22.630533,1782578410.546631,0.0,0.0,-89.02449035644531,0.0,0.0,-4.990072727203369,0.0,0.0,-4.945324274685107e-06
2026-06-27T13:41:22.739418,1782578410.6546335,0.0,0.0,-89.56336975097656,0.0,0.0,-4.990071773529053,0.0,0.0,-4.993747685377203e-06
2026-06-27T13:41:22.848116,1782578410.7596357,0.0,0.0,-90.0872802734375,0.0,0.0,-4.990070819854736,0.0,0.0,-5.040826001327851e-06
2026-06-27T13:41:22.956844,1782578410.867638,0.0,0.0,-90.62615966796875,0.0,0.0,-4.990069389343262,0.0,0.0,-5.089249412019946e-06
2026-06-27T13:41:23.066455,1782578410.9756403,0.0,0.0,-91.1650390625,0.0,0.0,-4.990068435668945,0.0,0.0,-5.137672822712042e-06
2026-06-27T13:41:23.175146,1782578411.0836427,0.0,0.0,-91.70391845703125,0.0,0.0,-4.990067481994629,0.0,0.0,-5.186096233404138e-06
2026-06-27T13:41:23.283154,1782578411.191645,0.0,0.0,-92.2427978515625,0.0,0.0,-4.990066051483154,0.0,0.0,-5.234519644096234e-06
2026-06-27T13:41:23.392749,1782578411.2996473,0.0,0.0,-92.78167724609375,0.0,0.0,-4.990065574645996,0.0,0.0,-5.28294305478833e-06
2026-06-27T13:41:23.500943,1782578411.4046495,0.0,0.0,-93.30558776855469,0.0,0.0,-4.990063667297363,0.0,0.0,-5.330021370738978e-06
2026-06-27T13:41:23.610626,1782578411.5096517,0.0,0.0,-93.82949829101562,0.0,0.0,-4.990063667297363,0.0,0.0,-5.377099686689628e-06
2026-06-27T13:41:23.718844,1782578411.617654,0.0,0.0,-94.36837768554688,0.0,0.0,-4.990062236785889,0.0,0.0,-5.425523097381722e-06
2026-06-27T13:41:23.827760,1782578411.7256563,0.0,0.0,-94.90725708007812,0.0,0.0,-4.990061283111572,0.0,0.0,-5.473946508073819e-06
2026-06-27T13:41:23.936307,1782578411.8306587,0.0,0.0,-95.43116760253906,0.0,0.0,-4.9900593757629395,0.0,0.0,-5.521024824024467e-06
2026-06-27T13:41:24.044942,1782578411.9386609,0.0,0.0,-95.97004699707031,0.0,0.0,-4.990058898925781,0.0,0.0,-5.569448234716563e-06
2026-06-27T13:41:24.154162,1782578412.0466633,0.0,0.0,-96.50892639160156,0.0,0.0,-4.990057945251465,0.0,0.0,-5.617871645408658e-06
2026-06-27T13:41:24.263341,1782578412.1546655,0.0,0.0,-97.04780578613281,0.0,0.0,-4.990056991577148,0.0,0.0,-5.666295056100754e-06
2026-06-27T13:41:24.371039,1782578412.2596676,0.0,0.0,-97.57171630859375,0.0,0.0,-4.990056037902832,0.0,0.0,-5.713373372051404e-06
2026-06-27T13:41:24.480247,1782578412.36767,0.0,0.0,-98.110595703125,0.0,0.0,-4.990054130554199,0.0,0.0,-5.761796782743499e-06
2026-06-27T13:41:24.589433,1782578412.4756722,0.0,0.0,-98.64947509765625,0.0,0.0,-4.990054130554199,0.0,0.0,-5.810220193435595e-06
2026-06-27T13:41:24.697210,1782578412.5806746,0.0,0.0,-99.17338562011719,0.0,0.0,-4.990053176879883,0.0,0.0,-5.857298509386243e-06
2026-06-27T13:41:24.806783,1782578412.6826768,0.0,0.0,-99.68232727050781,0.0,0.0,-4.990052223205566,0.0,0.0,-5.903031730595445e-06
2026-06-27T13:41:24.915510,1782578412.787679,1.3003901955244146e-08,-4.126579966623467e-09,-100.2058334350586,3.0239016268751584e-06,-9.584714462107513e-07,-4.948928356170654,-0.0015667655062760492,-0.004992801956064624,-0.05505151193244257
2026-06-27T13:41:25.024535,1782578412.883681,3.8700283766957e-05,-1.1289161193417385e-05,-100.67473602294922,0.001483034691773355,-0.00042487503378652036,-4.851648330688477,-0.06532907319785967,-0.2628159008704899,-1.7325153346936428
2026-06-27T13:41:25.133096,1782578412.9916832,0.0006479340954683721,-0.00018241736688651145,-101.2020492553711,0.011991913430392742,-0.0033467505127191544,-4.944679260253906,-0.14756274070349992,-0.8527506934021778,-5.626888754512303
2026-06-27T13:41:25.242904,1782578413.0966856,0.0029530832543969154,-0.0008218090515583754,-101.7252426147461,0.03368162363767624,-0.00930800475180149,-4.9989333152771,-0.13952091754536303,-1.5760578064731727,-10.241375343280094
2026-06-27T13:41:25.351607,1782578413.2046878,0.00834759883582592,-0.0023061763495206833,-102.26517486572266,0.0685022622346878,-0.0187872014939785,-4.997395038604736,-0.02663307826963845,-2.3754506878133927,-14.516051467547252
2026-06-27T13:41:25.461013,1782578413.3126903,0.018251948058605194,-0.005012035369873047,-102.80445098876953,0.11723840981721878,-0.03192823380231857,-4.988088607788086,0.1355399921256054,-3.1671623039681127,-17.47489454741597
2026-06-27T13:41:25.569234,1782578413.4176924,0.03362853080034256,-0.009185481816530228,-103.3275375366211,0.17777810990810394,-0.04811525344848633,-4.974706649780273,0.2680408665552527,-3.9164913026516595,-18.835291679910277
2026-06-27T13:41:25.678459,1782578413.5256946,0.05677797645330429,-0.015432165935635567,-103.86383056640625,0.253077894449234,-0.06812092661857605,-4.955638408660889,0.32719269366596265,-4.667211827228244,-18.85752878705214
2026-06-27T13:41:25.786700,1782578413.627697,0.08671202510595322,-0.023471273481845856,-104.36811065673828,0.33567023277282715,-0.0899759978055954,-4.931130886077881,0.29880693856087315,-5.358168879371947,-17.997932951542076
2026-06-27T13:41:25.895889,1782578413.7326992,0.12690576910972595,-0.03422575443983078,-104.88424682617188,0.43171748518943787,-0.11533968150615692,-4.898497581481934,0.20131630014422494,-6.043695248141744,-16.697272004445374
2026-06-27T13:41:26.005095,1782578413.8377013,0.17773646116256714,-0.047788091003894806,-105.39649963378906,0.5381607413291931,-0.14343228936195374,-4.856895923614502,0.0712713420655577,-6.697559525602446,-15.39647100070816
2026-06-27T13:41:26.113316,1782578413.9457037,0.24221964180469513,-0.06495814770460129,-105.91819763183594,0.6576886773109436,-0.17498794198036194,-4.802646160125732,-0.05501423084522837,-7.355670262953293,-14.364037894451926
2026-06-27T13:41:26.221988,1782578414.053706,0.3201351463794708,-0.08567561209201813,-106.43342590332031,0.7866437435150146,-0.20905758440494537,-4.736213207244873,-0.1420234848198568,-7.98051269678276,-13.782658439447895
2026-06-27T13:41:26.333158,1782578414.1587083,0.40967896580696106,-0.10946311056613922,-106.92677307128906,0.9201197624206543,-0.24435165524482727,-4.657753944396973,-0.17516943927771225,-8.571120331703652,-13.642157781304382
2026-06-27T13:41:26.439811,1782578414.2667105,0.5168152451515198,-0.13790728151798248,-107.42477416992188,1.0650235414505005,-0.28269848227500916,-4.561493873596191,-0.15922392603469587,-9.160662588040656,-13.827575533980504
2026-06-27T13:41:26.549494,1782578414.374713,0.639975368976593,-0.17059344053268433,-107.91143798828125,1.216660499572754,-0.32285478711128235,-4.447239398956299,-0.10823908103412905,-9.735170141149931,-14.196191170211403
2026-06-27T13:41:26.657159,1782578414.479715,0.7757172584533691,-0.2066107541322708,-108.37174987792969,1.3695935010910034,-0.36337611079216003,-4.316705703735352,-0.045023413708003966,-10.279641232727116,-14.590727539641035
2026-06-27T13:41:26.766534,1782578414.5877173,0.9323424100875854,-0.24816371500492096,-108.8297119140625,1.531317949295044,-0.4062441289424896,-4.1587443351745605,0.014857602153769816,-10.833818340313437,-14.927546268621263
2026-06-27T13:41:26.875734,1782578414.6927197,1.1015456914901733,-0.29305046796798706,-109.25727081298828,1.6916804313659668,-0.4487631618976593,-3.978550910949707,0.05544070653871181,-11.372156422860835,-15.133672411822156
2026-06-27T13:41:26.984488,1782578414.800722,1.2932603359222412,-0.34390711784362793,-109.67559814453125,1.8585282564163208,-0.49301010370254517,-3.7615795135498047,0.07364917550692658,-11.930081452097406,-15.211566012410678
2026-06-27T13:41:27.093217,1782578414.9087243,1.5029171705245972,-0.39952215552330017,-110.06797790527344,2.0234084129333496,-0.5367399454116821,-3.4956631660461426,0.06989224018848435,-12.535683455266563,-15.178907450276569
2026-06-27T13:41:27.203057,1782578415.0137265,1.7234745025634766,-0.4580281674861908,-110.4183349609375,2.1757993698120117,-0.5771599411964417,-3.16298246383667,0.05156724111321577,-13.241735161951425,-15.082569042799285
2026-06-27T13:41:27.310573,1782578415.1217287,1.9659292697906494,-0.5223424434661865,-110.73529052734375,2.307856321334839,-0.612187385559082,-2.6735150814056396,0.02564250598147459,-14.236187665341848,-14.961566422126268
2026-06-27T13:41:27.420831,1782578415.229731,2.221575975418091,-0.5901562571525574,-110.99258422851562,2.447338342666626,-0.6491873860359192,-2.166994571685791,-0.0008988255153559656,-15.189829735326622,-14.854073461817547
2026-06-27T13:41:27.528915,1782578415.3377333,2.4983720779418945,-0.6635804176330566,-111.21758270263672,2.682055950164795,-0.711456835269928,-2.0174262523651123,-0.019337526800268682,-14.868298586237742,-14.782202876893757
2026-06-27T13:41:27.638004,1782578415.4427357,2.7919445037841797,-0.7414553761482239,-111.42354583740234,2.9068241119384766,-0.7710897922515869,-1.9055304527282715,-0.025018270180463844,-13.87653179845414,-14.752735756761295
2026-06-27T13:41:27.746925,1782578415.5507379,3.11749005317688,-0.8278130292892456,-111.62322998046875,3.1180922985076904,-0.8271418809890747,-1.7935287952423096,-0.021542307725499154,-12.575398539028004,-14.757465555077287
2026-06-27T13:41:27.856106,1782578415.6557403,3.4547810554504395,-0.9172872304916382,-111.80626678466797,3.30298113822937,-0.8761944770812988,-1.6949611902236938,-0.01410145764456069,-11.250275429514527,-14.783703606092043
2026-06-27T13:41:27.964791,1782578415.7607424,3.8104381561279297,-1.011634111404419,-111.97967529296875,3.468052864074707,-0.919987142086029,-1.6102979183197021,-0.006540653392225125,-9.97416320162628,-14.818132608675544
2026-06-27T13:41:28.073489,1782578415.8657446,4.182422637939453,-1.1103119850158691,-112.14491271972656,3.6141204833984375,-0.9587354063987732,-1.5391182899475098,-0.0009075751861727503,-8.798625864300362,-14.850244083205409
2026-06-27T13:41:28.181886,1782578415.973747,4.580036163330078,-1.215788722038269,-112.30776977539062,3.745924472808838,-0.9936973452568054,-1.4785168170928955,0.002319795038832406,-7.714808531644684,-14.874037161878167
2026-06-27T13:41:28.291630,1782578416.0757492,4.967800617218018,-1.3186522722244263,-112.4560775756836,3.8546926975250244,-1.0225473642349243,-1.4307752847671509,0.003336211548973901,-6.810953555441094,-14.885665907229338
2026-06-27T13:41:28.401520,1782578416.1867516,5.401529788970947,-1.4337091445922852,-112.61239624023438,3.9575212001800537,-1.049821138381958,-1.3871551752090454,0.0029908328726928305,-5.953236473013763,-14.887345801144694
2026-06-27T13:41:28.509169,1782578416.2917538,5.821595668792725,-1.5451414585113525,-112.75614929199219,4.041581630706787,-1.0721187591552734,-1.351950764656067,0.002018334696252208,-5.252355179281013,-14.881497283762446
2026-06-27T13:41:28.617115,1782578416.393756,6.237544536590576,-1.655481219291687,-112.89248657226562,4.112462043762207,-1.0909219980239868,-1.322022795677185,0.0009832957364665031,-4.6634143212919605,-14.872393774446714
2026-06-27T13:41:28.726806,1782578416.498758,6.672764778137207,-1.7709330320358276,-113.02983093261719,4.175747394561768,-1.107712745666504,-1.2945520877838135,0.00012038570357705649,-4.140743504606245,-14.862680582049856
2026-06-27T13:41:28.836036,1782578416.6067605,7.126866817474365,-1.8913943767547607,-113.16825103759766,4.231969833374023,-1.1226317882537842,-1.2690612077713013,-0.0004361389613126111,-3.6802658293596755,-14.854721220413039
2026-06-27T13:41:28.944460,1782578416.7117627,7.573770523071289,-2.0099470615386963,-113.30028533935547,4.279195308685303,-1.1351656913757324,-1.246351957321167,-0.0006742655288508665,-3.297457939736352,-14.850079247970562
2026-06-27T13:41:29.053152,1782578416.8167648,8.025294303894043,-2.129725933074951,-113.43002319335938,4.320107460021973,-1.146025538444519,-1.2250123023986816,-0.0006898271283675471,-2.969749523410332,-14.84856333208272
2026-06-27T13:41:29.161298,1782578416.9217672,8.480819702148438,-2.2505669593811035,-113.55758666992188,4.355597972869873,-1.1554468870162964,-1.2047476768493652,-0.0005753898300141149,-2.6894467908775934,-14.849507822656204
2026-06-27T13:41:29.270321,1782578417.0267694,8.939824104309082,-2.3723316192626953,-113.68305969238281,4.386439800262451,-1.1636334657669067,-1.1853382587432861,-0.00041105305064858546,-2.4498557318436243,-14.85193310640233
2026-06-27T13:41:29.381053,1782578417.1347718,9.415091514587402,-2.498410940170288,-113.8100357055664,4.414012432098389,-1.1709520816802979,-1.166101336479187,-0.0002520977839116506,-2.2396805502200166,-14.854899124892935
2026-06-27T13:41:29.488043,1782578417.236774,9.866514205932617,-2.6181650161743164,-113.92806243896484,4.4367356300354,-1.1769828796386719,-1.1483184099197388,-0.00013940114318220615,-2.070068111608852,-14.857375496115154
2026-06-27T13:41:29.596740,1782578417.338776,10.320112228393555,-2.7384965419769287,-114.04429626464844,4.456699848175049,-1.1822811365127563,-1.1309459209442139,-7.23416914501266e-05,-1.9244569089780952,-14.859114661029052
2026-06-27T13:41:29.706922,1782578417.4437783,10.789044380187988,-2.862896203994751,-114.16211700439453,4.474775314331055,-1.1870778799057007,-1.1134147644042969,-4.333003562362928e-05,-1.7960442425402023,-14.859985881629926
2026-06-27T13:41:29.814655,1782578417.5487804,11.259758949279785,-2.9877688884735107,-114.27812194824219,4.490692615509033,-1.1913014650344849,-1.0960694551467896,-4.523910843573506e-05,-1.6862319365010923,-14.86003412554956
2026-06-27T13:41:29.923841,1782578417.6537828,11.732044219970703,-3.11305832862854,-114.39232635498047,4.504766464233398,-1.1950361728668213,-1.0791231393814087,-6.155890844003355e-05,-1.5922959484599721,-14.85951606573715
2026-06-27T13:41:30.032496,1782578417.758785,12.205723762512207,-3.2387170791625977,-114.50475311279297,4.517248630523682,-1.1983493566513062,-1.0621974468231201,-8.838217723541311e-05,-1.5118219764321792,-14.858739923109766
2026-06-27T13:41:30.141549,1782578417.8667874,12.694220542907715,-3.368309259414673,-114.6185531616211,4.528675079345703,-1.2013828754425049,-1.045236349105835,-0.00011170950816738343,-1.441107069292483,-14.857942031592488
2026-06-27T13:41:30.249719,1782578417.9717896,13.170271873474121,-3.494598388671875,-114.72744750976562,4.538598537445068,-1.2040178775787354,-1.028779149055481,-0.00012352330958425897,-1.3822857934392907,-14.857345014188256
2026-06-27T13:41:30.359420,1782578418.0767918,13.647310256958008,-3.621149778366089,-114.83460998535156,4.547520637512207,-1.2063870429992676,-1.01246178150177,-0.00012229066255550308,-1.3317926942718108,-14.856999897275303
2026-06-27T13:41:30.466784,1782578418.178794,14.111572265625,-3.744312047958374,-114.93707275390625,4.555359840393066,-1.2084689140319824,-0.9967161417007446,-0.00012046624619131708,-1.2895453857677013,-14.856920017918906
2026-06-27T13:41:30.577000,1782578418.2837963,14.590286254882812,-3.8713080883026123,-115.04088592529297,4.562694549560547,-1.210416555404663,-0.9806747436523438,-0.00011853912314862401,-1.2520133325000347,-14.857016855498674
2026-06-27T13:41:30.687735,1782578418.3887985,15.069734573364258,-3.9984991550445557,-115.14302825927734,4.569381237030029,-1.212192177772522,-0.9647482633590698,-0.00011362486589892856,-1.2196848985918212,-14.857259042016093
2026-06-27T13:41:30.797010,1782578418.4968007,15.563583374023438,-4.129509925842285,-115.24634552001953,4.575676918029785,-1.2138644456863403,-0.9485769271850586,-0.00010803165256672361,-1.190978739080108,-14.857535229057845
2026-06-27T13:41:30.903413,1782578418.601803,16.044342041015625,-4.257047653198242,-115.34513092041016,4.58130407333374,-1.2153592109680176,-0.9329373240470886,-9.142034984311905e-05,-1.166885570511233,-14.857743310308516
2026-06-27T13:41:31.012608,1782578418.7068052,16.525665283203125,-4.384735584259033,-115.44227600097656,4.586507797241211,-1.2167409658432007,-0.9174339175224304,-8.925197825132645e-05,-1.145937030811115,-14.857884489157692
2026-06-27T13:41:31.121660,1782578418.8118074,17.00751495361328,-4.512564182281494,-115.53780364990234,4.591342449188232,-1.2180252075195312,-0.9020578861236572,-8.801953197602975e-05,-1.127713759602106,-14.857946138933086
2026-06-27T13:41:31.231371,1782578418.9168098,17.489858627319336,-4.640523433685303,-115.6317138671875,4.595853328704834,-1.219223976135254,-0.8868141770362854,-8.796759676792154e-05,-1.1117865894261783,-14.857946020885224
2026-06-27T13:41:31.338999,1782578419.024812,17.98645782470703,-4.7722649574279785,-115.72665405273438,4.60019588470459,-1.220377802848816,-0.8712870478630066,-8.870014204304498e-05,-1.097447540360625,-14.857916257233024
2026-06-27T13:41:31.447790,1782578419.1298144,18.46969985961914,-4.900463104248047,-115.81734466552734,4.604162216186523,-1.2214317321777344,-0.8563129305839539,-8.911173859913606e-05,-1.085192553420771,-14.857903449804372
2026-06-27T13:41:31.556237,1782578419.2348166,18.95334815979004,-5.028769016265869,-115.90646362304688,4.60790491104126,-1.2224265336990356,-0.8413748145103455,-8.960567641971816e-05,-1.0744334839667045,-14.857913905038487
2026-06-27T13:41:31.666417,1782578419.3398187,19.437374114990234,-5.157176971435547,-115.99403381347656,4.611453533172607,-1.2233692407608032,-0.8267699480056763,-8.980556999048981e-05,-1.0647411608416117,-14.85790791275542
2026-06-27T13:41:31.775175,1782578419.4478211,19.935611724853516,-5.289353370666504,-116.08251953125,4.614912033081055,-1.2242889404296875,-0.8117967247962952,-9.004060256057981e-05,-1.0558622395384762,-14.857915489237794
2026-06-27T13:41:31.883368,1782578419.5498233,20.4064998626709,-5.414276123046875,-116.16460418701172,4.618024826049805,-1.2251161336898804,-0.7978107333183289,-9.016651411667502e-05,-1.048370606437803,-14.857923890980688
2026-06-27T13:41:31.992044,1782578419.6578255,20.905427932739258,-5.546637058258057,-116.24996948242188,4.621169567108154,-1.225951910018921,-0.7831186056137085,-9.049355200661478e-05,-1.0411894806165223,-14.85793053607732
2026-06-27T13:41:32.101781,1782578419.7628279,21.39081573486328,-5.675405979156494,-116.33145904541016,4.624090671539307,-1.2267286777496338,-0.7689939141273499,-9.064770323562715e-05,-1.0348609869194716,-14.857936667660953
2026-06-27T13:41:32.210889,1782578419.86483,21.862621307373047,-5.800571918487549,-116.4092025756836,4.626812934875488,-1.227452278137207,-0.7554267048835754,-9.042506017503314e-05,-1.0292450149136088,-14.857944532221648
2026-06-27T13:41:32.319580,1782578419.9728322,22.36248016357422,-5.93317985534668,-116.49002075195312,4.629579544067383,-1.2281877994537354,-0.7411882281303406,-9.048954305338399e-05,-1.0237709957767869,-14.857950186313012
2026-06-27T13:41:32.427024,1782578420.0778346,22.84873390197754,-6.062178611755371,-116.56712341308594,4.632163047790527,-1.2288748025894165,-0.7275109887123108,-9.063168944311635e-05,-1.0188601972838593,-14.857954586574492
2026-06-27T13:41:32.536747,1782578420.1798368,23.321348190307617,-6.187559604644775,-116.64065551757812,4.634581089019775,-1.2295178174972534,-0.7143818140029907,-8.749562692090336e-05,-1.0144251646755167,-14.857960149215652
2026-06-27T13:41:32.646487,1782578420.287839,23.8220272064209,-6.320385932922363,-116.71707153320312,4.637046813964844,-1.2301735877990723,-0.7006145715713501,-7.973330917648646e-05,-1.0100325241078525,-14.857963288659395
2026-06-27T13:41:32.754683,1782578420.392841,24.309049606323242,-6.449588775634766,-116.78994750976562,4.639357089996338,-1.2307878732681274,-0.6873959898948669,-6.597575219371621e-05,-1.0060288606343453,-14.857967398595749
2026-06-27T13:41:32.863471,1782578420.4948435,24.782384872436523,-6.575161457061768,-116.85941314697266,4.641526222229004,-1.231364130973816,-0.6747522354125977,-6.993943873744219e-05,-1.0023532212929607,-14.857972123927857
2026-06-27T13:41:32.973068,1782578420.6028457,25.283802032470703,-6.708183765411377,-116.93155670166016,4.643742561340332,-1.2319532632827759,-0.6614404916763306,-7.128119734162199e-05,-0.9986567825547992,-14.858024145899186
2026-06-27T13:41:33.081342,1782578420.7078478,25.771514892578125,-6.837570667266846,-117.00033569335938,4.645823001861572,-1.2325066328048706,-0.648700475692749,-6.362776456345499e-05,-0.9952456269725065,-14.858040121328244
2026-06-27T13:41:33.190407,1782578420.8158503,26.273387908935547,-6.970714569091797,-117.06968688964844,4.647890090942383,-1.2330564260482788,-0.6356690526008606,-6.67590102081442e-05,-0.9919394953201099,-14.8580405556261
2026-06-27T13:41:33.298904,1782578420.9238524,26.775480270385742,-7.103916168212891,-117.13765716552734,4.649889945983887,-1.2335882186889648,-0.6229674220085144,-6.714847205847066e-05,-0.9886922699232376,-14.858043772034828
2026-06-27T13:41:33.407992,1782578421.0288548,27.26382827758789,-7.233471870422363,-117.20243835449219,4.651768684387207,-1.2340877056121826,-0.6107324957847595,-6.729528363908097e-05,-0.9856771990224991,-14.858052775699237
2026-06-27T13:41:33.517155,1782578421.133857,27.752368927001953,-7.36307954788208,-117.26593780517578,4.653585910797119,-1.2345709800720215,-0.5986536145210266,-6.434135292149577e-05,-0.982773197473246,-14.858093568557646
2026-06-27T13:41:33.625402,1782578421.2418594,28.255064010620117,-7.496441841125488,-117.3299331665039,4.655391693115234,-1.2350516319274902,-0.5863969326019287,-6.442767138623162e-05,-0.9798913070064686,-14.85809680122672
2026-06-27T13:41:33.735089,1782578421.3498616,28.757951736450195,-7.629855632781982,-117.39260864257812,4.657137393951416,-1.23551607131958,-0.5743295550346375,-6.417426915204332e-05,-0.9771061354155635,-14.85809851690546
2026-06-27T13:41:33.844081,1782578421.4548638,29.24704933166504,-7.759611129760742,-117.45231628417969,4.658779144287109,-1.2359528541564941,-0.562806248664856,-6.403118427963209e-05,-0.9744548796780539,-14.858100540917482
2026-06-27T13:41:33.952304,1782578421.5598662,29.73631477355957,-7.889411449432373,-117.51081085205078,4.660367012023926,-1.236375093460083,-0.5513455271720886,-6.364852948764864e-05,-0.9719283935057066,-14.858125602553377
2026-06-27T13:41:34.061032,1782578421.6678684,30.239730834960938,-8.022968292236328,-117.5697250366211,4.661945343017578,-1.236795425415039,-0.5398097038269043,-6.33966043091805e-05,-0.9693826095281847,-14.858127886906875
2026-06-27T13:41:34.171201,1782578421.7698705,30.715333938598633,-8.149145126342773,-117.62422943115234,4.663387298583984,-1.237179160118103,-0.5290363430976868,-6.307598620946053e-05,-0.9670405622655158,-14.858150772119346
2026-06-27T13:41:34.280734,1782578421.877873,31.21906852722168,-8.282784461975098,-117.6807632446289,4.664865016937256,-1.237572193145752,-0.5178443193435669,-6.272025215059989e-05,-0.9646267290500761,-14.85815336990532
2026-06-27T13:41:34.386939,1782578421.982875,31.70896339416504,-8.412751197814941,-117.73457336425781,4.666253089904785,-1.2379413843154907,-0.5071091651916504,-6.247455320268357e-05,-0.9623418595631825,-14.858156257428085
2026-06-27T13:41:34.497187,1782578422.0848773,32.18500900268555,-8.539040565490723,-117.78577423095703,4.667555809020996,-1.238288402557373,-0.49681928753852844,-6.222791585051382e-05,-0.9601713857380175,-14.858174297725382
2026-06-27T13:41:34.606106,1782578422.1928797,32.68918991088867,-8.672797203063965,-117.8388442993164,4.668889999389648,-1.2386435270309448,-0.4861392676830292,-6.211226455247857e-05,-0.9579319571398975,-14.858177304300668
2026-06-27T13:41:34.713750,1782578422.2948818,33.165489196777344,-8.799158096313477,-117.88792419433594,4.670108318328857,-1.2389675378799438,-0.47617387771606445,-6.07135113884436e-05,-0.9558670222850797,-14.858190351616528
2026-06-27T13:41:34.824996,1782578422.399884,33.655921936035156,-8.929269790649414,-117.93738555908203,4.671319484710693,-1.2392898797988892,-0.46609988808631897,-5.982801004141652e-05,-0.953794635136455,-14.858210387802936
2026-06-27T13:41:34.933825,1782578422.5078864,34.160499572753906,-9.063133239746094,-117.98717498779297,4.67252254486084,-1.239610195159912,-0.4559580981731415,-5.461681367018969e-05,-0.9516947940420171,-14.858213765779869
2026-06-27T13:41:35.043021,1782578422.6128886,34.65117645263672,-9.193309783935547,-118.03453063964844,4.67365026473999,-1.23991060256958,-0.44618380069732666,-5.16463971876863e-05,-0.9497473917598377,-14.85821835500402
2026-06-27T13:41:35.151727,1782578422.7178907,35.14197540283203,-9.323519706726074,-118.08087158203125,4.674739360809326,-1.2402006387710571,-0.436611533164978,-3.784807199398052e-05,-0.9478292654441315,-14.858228353923927
2026-06-27T13:41:35.259598,1782578422.8228931,35.63290023803711,-9.453760147094727,-118.126220703125,4.675789833068848,-1.2404800653457642,-0.4271293878555298,-3.842972598669144e-05,-0.945968752001575,-14.858229614404413
2026-06-27T13:41:35.368282,1782578422.9308953,36.13795852661133,-9.587751388549805,-118.17184448242188,4.6768341064453125,-1.240757703781128,-0.4176985025405884,-3.8133383560432604e-05,-0.9440768643633721,-14.858260571712258
2026-06-27T13:41:35.478442,1782578423.0388978,36.64311981201172,-9.721771240234375,-118.2164535522461,4.677839279174805,-1.2410252094268799,-0.4083862602710724,-3.4990540365941414e-05,-0.9422571984823459,-14.858261964575531
2026-06-27T13:41:35.585665,1782578423.1439,37.134342193603516,-9.852093696594238,-118.25885772705078,4.6787800788879395,-1.2412755489349365,-0.3994099497795105,-4.094104769947958e-05,-0.9405251505577171,-14.858263474490798
2026-06-27T13:41:35.695886,1782578423.248902,37.625675201416016,-9.982439994812012,-118.30034637451172,4.6796875,-1.241517186164856,-0.39064720273017883,-4.2753953823889516e-05,-0.9388443364583372,-14.858265132814722
2026-06-27T13:41:35.803477,1782578423.3539045,38.11711120605469,-10.11281681060791,-118.34090423583984,4.680562496185303,-1.2417501211166382,-0.3820425271987915,-3.8317925112336175e-05,-0.9372046216621449,-14.858287933454124
2026-06-27T13:41:35.912214,1782578423.4619067,38.62266159057617,-10.246943473815918,-118.38169860839844,4.681427955627441,-1.2419805526733398,-0.37333840131759644,-3.662500552218287e-05,-0.935564517703769,-14.858287114587027
2026-06-27T13:41:36.022272,1782578423.569909,39.1283073425293,-10.38109016418457,-118.42156219482422,4.682260990142822,-1.2422025203704834,-0.36480408906936646,-4.239635263320316e-05,-0.9339735587157003,-14.85828894708111
2026-06-27T13:41:36.130501,1782578423.6749113,39.62001037597656,-10.511533737182617,-118.45942687988281,4.683041095733643,-1.2424100637435913,-0.35667115449905396,-3.628199621543673e-05,-0.9324718948812513,-14.8582910684043
2026-06-27T13:41:36.239687,1782578423.7799134,40.111759185791016,-10.642004013061523,-118.4964599609375,4.683793544769287,-1.242610216140747,-0.3486884832382202,-3.6636889244852984e-05,-0.9310135730980931,-14.858336979519699
2026-06-27T13:41:36.347170,1782578423.8819156,40.58957290649414,-10.768757820129395,-118.5316390991211,4.684497356414795,-1.2427971363067627,-0.3410893380641937,-4.201962286480377e-05,-0.9296243237136909,-14.858336647564228
2026-06-27T13:41:36.456457,1782578423.989918,41.09553909301758,-10.902997016906738,-118.56804656982422,4.685214042663574,-1.2429876327514648,-0.3331759572029114,-3.9306549908608944e-05,-0.928197803311365,-14.858338911763562
2026-06-27T13:41:36.566649,1782578424.0949202,41.58753967285156,-11.03352165222168,-118.60263061523438,4.685881614685059,-1.2431658506393433,-0.3255760669708252,-4.280573196685654e-05,-0.9268715988065198,-14.858338734698567
2026-06-27T13:41:36.674745,1782578424.2029226,42.093658447265625,-11.167795181274414,-118.63739013671875,4.686544895172119,-1.2433422803878784,-0.31803297996520996,-3.828385415457186e-05,-0.9255214796693617,-14.85834118044405
2026-06-27T13:41:36.783433,1782578424.3049247,42.57173156738281,-11.294629096984863,-118.66947937011719,4.687145709991455,-1.243502140045166,-0.3110053241252899,-4.299997179037334e-05,-0.9242927370848814,-14.858341203119906
2026-06-27T13:41:36.892647,1782578424.409927,43.06391525268555,-11.425206184387207,-118.70176696777344,4.687739372253418,-1.2436606884002686,-0.3038778305053711,-3.8287600229032683e-05,-0.9230707875763773,-14.8583439227859
2026-06-27T13:41:37.001351,1782578424.514929,43.556182861328125,-11.555803298950195,-118.73330688476562,4.6883111000061035,-1.2438130378723145,-0.2969032824039459,-4.267910490031735e-05,-0.9218925197729807,-14.858361557884878
2026-06-27T13:41:37.110550,1782578424.6229315,44.06253433227539,-11.690145492553711,-118.76498413085938,4.688875675201416,-1.243963599205017,-0.2899051606655121,-3.765182135262892e-05,-0.9207185923525566,-14.858390676356168
2026-06-27T13:41:37.220089,1782578424.7279336,44.554935455322266,-11.820771217346191,-118.79508209228516,4.689403057098389,-1.2441043853759766,-0.28323331475257874,-4.389389377323298e-05,-0.9195978498555585,-14.858393525911806
2026-06-27T13:41:37.326907,1782578424.8299358,45.033267974853516,-11.94768238067627,-118.82363891601562,4.68989372253418,-1.2442353963851929,-0.27681922912597656,-3.670989111379386e-05,-0.9185634533410177,-14.858394059936936
2026-06-27T13:41:37.435128,1782578424.9379382,45.53982925415039,-12.082061767578125,-118.85318756103516,4.690393447875977,-1.2443687915802002,-0.27026742696762085,-3.7238031491921726e-05,-0.9174828106294425,-14.858394439536557
2026-06-27T13:41:37.545172,1782578425.0429404,46.03236389160156,-12.212738990783691,-118.88123321533203,4.690859794616699,-1.2444933652877808,-0.2640026807785034,-3.7248343116877575e-05,-0.916472278935489,-14.858394969663571
2026-06-27T13:41:37.652910,1782578425.1509428,46.538970947265625,-12.347149848937988,-118.90940856933594,4.691319465637207,-1.244616150856018,-0.25766676664352417,-3.705965763305265e-05,-0.9154767904203027,-14.858395534479204
2026-06-27T13:41:37.762116,1782578425.252945,47.017555236816406,-12.47410774230957,-118.93538665771484,4.691737174987793,-1.2447272539138794,-0.25179269909858704,-3.669596835840036e-05,-0.9145666341569535,-14.858396277515059
2026-06-27T13:41:37.870819,1782578425.3609471,47.52429962158203,-12.608552932739258,-118.96226501464844,4.692161560058594,-1.2448408603668213,-0.24574053287506104,-3.64640122834993e-05,-0.913626680172513,-14.858396960434261
2026-06-27T13:41:37.980529,1782578425.4689496,48.031044006347656,-12.742998123168945,-118.98848724365234,4.692567825317383,-1.2449493408203125,-0.23980800807476044,-3.6172247152204774e-05,-0.9127223880587788,-14.858418717255704
2026-06-27T13:41:38.089261,1782578425.5769517,48.53791046142578,-12.877462387084961,-119.0140609741211,4.692956924438477,-1.2450531721115112,-0.23401345312595367,-2.8635710865335698e-05,-0.9118467088497855,-14.858419593302225
2026-06-27T13:41:38.197990,1782578425.6819541,49.03071212768555,-13.008206367492676,-119.03833770751953,4.693319320678711,-1.2451496124267578,-0.22848933935165405,-2.8736498258483867e-05,-0.9110286418318686,-14.858420527671658
2026-06-27T13:41:38.306535,1782578425.7839563,49.50943374633789,-13.135214805603027,-119.0613784790039,4.693656921386719,-1.2452397346496582,-0.2232288271188736,-2.8173210312908584e-05,-0.9102612018427705,-14.858455715985427
2026-06-27T13:41:38.416214,1782578425.8919585,50.016361236572266,-13.26970100402832,-119.08519744873047,4.694000244140625,-1.245331048965454,-0.21778970956802368,-2.184777501685144e-05,-0.9094766326931926,-14.858456772424539
2026-06-27T13:41:38.524944,1782578425.999961,50.523380279541016,-13.404214859008789,-119.10842895507812,4.694328308105469,-1.2454184293746948,-0.21246176958084106,-2.235950631532885e-05,-0.9087183570962905,-14.858457829399804
2026-06-27T13:41:38.633785,1782578426.104963,51.01631546020508,-13.534992218017578,-119.1304702758789,4.694632530212402,-1.2454997301101685,-0.20739969611167908,-2.23577529972094e-05,-0.9080094192217029,-14.858458991977916
2026-06-27T13:41:38.741987,1782578426.2099652,51.50925064086914,-13.665769577026367,-119.15198516845703,4.694925308227539,-1.2455779314041138,-0.20244736969470978,-2.2101593442792575e-05,-0.9073259577932121,-14.858460209417942
2026-06-27T13:41:38.851684,1782578426.3179677,52.01629638671875,-13.800293922424316,-119.17357635498047,4.695213794708252,-1.245654821395874,-0.19745928049087524,-2.1815207550492537e-05,-0.9066468493391613,-14.858458833435593
