time,sim_t,x,y,z,vx,vy,vz,roll_deg,pitch_deg,yaw_deg
2026-06-27T14:48:54.524654,1782582366.5180235,0.0,0.0,2.0396859645843506,0.0,0.0,0.0,0.0,0.0,0.0003895640909249624
2026-06-27T14:48:54.633840,1782582366.6260257,0.0,0.0,2.0396859645843506,0.0,0.0,0.0,0.0,0.0,0.0003895640909249624
2026-06-27T14:48:54.744593,1782582366.734028,0.0,0.0,2.0396859645843506,0.0,0.0,0.0,0.0,0.0,0.0003895640909249624
2026-06-27T14:48:54.851367,1782582366.8390303,0.0,0.0,2.0396859645843506,0.0,0.0,0.0,0.0,0.0,0.0003895640909249624
2026-06-27T14:48:54.961122,1782582366.9380324,0.0,0.0,2.0396859645843506,0.0,0.0,0.0,0.0,0.0,0.0003895640909249624
2026-06-27T14:48:55.068847,1782582367.0400345,0.0,0.0,2.0396859645843506,0.0,0.0,0.0,0.0,0.0,0.0003895640909249624
2026-06-27T14:48:55.179138,1782582367.148037,0.0,0.0,2.0396859645843506,0.0,0.0,0.0,0.0,0.0,0.0003895640909249624
2026-06-27T14:48:55.287502,1782582367.2530391,0.0,0.0,2.0396859645843506,0.0,0.0,0.0,0.0,0.0,0.0003895640909249624
2026-06-27T14:48:55.394699,1782582367.3610413,0.0,0.0,2.0396859645843506,0.0,0.0,0.0,0.0,0.0,0.0003895640909249624
2026-06-27T14:48:55.503096,1782582367.4690437,0.0,0.0,2.0396859645843506,0.0,0.0,0.0,0.0,0.0,0.0003895640909249624
2026-06-27T14:48:55.612200,1782582367.577046,0.0,0.0,2.0396859645843506,0.0,0.0,0.0,0.0,0.0,0.0003895640909249624
2026-06-27T14:48:55.721399,1782582367.6850483,0.0,0.0,2.0396859645843506,0.0,0.0,0.0,0.0,0.0,0.0003895640909249624
2026-06-27T14:48:55.828773,1782582367.7900505,0.0,0.0,2.0396859645843506,0.0,0.0,0.0,0.0,0.0,0.0003895640909249624
2026-06-27T14:48:55.937982,1782582367.895053,0.0,0.0,2.0396859645843506,0.0,0.0,0.0,0.0,0.0,0.0003895640909249624
2026-06-27T14:48:56.047611,1782582368.003055,0.0,0.0,2.038975715637207,0.0,0.0,-0.09387190639972687,0.0,0.0,0.0003895640909249624
2026-06-27T14:48:56.156839,1782582368.1110575,0.0,0.0,2.0068154335021973,0.0,0.0,-0.401381254196167,0.0,0.0,0.0003895640909249624
2026-06-27T14:48:56.264912,1782582368.2160597,0.0,0.0,1.9620386362075806,0.0,0.0,-0.4403745234012604,0.0,0.0,0.0003895640909249624
2026-06-27T14:48:56.373030,1782582368.3210618,0.0,0.0,1.915233850479126,0.0,0.0,-0.4497627019882202,0.0,0.0,0.0003895640909249624
2026-06-27T14:48:56.482652,1782582368.4290643,0.0,0.0,1.8663413524627686,0.0,0.0,-0.4553840756416321,0.0,0.0,0.0003895640909249624
2026-06-27T14:48:56.590864,1782582368.5340664,0.0,0.0,1.8182810544967651,0.0,0.0,-0.4599250555038452,0.0,0.0,0.0003895640909249624
2026-06-27T14:48:56.699146,1782582368.6420686,0.0,0.0,1.7683813571929932,0.0,0.0,-0.46404606103897095,0.0,0.0,0.0003895640909249624
2026-06-27T14:48:56.808345,1782582368.750071,0.0,0.0,1.718061923980713,0.0,0.0,-0.46770384907722473,0.0,0.0,0.0003895640909249624
2026-06-27T14:48:56.917551,1782582368.8580732,0.0,0.0,1.6673697233200073,0.0,0.0,-0.47095367312431335,0.0,0.0,0.0003895640909249624
2026-06-27T14:48:57.025678,1782582368.9600756,0.0,0.0,1.6191890239715576,0.0,0.0,-0.4736897945404053,0.0,0.0,0.0003895640909249624
2026-06-27T14:48:57.135892,1782582369.0710778,0.0,0.0,1.5664583444595337,0.0,0.0,-0.47634026408195496,0.0,0.0,0.0003895640909249624
2026-06-27T14:48:57.242979,1782582369.1760802,0.0,0.0,1.5163222551345825,0.0,0.0,-0.47856801748275757,0.0,0.0,0.0003895640909249624
2026-06-27T14:48:57.352700,1782582369.2840824,0.0,0.0,1.464523434638977,0.0,0.0,-0.4806077480316162,0.0,0.0,0.0003895640909249624
2026-06-27T14:48:57.460892,1782582369.3890846,0.0,0.0,1.4139641523361206,0.0,0.0,-0.4823726415634155,0.0,0.0,0.0003895640909249624
2026-06-27T14:48:57.569926,1782582369.497087,0.0,0.0,1.3617777824401855,0.0,0.0,-0.4839886426925659,0.0,0.0,0.0003895640909249624
2026-06-27T14:48:57.679112,1782582369.6020892,0.0,0.0,1.3108837604522705,0.0,0.0,-0.4853869676589966,0.0,0.0,0.0003895640909249624
2026-06-27T14:48:57.789154,1782582369.7100916,0.0,0.0,1.258390188217163,0.0,0.0,-0.48666730523109436,0.0,0.0,0.0003895640909249624
2026-06-27T14:48:57.897287,1782582369.8180938,0.0,0.0,1.2057663202285767,0.0,0.0,-0.487805038690567,0.0,0.0,0.0003895640909249624
2026-06-27T14:48:58.005913,1782582369.9230962,0.0,0.0,1.154492974281311,0.0,0.0,-0.48878955841064453,0.0,0.0,0.0003895640909249624
2026-06-27T14:48:58.114608,1782582370.0310984,0.0,0.0,1.101652979850769,0.0,0.0,-0.48969101905822754,0.0,0.0,0.0003895640909249624
2026-06-27T14:48:58.223342,1782582370.1391008,0.0,0.0,1.0487209558486938,0.0,0.0,-0.4904920756816864,0.0,0.0,0.0003895640909249624
2026-06-27T14:48:58.332543,1782582370.247103,0.0,0.0,0.9957077503204346,0.0,0.0,-0.49120402336120605,0.0,0.0,0.0003895640909249624
2026-06-27T14:48:58.440810,1782582370.3521051,0.0,0.0,0.9440972805023193,0.0,0.0,-0.4918200671672821,0.0,0.0,0.0003895640909249624
2026-06-27T14:48:58.548713,1782582370.4601076,0.0,0.0,0.8909485340118408,0.0,0.0,-0.49238404631614685,0.0,0.0,0.0003895640909249624
2026-06-27T14:48:58.658420,1782582370.5681098,0.0,0.0,0.837742269039154,0.0,0.0,-0.4928852915763855,0.0,0.0,0.0003895640909249624
2026-06-27T14:48:58.768009,1782582370.6731122,0.0,0.0,0.7859649658203125,0.0,0.0,-0.4933191239833832,0.0,0.0,0.0003895640909249624
2026-06-27T14:48:58.877225,1782582370.7811143,0.0,0.0,0.7326635122299194,0.0,0.0,-0.4937163293361664,0.0,0.0,0.0003895640909249624
2026-06-27T14:48:58.985461,1782582370.8891168,0.0,0.0,0.6793218851089478,0.0,0.0,-0.4940691292285919,0.0,0.0,0.0003895640909249624
2026-06-27T14:48:59.094167,1782582370.994119,0.0,0.0,0.6274272203445435,0.0,0.0,-0.4943745732307434,0.0,0.0,0.0003895640909249624
2026-06-27T14:48:59.203354,1782582371.102121,0.0,0.0,0.5740182995796204,0.0,0.0,-0.49465417861938477,0.0,0.0,0.0003895640909249624
2026-06-27T14:48:59.312433,1782582371.2101235,0.0,0.0,0.5212461948394775,0.0,0.0,-0.4171512722969055,0.0,0.0,0.0003895640909249624
2026-06-27T14:48:59.421363,1782582371.3151257,0.0,0.0,0.5015191435813904,0.0,0.0,-0.029564041644334793,0.0,0.0,0.0003895640909249624
2026-06-27T14:48:59.530081,1782582371.4231281,0.0,0.0,0.4979545474052429,0.0,0.0,-0.22436106204986572,0.0,0.0,0.0003832125804540408
2026-06-27T14:48:59.638747,1782582371.5311303,0.0,0.0,0.4347591996192932,0.0,0.0,-0.9439198970794678,0.0,0.0,0.000306677875171538
2026-06-27T14:48:59.748469,1782582371.6361327,0.0,0.0,0.299654096364975,0.0,0.0,-1.6253923177719116,0.0,0.0,0.0001868532399979521
2026-06-27T14:48:59.856785,1782582371.741135,0.0,0.0,0.09447252750396729,0.0,0.0,-2.276825428009033,0.0,0.0,6.374314740988085e-05
2026-06-27T14:48:59.965071,1782582371.849137,0.0,0.0,-0.1857791543006897,0.0,0.0,-2.9051012992858887,0.0,0.0,-3.659077509598761e-05
2026-06-27T14:49:00.073758,1782582371.9571395,0.0,0.0,-0.5312348008155823,0.0,0.0,-3.4832239151000977,0.0,0.0,-9.548359229043863e-05
2026-06-27T14:49:00.183110,1782582372.0591416,0.0,0.0,-0.9122352600097656,0.0,0.0,-3.9788219928741455,0.0,0.0,-0.00011258814271150758
2026-06-27T14:49:00.291364,1782582372.1671438,0.0,0.0,-1.3678251504898071,0.0,0.0,-4.448337078094482,0.0,0.0,-9.92307917441801e-05
2026-06-27T14:49:00.400111,1782582372.2691462,0.0,0.0,-1.8419629335403442,0.0,0.0,-4.840027809143066,0.0,0.0,-6.88073607167847e-05
2026-06-27T14:49:00.509791,1782582372.3771484,0.0,0.0,-2.3836607933044434,0.0,0.0,-5.142233371734619,0.0,0.0,-3.125495035795371e-05
2026-06-27T14:49:00.617484,1782582372.4821506,0.0,0.0,-2.9260520935058594,0.0,0.0,-5.171114921569824,0.0,0.0,4.912653718774857e-07
2026-06-27T14:49:00.727605,1782582372.587153,0.0,0.0,-3.4683616161346436,0.0,0.0,-5.157017230987549,0.0,0.0,2.1682323079404897e-05
2026-06-27T14:49:00.835157,1782582372.6921551,0.0,0.0,-4.008991718292236,0.0,0.0,-5.140606880187988,0.0,0.0,3.11251210318561e-05
2026-06-27T14:49:00.945253,1782582372.7971573,0.0,0.0,-4.547959804534912,0.0,0.0,-5.125498294830322,0.0,0.0,3.0513239713793328e-05
2026-06-27T14:49:01.053490,1782582372.9021597,0.0,0.0,-5.08542013168335,0.0,0.0,-5.111875057220459,0.0,0.0,2.3189736233132044e-05
2026-06-27T14:49:01.162303,1782582373.0101619,0.0,0.0,-5.63682222366333,0.0,0.0,-5.099287509918213,0.0,0.0,1.2718541699309152e-05
2026-06-27T14:49:01.270230,1782582373.115164,0.0,0.0,-6.171669960021973,0.0,0.0,-5.088296413421631,0.0,0.0,2.9819339778269867e-06
2026-06-27T14:49:01.378981,1782582373.2261665,0.0,0.0,-6.735894680023193,0.0,0.0,-5.077877521514893,0.0,0.0,-4.702140997517651e-06
2026-06-27T14:49:01.487656,1782582373.334169,0.0,0.0,-7.28381872177124,0.0,0.0,-5.068801403045654,0.0,0.0,-9.50626492878578e-06
2026-06-27T14:49:01.596397,1782582373.442171,0.0,0.0,-7.830813884735107,0.0,0.0,-5.060664653778076,0.0,0.0,-1.2575907103841859e-05
2026-06-27T14:49:01.705638,1782582373.5501735,0.0,0.0,-8.37697696685791,0.0,0.0,-5.053369045257568,0.0,0.0,-1.3955732484633076e-05
2026-06-27T14:49:01.814306,1782582373.6581757,0.0,0.0,-8.922393798828125,0.0,0.0,-5.046828269958496,0.0,0.0,-1.1317132107560902e-05
2026-06-27T14:49:01.923138,1782582373.7661781,0.0,0.0,-9.467144012451172,0.0,0.0,-5.040962219238281,0.0,0.0,-9.402891303861973e-06
2026-06-27T14:49:02.032467,1782582373.8711803,0.0,0.0,-9.996182441711426,0.0,0.0,-5.035844326019287,0.0,0.0,-8.168614619070536e-06
2026-06-27T14:49:02.141194,1782582373.9791825,0.0,0.0,-10.53980541229248,0.0,0.0,-5.0311174392700195,0.0,0.0,-7.419217719244835e-06
2026-06-27T14:49:02.250442,1782582374.084185,0.0,0.0,-11.067863464355469,0.0,0.0,-5.02699089050293,0.0,0.0,-6.750546045233924e-06
2026-06-27T14:49:02.359124,1782582374.192187,0.0,0.0,-11.61058235168457,0.0,0.0,-5.023179054260254,0.0,0.0,-6.062769466251275e-06
2026-06-27T14:49:02.467837,1782582374.3001895,0.0,0.0,-12.152909278869629,0.0,0.0,-5.019762992858887,0.0,0.0,-5.374992887268627e-06
2026-06-27T14:49:02.577016,1782582374.4081917,0.0,0.0,-12.694886207580566,0.0,0.0,-5.016700267791748,0.0,0.0,-4.687216308285978e-06
2026-06-27T14:49:02.685390,1782582374.513194,0.0,0.0,-13.22150707244873,0.0,0.0,-5.014026165008545,0.0,0.0,-4.01854463427507e-06
2026-06-27T14:49:02.794149,1782582374.6241963,0.0,0.0,-13.777933120727539,0.0,0.0,-5.01149320602417,0.0,0.0,-3.3116631503206836e-06
2026-06-27T14:49:02.903357,1782582374.7321987,0.0,0.0,-14.304036140441895,0.0,0.0,-5.009345054626465,0.0,0.0,-2.6429914763097772e-06
2026-06-27T14:49:03.012151,1782582374.8372009,0.0,0.0,-14.844947814941406,0.0,0.0,-5.007360458374023,0.0,0.0,-1.9552148973271314e-06
2026-06-27T14:49:03.121415,1782582374.942203,0.0,0.0,-15.37063980102539,0.0,0.0,-5.005629539489746,0.0,0.0,-1.2865432233162256e-06
2026-06-27T14:49:03.230079,1782582375.0472054,0.0,0.0,-15.896158218383789,0.0,0.0,-5.004072189331055,0.0,0.0,-6.178715493053205e-07
2026-06-27T14:49:03.338755,1782582375.1552076,0.0,0.0,-16.4365291595459,0.0,0.0,-5.002634525299072,0.0,0.0,6.990571667713605e-08
2026-06-27T14:49:03.448316,1782582375.26321,0.0,0.0,-16.976755142211914,0.0,0.0,-5.001345634460449,0.0,0.0,5.765929875385395e-07
2026-06-27T14:49:03.556459,1782582375.3712122,0.0,0.0,-17.516845703125,0.0,0.0,-5.000189781188965,0.0,0.0,8.209285923893066e-07
2026-06-27T14:49:03.665114,1782582375.4792147,0.0,0.0,-18.056819915771484,0.0,0.0,-4.999154090881348,0.0,0.0,9.366433292548127e-07
2026-06-27T14:49:03.774183,1782582375.5842168,0.0,0.0,-18.581695556640625,0.0,0.0,-4.998249530792236,0.0,0.0,9.837430185329205e-07
2026-06-27T14:49:03.883362,1782582375.692219,0.0,0.0,-19.121475219726562,0.0,0.0,-4.997414588928223,0.0,0.0,1.0289596158841024e-06
2026-06-27T14:49:03.991194,1782582375.8002214,0.0,0.0,-19.661163330078125,0.0,0.0,-4.996666431427002,0.0,0.0,1.038658221218695e-06
2026-06-27T14:49:04.100402,1782582375.9082236,0.0,0.0,-20.200777053833008,0.0,0.0,-4.995995044708252,0.0,0.0,1.048356826553288e-06
2026-06-27T14:49:04.209090,1782582376.013226,0.0,0.0,-20.725337982177734,0.0,0.0,-4.9954094886779785,0.0,0.0,1.057786026184142e-06
2026-06-27T14:49:04.317727,1782582376.1152282,0.0,0.0,-21.234859466552734,0.0,0.0,-4.99489688873291,0.0,0.0,1.0669458201112572e-06
2026-06-27T14:49:04.426973,1782582376.2232304,0.0,0.0,-21.774288177490234,0.0,0.0,-4.994409084320068,0.0,0.0,1.0766444254458499e-06
2026-06-27T14:49:04.535755,1782582376.3282328,0.0,0.0,-22.29868507385254,0.0,0.0,-4.993983268737793,0.0,0.0,1.0497474159488986e-06
2026-06-27T14:49:04.644913,1782582376.439235,0.0,0.0,-22.85301399230957,0.0,0.0,-4.993578910827637,0.0,0.0,9.99978910515356e-07
2026-06-27T14:49:04.753581,1782582376.5472374,0.0,0.0,-23.392305374145508,0.0,0.0,-4.993227481842041,0.0,0.0,9.515554998232604e-07
2026-06-27T14:49:04.863038,1782582376.6552396,0.0,0.0,-23.93157386779785,0.0,0.0,-4.9929118156433105,0.0,0.0,9.031320891311648e-07
2026-06-27T14:49:04.971180,1782582376.760242,0.0,0.0,-24.45581817626953,0.0,0.0,-4.992636680603027,0.0,0.0,8.560537731805163e-07
2026-06-27T14:49:05.080045,1782582376.8682442,0.0,0.0,-24.995040893554688,0.0,0.0,-4.992383003234863,0.0,0.0,8.076303624884208e-07
2026-06-27T14:49:05.188242,1782582376.9732466,0.0,0.0,-25.51922035217285,0.0,0.0,-4.992160320281982,0.0,0.0,7.605520465377723e-07
2026-06-27T14:49:05.296611,1782582377.0812488,0.0,0.0,-26.058374404907227,0.0,0.0,-4.991955757141113,0.0,0.0,7.121286358456768e-07
2026-06-27T14:49:05.404914,1782582377.1892512,0.0,0.0,-26.5975284576416,0.0,0.0,-4.991772174835205,0.0,0.0,6.637052251535813e-07
2026-06-27T14:49:05.514119,1782582377.2972534,0.0,0.0,-27.136625289916992,0.0,0.0,-4.991607666015625,0.0,0.0,6.152818144614856e-07
2026-06-27T14:49:05.622934,1782582377.4052558,0.0,0.0,-27.675710678100586,0.0,0.0,-4.991459369659424,0.0,0.0,5.668584037693901e-07
2026-06-27T14:49:05.732422,1782582377.510258,0.0,0.0,-28.19982147216797,0.0,0.0,-4.991329193115234,0.0,0.0,5.197800878187417e-07
2026-06-27T14:49:05.841374,1782582377.6182601,0.0,0.0,-28.738906860351562,0.0,0.0,-4.991209030151367,0.0,0.0,4.7135667712664606e-07
2026-06-27T14:49:05.950561,1782582377.7262626,0.0,0.0,-29.277990341186523,0.0,0.0,-4.9911041259765625,0.0,0.0,4.229333427678629e-07
2026-06-27T14:49:06.058744,1782582377.8312647,0.0,0.0,-29.802034378051758,0.0,0.0,-4.9910101890563965,0.0,0.0,3.7585591737252524e-07
2026-06-27T14:49:06.167320,1782582377.9392672,0.0,0.0,-30.34105110168457,0.0,0.0,-4.99092435836792,0.0,0.0,3.274334226801779e-07
2026-06-27T14:49:06.276672,1782582378.0472693,0.0,0.0,-30.880067825317383,0.0,0.0,-4.990846157073975,0.0,0.0,2.7901092798783066e-07
2026-06-27T14:49:06.384969,1782582378.1552718,0.0,0.0,-31.419084548950195,0.0,0.0,-4.990777492523193,0.0,0.0,2.3058843329548335e-07
2026-06-27T14:49:06.494193,1782582378.263274,0.0,0.0,-31.958101272583008,0.0,0.0,-4.990710735321045,0.0,0.0,1.8216593860313606e-07
2026-06-27T14:49:06.603053,1782582378.3712764,0.0,0.0,-32.49711608886719,0.0,0.0,-4.990657329559326,0.0,0.0,1.3374344391078875e-07
2026-06-27T14:49:06.712451,1782582378.4792786,0.0,0.0,-33.0361328125,0.0,0.0,-4.99060583114624,0.0,0.0,8.532084744069166e-08
2026-06-27T14:49:06.821662,1782582378.587281,0.0,0.0,-33.57514953613281,0.0,0.0,-4.9905595779418945,0.0,0.0,3.689816509561815e-08
2026-06-27T14:49:06.929834,1782582378.6922832,0.0,0.0,-34.09919357299805,0.0,0.0,-4.990521430969238,0.0,0.0,-1.0179385136490745e-08
2026-06-27T14:49:07.038617,1782582378.8002853,0.0,0.0,-34.63821029663086,0.0,0.0,-4.9904866218566895,0.0,0.0,-5.860200625588663e-08
2026-06-27T14:49:07.146830,1782582378.9052877,0.0,0.0,-35.162254333496094,0.0,0.0,-4.990453243255615,0.0,0.0,-1.0567965429005197e-07
2026-06-27T14:49:07.256060,1782582379.01329,0.0,0.0,-35.701271057128906,0.0,0.0,-4.990419387817383,0.0,0.0,-1.541021489823993e-07
2026-06-27T14:49:07.364802,1782582379.115292,0.0,0.0,-36.21034240722656,0.0,0.0,-4.990396022796631,0.0,0.0,-1.998345050807273e-07
2026-06-27T14:49:07.472365,1782582379.2232945,0.0,0.0,-36.749359130859375,0.0,0.0,-4.990373611450195,0.0,0.0,-2.482569997730746e-07
2026-06-27T14:49:07.581049,1782582379.3282967,0.0,0.0,-37.27340316772461,0.0,0.0,-4.990352630615234,0.0,0.0,-2.953344251684122e-07
2026-06-27T14:49:07.690260,1782582379.436299,0.0,0.0,-37.81241989135742,0.0,0.0,-4.9903340339660645,0.0,0.0,-3.4375691986075954e-07
2026-06-27T14:49:07.798553,1782582379.5443013,0.0,0.0,-38.351436614990234,0.0,0.0,-4.990316867828369,0.0,0.0,-3.921794145531068e-07
2026-06-27T14:49:07.907791,1782582379.6493034,0.0,0.0,-38.87548065185547,0.0,0.0,-4.990300178527832,0.0,0.0,-4.3925709439281896e-07
2026-06-27T14:49:08.016524,1782582379.7543058,0.0,0.0,-39.3995246887207,0.0,0.0,-4.990283489227295,0.0,0.0,-4.863354103434674e-07
2026-06-27T14:49:08.125565,1782582379.862308,0.0,0.0,-39.938541412353516,0.0,0.0,-4.990268230438232,0.0,0.0,-5.34758821035563e-07
2026-06-27T14:49:08.234237,1782582379.9673104,0.0,0.0,-40.46258544921875,0.0,0.0,-4.9902567863464355,0.0,0.0,-5.818371369862115e-07
2026-06-27T14:49:08.342984,1782582380.0753126,0.0,0.0,-41.00160217285156,0.0,0.0,-4.990245819091797,0.0,0.0,-6.30260547678307e-07
2026-06-27T14:49:08.452209,1782582380.1803148,0.0,0.0,-41.5256462097168,0.0,0.0,-4.990236759185791,0.0,0.0,-6.773388636289554e-07
2026-06-27T14:49:08.561767,1782582380.2853172,0.0,0.0,-42.04969024658203,0.0,0.0,-4.990228652954102,0.0,0.0,-7.24417179579604e-07
2026-06-27T14:49:08.670990,1782582380.3933194,0.0,0.0,-42.588706970214844,0.0,0.0,-4.9902215003967285,0.0,0.0,-7.728405902716995e-07
2026-06-27T14:49:08.778675,1782582380.5013218,0.0,0.0,-43.127723693847656,0.0,0.0,-4.990213871002197,0.0,0.0,-8.21264000963795e-07
2026-06-27T14:49:08.888388,1782582380.609324,0.0,0.0,-43.66674041748047,0.0,0.0,-4.990207195281982,0.0,0.0,-8.696874116558906e-07
2026-06-27T14:49:08.996419,1782582380.7143264,0.0,0.0,-44.1907844543457,0.0,0.0,-4.9902024269104,0.0,0.0,-9.16765727606539e-07
2026-06-27T14:49:09.105134,1782582380.8223286,0.0,0.0,-44.729801177978516,0.0,0.0,-4.990196228027344,0.0,0.0,-9.651891382986347e-07
2026-06-27T14:49:09.213863,1782582380.930331,0.0,0.0,-45.26881790161133,0.0,0.0,-4.9901909828186035,0.0,0.0,-1.01361254899073e-06
2026-06-27T14:49:09.323101,1782582381.0383332,0.0,0.0,-45.80783462524414,0.0,0.0,-4.99018669128418,0.0,0.0,-1.062035959682826e-06
2026-06-27T14:49:09.431410,1782582381.1433353,0.0,0.0,-46.331878662109375,0.0,0.0,-4.990183353424072,0.0,0.0,-1.1091142756334742e-06
2026-06-27T14:49:09.540417,1782582381.2513378,0.0,0.0,-46.87089538574219,0.0,0.0,-4.990179061889648,0.0,0.0,-1.1575376863255699e-06
2026-06-27T14:49:09.648564,1782582381.35934,0.0,0.0,-47.409912109375,0.0,0.0,-4.990174770355225,0.0,0.0,-1.2059610970176653e-06
2026-06-27T14:49:09.758292,1782582381.4673424,0.0,0.0,-47.94892883300781,0.0,0.0,-4.990170001983643,0.0,0.0,-1.254384507709761e-06
2026-06-27T14:49:09.866461,1782582381.5723445,0.0,0.0,-48.47297286987305,0.0,0.0,-4.99016809463501,0.0,0.0,-1.3014628236604092e-06
2026-06-27T14:49:09.975127,1782582381.680347,0.0,0.0,-49.01198959350586,0.0,0.0,-4.990164756774902,0.0,0.0,-1.3498862343525049e-06
2026-06-27T14:49:10.084292,1782582381.7883492,0.0,0.0,-49.55100631713867,0.0,0.0,-4.990162372589111,0.0,0.0,-1.3983096450446007e-06
2026-06-27T14:49:10.192993,1782582381.8963516,0.0,0.0,-50.090023040771484,0.0,0.0,-4.990159511566162,0.0,0.0,-1.4467330557366963e-06
2026-06-27T14:49:10.302294,1782582382.0043538,0.0,0.0,-50.6290397644043,0.0,0.0,-4.9901580810546875,0.0,0.0,-1.4951564664287917e-06
2026-06-27T14:49:10.411878,1782582382.1123562,0.0,0.0,-51.16805648803711,0.0,0.0,-4.990156173706055,0.0,0.0,-1.5435798771208874e-06
2026-06-27T14:49:10.518761,1782582382.2173584,0.0,0.0,-51.692100524902344,0.0,0.0,-4.99015474319458,0.0,0.0,-1.5906581930715359e-06
2026-06-27T14:49:10.627978,1782582382.3253605,0.0,0.0,-52.23106384277344,0.0,0.0,-4.990152359008789,0.0,0.0,-1.6390816037636313e-06
2026-06-27T14:49:10.736728,1782582382.433363,0.0,0.0,-52.76994323730469,0.0,0.0,-4.990148544311523,0.0,0.0,-1.687505014455727e-06
2026-06-27T14:49:10.845337,1782582382.5413651,0.0,0.0,-53.30882263183594,0.0,0.0,-4.990147113800049,0.0,0.0,-1.7359284251478226e-06
2026-06-27T14:49:10.954105,1782582382.6463675,0.0,0.0,-53.832733154296875,0.0,0.0,-4.990146160125732,0.0,0.0,-1.7830067410984709e-06
2026-06-27T14:49:11.064284,1782582382.7543697,0.0,0.0,-54.371612548828125,0.0,0.0,-4.990143775939941,0.0,0.0,-1.8314301517905665e-06
2026-06-27T14:49:11.171537,1782582382.8623722,0.0,0.0,-54.910491943359375,0.0,0.0,-4.990141868591309,0.0,0.0,-1.8798535624826621e-06
2026-06-27T14:49:11.280931,1782582382.9673743,0.0,0.0,-55.43440246582031,0.0,0.0,-4.990139961242676,0.0,0.0,-1.9269318784333107e-06
2026-06-27T14:49:11.389138,1782582383.0753767,0.0,0.0,-55.97328186035156,0.0,0.0,-4.990139961242676,0.0,0.0,-1.9753552891254063e-06
2026-06-27T14:49:11.498846,1782582383.183379,0.0,0.0,-56.51216125488281,0.0,0.0,-4.990138530731201,0.0,0.0,-2.0237786998175015e-06
2026-06-27T14:49:11.608581,1782582383.288381,0.0,0.0,-57.03607177734375,0.0,0.0,-4.990138053894043,0.0,0.0,-2.07085701576815e-06
2026-06-27T14:49:11.717285,1782582383.3963835,0.0,0.0,-57.574951171875,0.0,0.0,-4.990137100219727,0.0,0.0,-2.1192804264602456e-06
2026-06-27T14:49:11.825458,1782582383.5043857,0.0,0.0,-58.11383056640625,0.0,0.0,-4.990134239196777,0.0,0.0,-2.1677038371523413e-06
2026-06-27T14:49:11.934623,1782582383.609388,0.0,0.0,-58.63774108886719,0.0,0.0,-4.9901323318481445,0.0,0.0,-2.2147821531029902e-06
2026-06-27T14:49:12.043387,1782582383.7173903,0.0,0.0,-59.17662048339844,0.0,0.0,-4.99013090133667,0.0,0.0,-2.263205563795086e-06
2026-06-27T14:49:12.153443,1782582383.8253927,0.0,0.0,-59.71549987792969,0.0,0.0,-4.9901299476623535,0.0,0.0,-2.3116289744871806e-06
2026-06-27T14:49:12.262139,1782582383.933395,0.0,0.0,-60.25437927246094,0.0,0.0,-4.990128517150879,0.0,0.0,-2.3600523851792767e-06
2026-06-27T14:49:12.371306,1782582384.0413973,0.0,0.0,-60.79325866699219,0.0,0.0,-4.990128040313721,0.0,0.0,-2.4084757958713723e-06
2026-06-27T14:49:12.480489,1782582384.1493995,0.0,0.0,-61.33213806152344,0.0,0.0,-4.990126609802246,0.0,0.0,-2.456899206563468e-06
2026-06-27T14:49:12.588682,1782582384.2544017,0.0,0.0,-61.856048583984375,0.0,0.0,-4.990126132965088,0.0,0.0,-2.503977522514116e-06
2026-06-27T14:49:12.698380,1782582384.359404,0.0,0.0,-62.37995910644531,0.0,0.0,-4.9901251792907715,0.0,0.0,-2.5510558384647646e-06
2026-06-27T14:49:12.807095,1782582384.4674063,0.0,0.0,-62.91883850097656,0.0,0.0,-4.990124702453613,0.0,0.0,-2.59947924915686e-06
2026-06-27T14:49:12.915796,1782582384.5754087,0.0,0.0,-63.45771789550781,0.0,0.0,-4.990121841430664,0.0,0.0,-2.6479026598489562e-06
2026-06-27T14:49:13.024479,1782582384.683411,0.0,0.0,-63.99659729003906,0.0,0.0,-4.9901204109191895,0.0,0.0,-2.696326070541052e-06
2026-06-27T14:49:13.133208,1782582384.7884133,0.0,0.0,-64.5205078125,0.0,0.0,-4.990119457244873,0.0,0.0,-2.7434043864917004e-06
2026-06-27T14:49:13.241905,1782582384.8964155,0.0,0.0,-65.05938720703125,0.0,0.0,-4.990118503570557,0.0,0.0,-2.791827797183796e-06
2026-06-27T14:49:13.351106,1782582385.004418,0.0,0.0,-65.5982666015625,0.0,0.0,-4.990118026733398,0.0,0.0,-2.8402512078758912e-06
2026-06-27T14:49:13.461296,1782582385.11242,0.0,0.0,-66.13714599609375,0.0,0.0,-4.990117073059082,0.0,0.0,-2.888674618567987e-06
2026-06-27T14:49:13.569095,1782582385.2204225,0.0,0.0,-66.676025390625,0.0,0.0,-4.990116119384766,0.0,0.0,-2.937098029260083e-06
2026-06-27T14:49:13.677608,1782582385.3284247,0.0,0.0,-67.21490478515625,0.0,0.0,-4.990114688873291,0.0,0.0,-2.985521439952178e-06
2026-06-27T14:49:13.787294,1782582385.436427,0.0,0.0,-67.7537841796875,0.0,0.0,-4.990113735198975,0.0,0.0,-3.033944850644274e-06
2026-06-27T14:49:13.895504,1782582385.5444293,0.0,0.0,-68.29266357421875,0.0,0.0,-4.990113258361816,0.0,0.0,-3.0823682613363698e-06
2026-06-27T14:49:14.004180,1782582385.6524317,0.0,0.0,-68.83154296875,0.0,0.0,-4.990111351013184,0.0,0.0,-3.1307916720284654e-06
2026-06-27T14:49:14.113309,1782582385.760434,0.0,0.0,-69.37042236328125,0.0,0.0,-4.990109920501709,0.0,0.0,-3.179215082720561e-06
2026-06-27T14:49:14.223020,1782582385.8684363,0.0,0.0,-69.9093017578125,0.0,0.0,-4.990109443664551,0.0,0.0,-3.2276384934126562e-06
2026-06-27T14:49:14.330917,1782582385.9764385,0.0,0.0,-70.44818115234375,0.0,0.0,-4.990108489990234,0.0,0.0,-3.2760619041047527e-06
2026-06-27T14:49:14.440123,1782582386.0814407,0.0,0.0,-70.97209167480469,0.0,0.0,-4.99010705947876,0.0,0.0,-3.323140220055401e-06
2026-06-27T14:49:14.548796,1782582386.189443,0.0,0.0,-71.51097106933594,0.0,0.0,-4.990106105804443,0.0,0.0,-3.3715636307474964e-06
2026-06-27T14:49:14.657486,1782582386.2974453,0.0,0.0,-72.04985046386719,0.0,0.0,-4.990105152130127,0.0,0.0,-3.4199868378840926e-06
2026-06-27T14:49:14.766500,1782582386.4054477,0.0,0.0,-72.58872985839844,0.0,0.0,-4.9901041984558105,0.0,0.0,-3.468410248576188e-06
2026-06-27T14:49:14.875870,1782582386.51345,0.0,0.0,-73.12760925292969,0.0,0.0,-4.990103721618652,0.0,0.0,-3.5168336592682835e-06
2026-06-27T14:49:14.984613,1782582386.6214523,0.0,0.0,-73.66648864746094,0.0,0.0,-4.990102767944336,0.0,0.0,-3.565257069960379e-06
2026-06-27T14:49:15.093350,1782582386.7294545,0.0,0.0,-74.20536804199219,0.0,0.0,-4.990100860595703,0.0,0.0,-3.6136804806524747e-06
2026-06-27T14:49:15.202568,1782582386.837457,0.0,0.0,-74.74424743652344,0.0,0.0,-4.99009895324707,0.0,0.0,-3.6621038913445703e-06
2026-06-27T14:49:15.311159,1782582386.942459,0.0,0.0,-75.26815795898438,0.0,0.0,-4.990098476409912,0.0,0.0,-3.709182207295219e-06
2026-06-27T14:49:15.419872,1782582387.0504615,0.0,0.0,-75.80703735351562,0.0,0.0,-4.990097522735596,0.0,0.0,-3.7576056179873145e-06
2026-06-27T14:49:15.529089,1782582387.1584637,0.0,0.0,-76.34591674804688,0.0,0.0,-4.990096569061279,0.0,0.0,-3.806029028679411e-06
2026-06-27T14:49:15.638408,1782582387.2664661,0.0,0.0,-76.88479614257812,0.0,0.0,-4.990095138549805,0.0,0.0,-3.854452439371506e-06
2026-06-27T14:49:15.746867,1782582387.3714683,0.0,0.0,-77.40870666503906,0.0,0.0,-4.9900946617126465,0.0,0.0,-3.901530755322155e-06
2026-06-27T14:49:15.855136,1782582387.4794705,0.0,0.0,-77.94758605957031,0.0,0.0,-4.99009370803833,0.0,0.0,-3.949954166014251e-06
2026-06-27T14:49:15.964839,1782582387.587473,0.0,0.0,-78.48646545410156,0.0,0.0,-4.990092754364014,0.0,0.0,-3.998377576706346e-06
2026-06-27T14:49:16.074020,1782582387.695475,0.0,0.0,-79.02534484863281,0.0,0.0,-4.990091800689697,0.0,0.0,-4.046800987398442e-06
2026-06-27T14:49:16.183708,1782582387.8034775,0.0,0.0,-79.56422424316406,0.0,0.0,-4.990089416503906,0.0,0.0,-4.095224398090538e-06
2026-06-27T14:49:16.292336,1782582387.9114797,0.0,0.0,-80.10310363769531,0.0,0.0,-4.990088939666748,0.0,0.0,-4.143647808782633e-06
2026-06-27T14:49:16.401522,1782582388.0194821,0.0,0.0,-80.64198303222656,0.0,0.0,-4.990087985992432,0.0,0.0,-4.192071219474729e-06
2026-06-27T14:49:16.509210,1782582388.1274843,0.0,0.0,-81.18086242675781,0.0,0.0,-4.990086078643799,0.0,0.0,-4.2404946301668245e-06
2026-06-27T14:49:16.618904,1782582388.2354867,0.0,0.0,-81.71974182128906,0.0,0.0,-4.990086078643799,0.0,0.0,-4.28891804085892e-06
2026-06-27T14:49:16.728451,1782582388.340489,0.0,0.0,-82.24365234375,0.0,0.0,-4.990084171295166,0.0,0.0,-4.335996356809569e-06
2026-06-27T14:49:16.836648,1782582388.4454913,0.0,0.0,-82.76756286621094,0.0,0.0,-4.990084171295166,0.0,0.0,-4.383074672760217e-06
2026-06-27T14:49:16.947486,1782582388.5534935,0.0,0.0,-83.30644226074219,0.0,0.0,-4.99008321762085,0.0,0.0,-4.431498083452313e-06
2026-06-27T14:49:17.056530,1782582388.6554956,0.0,0.0,-83.81538391113281,0.0,0.0,-4.990082263946533,0.0,0.0,-4.477231304661514e-06
2026-06-27T14:49:17.164225,1782582388.763498,0.0,0.0,-84.35426330566406,0.0,0.0,-4.990081310272217,0.0,0.0,-4.52565471535361e-06
2026-06-27T14:49:17.273450,1782582388.8715003,0.0,0.0,-84.89314270019531,0.0,0.0,-4.990079879760742,0.0,0.0,-4.574078126045706e-06
2026-06-27T14:49:17.382623,1782582388.9795027,0.0,0.0,-85.43202209472656,0.0,0.0,-4.990078926086426,0.0,0.0,-4.622501536737801e-06
2026-06-27T14:49:17.492369,1782582389.0875049,0.0,0.0,-85.97090148925781,0.0,0.0,-4.990077972412109,0.0,0.0,-4.670924947429898e-06
2026-06-27T14:49:17.600051,1782582389.189507,0.0,0.0,-86.47984313964844,0.0,0.0,-4.990077018737793,0.0,0.0,-4.716658168639099e-06
2026-06-27T14:49:17.709048,1782582389.2975094,0.0,0.0,-87.01872253417969,0.0,0.0,-4.990076065063477,0.0,0.0,-4.765081579331195e-06
2026-06-27T14:49:17.818215,1782582389.4055116,0.0,0.0,-87.55760192871094,0.0,0.0,-4.99007511138916,0.0,0.0,-4.81350499002329e-06
2026-06-27T14:49:17.927409,1782582389.513514,0.0,0.0,-88.09648132324219,0.0,0.0,-4.990074157714844,0.0,0.0,-4.861928400715386e-06
2026-06-27T14:49:18.035093,1782582389.6215162,0.0,0.0,-88.63536071777344,0.0,0.0,-4.990072250366211,0.0,0.0,-4.910351811407482e-06
2026-06-27T14:49:18.144344,1782582389.7295187,0.0,0.0,-89.17424011230469,0.0,0.0,-4.990072250366211,0.0,0.0,-4.958775222099578e-06
2026-06-27T14:49:18.253518,1782582389.8375208,0.0,0.0,-89.71311950683594,0.0,0.0,-4.9900712966918945,0.0,0.0,-5.007198632791674e-06
2026-06-27T14:49:18.363241,1782582389.9455233,0.0,0.0,-90.25199890136719,0.0,0.0,-4.99006986618042,0.0,0.0,-5.055622043483769e-06
2026-06-27T14:49:18.471478,1782582390.0535254,0.0,0.0,-90.79087829589844,0.0,0.0,-4.990068435668945,0.0,0.0,-5.104045454175865e-06
2026-06-27T14:49:18.579237,1782582390.1585279,0.0,0.0,-91.31478881835938,0.0,0.0,-4.990067481994629,0.0,0.0,-5.151123770126513e-06
2026-06-27T14:49:18.688850,1782582390.26653,0.0,0.0,-91.85366821289062,0.0,0.0,-4.9900665283203125,0.0,0.0,-5.199547180818609e-06
2026-06-27T14:49:18.797504,1782582390.3745325,0.0,0.0,-92.39254760742188,0.0,0.0,-4.99006462097168,0.0,0.0,-5.247970591510705e-06
2026-06-27T14:49:18.906339,1782582390.4825346,0.0,0.0,-92.93142700195312,0.0,0.0,-4.99006462097168,0.0,0.0,-5.296394002202801e-06
2026-06-27T14:49:19.014763,1782582390.590537,0.0,0.0,-93.47030639648438,0.0,0.0,-4.990063190460205,0.0,0.0,-5.344817412894896e-06
2026-06-27T14:49:19.123347,1782582390.6955392,0.0,0.0,-93.99421691894531,0.0,0.0,-4.990062713623047,0.0,0.0,-5.391895728845546e-06
2026-06-27T14:49:19.233049,1782582390.8035414,0.0,0.0,-94.53309631347656,0.0,0.0,-4.990061283111572,0.0,0.0,-5.440319139537642e-06
2026-06-27T14:49:19.341246,1782582390.9115438,0.0,0.0,-95.07197570800781,0.0,0.0,-4.990060329437256,0.0,0.0,-5.4887425502297366e-06
2026-06-27T14:49:19.451015,1782582391.019546,0.0,0.0,-95.61085510253906,0.0,0.0,-4.9900593757629395,0.0,0.0,-5.537165960921832e-06
2026-06-27T14:49:19.559012,1782582391.1245484,0.0,0.0,-96.134765625,0.0,0.0,-4.990058898925781,0.0,0.0,-5.584244276872481e-06
2026-06-27T14:49:19.666924,1782582391.2295506,0.0,0.0,-96.65867614746094,0.0,0.0,-4.990057468414307,0.0,0.0,-5.631322592823129e-06
2026-06-27T14:49:19.775955,1782582391.3375528,0.0,0.0,-97.19755554199219,0.0,0.0,-4.99005651473999,0.0,0.0,-5.679746003515225e-06
2026-06-27T14:49:19.884192,1782582391.4425552,0.0,0.0,-97.72146606445312,0.0,0.0,-4.990055084228516,0.0,0.0,-5.726824319465875e-06
2026-06-27T14:49:19.993408,1782582391.5535574,0.0,0.0,-98.27531433105469,0.0,0.0,-4.990054130554199,0.0,0.0,-5.776592824899417e-06
2026-06-27T14:49:20.102082,1782582391.6615598,0.0,0.0,-98.81419372558594,0.0,0.0,-4.990053176879883,0.0,0.0,-5.8250162355915134e-06
2026-06-27T14:49:20.211657,1782582391.766562,0.0,0.0,-99.33810424804688,0.0,0.0,-4.990052223205566,0.0,0.0,-5.8720945515421615e-06
2026-06-27T14:49:20.321220,1782582391.8745644,0.0,0.0,-99.87698364257812,0.0,0.0,-4.990050792694092,0.0,0.0,-5.920517962234258e-06
2026-06-27T14:49:20.428912,1782582391.9825666,9.198583938996308e-07,-1.6028963045755518e-06,-100.40933227539062,7.15540736564435e-05,-0.00012320322275627404,-4.791921138763428,-0.06321638920615057,-0.03860743702984723,-0.6810008764418588
2026-06-27T14:49:20.539022,1782582392.090569,9.051362576428801e-05,-0.00014699606981594115,-100.91588592529297,0.0022642146795988083,-0.0036311259027570486,-4.612059593200684,-0.42270736074274445,-0.31827407947094183,-4.697175637449346
2026-06-27T14:49:20.647278,1782582392.1985712,0.0006940423045307398,-0.0011045997962355614,-101.40998840332031,0.010075284168124199,-0.015911610797047615,-4.557182788848877,-0.8396326532295226,-0.8178726070019787,-11.680736459903546
2026-06-27T14:49:20.756112,1782582392.3035736,0.002475220011547208,-0.003905072109773755,-101.89008331298828,0.02521306276321411,-0.03952596336603165,-4.601634979248047,-1.1019608864690291,-1.4891297522561386,-20.738495783535182
2026-06-27T14:49:20.864390,1782582392.4115758,0.006437348667532206,-0.010095415636897087,-102.39310455322266,0.049727268517017365,-0.07749123126268387,-4.724362373352051,-1.0894062767306072,-2.315247209297386,-31.8509812432912
2026-06-27T14:49:20.973199,1782582392.5195782,0.013632524758577347,-0.021273573860526085,-102.91513061523438,0.08538877964019775,-0.13232438266277313,-4.9584832191467285,-0.7201222554754108,-3.1828286099447483,-44.11492864640866
2026-06-27T14:49:21.082749,1782582392.6275804,0.024806085973978043,-0.038550276309251785,-103.45225524902344,0.12115123867988586,-0.18699166178703308,-4.941185474395752,-0.09354392218324448,-3.9871342001789905,-55.396542921115085
2026-06-27T14:49:21.191979,1782582392.7325826,0.03938494250178337,-0.06101347133517265,-103.96308135986328,0.1570676863193512,-0.24163658916950226,-4.777158737182617,0.5872674224597803,-4.661164056477378,-63.80415569464987
2026-06-27T14:49:21.300683,1782582392.840585,0.05854007229208946,-0.09043000638484955,-104.46809387207031,0.19871628284454346,-0.30465155839920044,-4.575998306274414,1.19084971104292,-5.260730606981727,-69.22701901812621
2026-06-27T14:49:21.407861,1782582392.9455872,0.08185635507106781,-0.1261080652475357,-104.93976593017578,0.24693922698497772,-0.37717142701148987,-4.419847011566162,1.5477578886809904,-5.807437956522085,-71.2538760097297
2026-06-27T14:49:21.517052,1782582393.0535896,0.11170344799757004,-0.17160063982009888,-105.41265106201172,0.3080459237098694,-0.4686013460159302,-4.358653545379639,1.5997677396327006,-6.37985127334401,-70.29890550698897
2026-06-27T14:49:21.626739,1782582393.1615918,0.14896294474601746,-0.22816312313079834,-105.8868179321289,0.38491809368133545,-0.5832417011260986,-4.451733589172363,1.3317836620987793,-6.972896822049979,-66.96943128863586
2026-06-27T14:49:21.734651,1782582393.2695942,0.1955602765083313,-0.29863807559013367,-106.38119506835938,0.4813368022441864,-0.7268058657646179,-4.734236717224121,0.8285610284080289,-7.565671248734063,-62.375573980279576
2026-06-27T14:49:21.843385,1782582393.3775964,0.2525375187397003,-0.38456448912620544,-106.9009780883789,0.5694491267204285,-0.8579466342926025,-4.821151256561279,0.24747286595370144,-8.166352742039912,-57.84562326958267
2026-06-27T14:49:21.952650,1782582393.4855988,0.31831228733062744,-0.48358502984046936,-107.41668701171875,0.6487816572189331,-0.9760432839393616,-4.71941614151001,-0.2595193693039688,-8.791457811457576,-54.41802085235411
2026-06-27T14:49:22.061363,1782582393.593601,0.39280277490615845,-0.5955845713615417,-107.91935729980469,0.7313005924224854,-1.098978877067566,-4.585463047027588,-0.5896306873687049,-9.433160308923938,-52.54579713206236
2026-06-27T14:49:22.169028,1782582393.7016034,0.47642481327056885,-0.7211954593658447,-108.40646362304688,0.8178650140762329,-1.2280852794647217,-4.431331634521484,-0.7013965798038027,-10.08730961573964,-52.16910465670218
2026-06-27T14:49:22.278720,1782582393.8126056,0.5723142623901367,-0.8651365637779236,-108.88845825195312,0.9103990197181702,-1.3662607669830322,-4.248589515686035,-0.6117808221446924,-10.7642282110459,-52.92526791019187
2026-06-27T14:49:22.387805,1782582393.920608,0.6756169199943542,-1.020135521888733,-109.33639526367188,1.002899169921875,-1.504537582397461,-4.0414323806762695,-0.3946192260108951,-11.421847200376694,-54.23350404589714
2026-06-27T14:49:22.496484,1782582394.0286102,0.7889853715896606,-1.1901886463165283,-109.76005554199219,1.096447467803955,-1.6445095539093018,-3.796534299850464,-0.13436805830770585,-12.087571108909634,-55.609995003587585
2026-06-27T14:49:22.605465,1782582394.1336126,0.9053056240081787,-1.364640474319458,-110.1335678100586,1.1835801601409912,-1.7749767303466797,-3.514946222305298,0.08422279357708176,-12.76015333940434,-56.65536943740126
2026-06-27T14:49:22.714177,1782582394.2386148,1.037895917892456,-1.5634740591049194,-110.49344635009766,1.2695523500442505,-1.9037773609161377,-3.12563419342041,0.2427953207524848,-13.616558818750228,-57.325947955006065
2026-06-27T14:49:22.823919,1782582394.346617,1.1788803339004517,-1.7748857736587524,-110.80233764648438,1.3369536399841309,-2.0047876834869385,-2.5570602416992188,0.3130527670329579,-14.805630989353793,-57.53529960760732
2026-06-27T14:49:22.932448,1782582394.4516194,1.3237242698669434,-1.992081642150879,-111.04682922363281,1.436432123184204,-2.153972864151001,-2.192171096801758,0.28215838240196617,-15.404743104890368,-57.38481622949343
2026-06-27T14:49:23.041149,1782582394.5566216,1.4815791845321655,-2.2287940979003906,-111.26982116699219,1.570232629776001,-2.3547167778015137,-2.061110496520996,0.17926446404063442,-14.839868390897156,-57.02783256020483
2026-06-27T14:49:23.149894,1782582394.664624,1.6583067178726196,-2.493820905685425,-111.48572540283203,1.700504183769226,-2.550198793411255,-1.9372045993804932,0.06620526466636163,-13.696617585027093,-56.60648046527563
2026-06-27T14:49:23.258490,1782582394.7726262,1.8484610319137573,-2.778996467590332,-111.68846130371094,1.8187458515167236,-2.727642297744751,-1.8189334869384766,-0.014708724094172922,-12.339380948715656,-56.252000174864776
2026-06-27T14:49:23.367711,1782582394.8806286,2.050722599029541,-3.082341432571411,-111.87911224365234,1.9247440099716187,-2.88671612739563,-1.714005708694458,-0.05404855631628664,-10.960607597886696,-56.02788799230617
2026-06-27T14:49:23.476393,1782582394.9856308,2.2577321529388428,-3.3928158283233643,-112.05435943603516,2.016371726989746,-3.0242180824279785,-1.6271469593048096,-0.06036109310540918,-9.691825853757212,-55.944514617758784
2026-06-27T14:49:23.586663,1782582395.090633,2.473795175552368,-3.716876268386841,-112.22127532958984,2.097287893295288,-3.1456282138824463,-1.5542538166046143,-0.048287339795602985,-8.534676330538629,-55.96925686613285
2026-06-27T14:49:23.694760,1782582395.1956353,2.6978256702423096,-4.052890777587891,-112.38119506835938,2.1682989597320557,-3.252146005630493,-1.4936926364898682,-0.02956108088492583,-7.502617386208099,-56.061169377719665
2026-06-27T14:49:23.803478,1782582395.2976375,2.9221415519714355,-4.389331817626953,-112.53095245361328,2.2286183834075928,-3.3425893783569336,-1.4441636800765991,-0.012457955381737561,-6.619485722688148,-56.17449765368149
2026-06-27T14:49:23.913669,1782582395.4056396,3.165910243988037,-4.754944324493408,-112.68445587158203,2.284165382385254,-3.4258358478546143,-1.399681806564331,0.0005621986310558557,-5.805074811792319,-56.28504082305545
2026-06-27T14:49:24.020926,1782582395.5106418,3.4082651138305664,-5.118429183959961,-112.82942199707031,2.3309123516082764,-3.4958581924438477,-1.3624823093414307,0.007414823042424273,-5.121424733135478,-56.36176992549426
2026-06-27T14:49:24.131131,1782582395.6156442,3.655193567276001,-5.488761901855469,-112.97073364257812,2.371397018432617,-3.556478500366211,-1.3298794031143188,0.009541466810486437,-4.532423247065149,-56.400652078826326
2026-06-27T14:49:24.239276,1782582395.7206464,3.906078815460205,-5.865019798278809,-113.10881042480469,2.4064297676086426,-3.608924627304077,-1.3007985353469849,0.008600991566750421,-4.026435656840675,-56.40518884162074
2026-06-27T14:49:24.347473,1782582395.8226485,4.153079986572266,-6.235443115234375,-113.24015045166016,2.435925245285034,-3.6530814170837402,-1.274908423423767,0.006276948529279442,-3.604472252268908,-56.38620224993522
2026-06-27T14:49:24.457526,1782582395.930651,4.417660236358643,-6.6322245597839355,-113.37647247314453,2.462966203689575,-3.693575382232666,-1.249911904335022,0.0035368093824535386,-3.221824203105838,-56.35354942688138
2026-06-27T14:49:24.565672,1782582396.035653,4.677498817443848,-7.021888256072998,-113.50650024414062,2.4856858253479004,-3.7276148796081543,-1.2271103858947754,0.0013212879173925018,-2.904376770326604,-56.32060252884449
2026-06-27T14:49:24.674433,1782582396.1406553,4.939561367034912,-7.414883613586426,-113.63420104980469,2.5053913593292236,-3.757153272628784,-1.205518364906311,-0.00015607611291593203,-2.633128261067119,-56.294307336663024
2026-06-27T14:49:24.783634,1782582396.2456577,5.203554153442383,-7.81077241897583,-113.75968933105469,2.5225143432617188,-3.782832622528076,-1.1848905086517334,-0.0009062474877742292,-2.401357484139313,-56.27840678152689
2026-06-27T14:49:24.893900,1782582396.3476598,5.461612701416016,-8.197762489318848,-113.87956237792969,2.5370254516601562,-3.8046021461486816,-1.1654659509658813,-0.0010889054011397141,-2.2087122805567043,-56.27318589934399
2026-06-27T14:49:25.004130,1782582396.452662,5.728707313537598,-8.598305702209473,-114.00093078613281,2.5500993728637695,-3.8242194652557373,-1.1463295221328735,-0.0009290645129509579,-2.038724528850193,-56.27618012778901
2026-06-27T14:49:25.110835,1782582396.5576642,5.997087001800537,-9.00078010559082,-114.12030029296875,2.5615439414978027,-3.841390609741211,-1.1275323629379272,-0.0006150880720924126,-1.8936296386477525,-56.28431764231977
2026-06-27T14:49:25.218861,1782582396.6596665,6.258879661560059,-9.393373489379883,-114.23440551757812,2.571326732635498,-3.856067657470703,-1.109694480895996,-0.0003003327977593829,-1.7728323465063922,-56.29388283089538
2026-06-27T14:49:25.328031,1782582396.7646687,6.529351711273193,-9.79898452758789,-114.3499755859375,2.5802199840545654,-3.8694069385528564,-1.0917131900787354,-5.4038138271707554e-05,-1.6662778535427605,-56.302764440773885
2026-06-27T14:49:25.436763,1782582396.8696709,6.800701141357422,-10.205913543701172,-114.46367645263672,2.588085412979126,-3.8812026977539062,-1.0740389823913574,8.053390502312388e-05,-1.5750923320535757,-56.309016693559585
2026-06-27T14:49:25.545983,1782582396.9746733,7.072829723358154,-10.614009857177734,-114.5755615234375,2.5950706005096436,-3.891676664352417,-1.0566792488098145,0.00010743850211873309,-1.4970180825371722,-56.31212900693563
2026-06-27T14:49:25.654813,1782582397.0766754,7.337846755981445,-11.011442184448242,-114.68248748779297,2.6011271476745605,-3.9007608890533447,-1.039887547492981,5.7356998653581547e-05,-1.4320566490780464,-56.31244246198204
2026-06-27T14:49:25.763027,1782582397.1846776,7.619088172912598,-11.433208465576172,-114.79386138916016,2.6068737506866455,-3.9093806743621826,-1.0225712060928345,-4.274203440558537e-05,-1.3729081874782956,-56.310749410226144
2026-06-27T14:49:25.872893,1782582397.2896798,7.8930840492248535,-11.844104766845703,-114.9003677368164,2.611888885498047,-3.9169063568115234,-1.0058637857437134,-0.00015462253263655147,-1.3236522295621453,-56.3081679112415
2026-06-27T14:49:25.980069,1782582397.3916821,8.159730911254883,-12.24398136138916,-115.00215148925781,2.6162972450256348,-3.9235243797302246,-0.989846408367157,-0.0002545369330767138,-1.2823790289012071,-56.30559501756826
2026-06-27T14:49:26.088752,1782582397.4936843,8.426806449890137,-12.644501686096191,-115.10230255126953,2.6203086376190186,-3.9295501708984375,-0.9739311933517456,-0.0003328657510464833,-1.2467463174020115,-56.30356059168837
2026-06-27T14:49:26.197434,1782582397.5986865,8.70214557647705,-13.057416915893555,-115.20372772216797,2.6240804195404053,-3.9352176189422607,-0.9577528238296509,-0.0003836490053420362,-1.2150345045609026,-56.302316750295375
2026-06-27T14:49:26.305842,1782582397.7036886,8.977864265441895,-13.470901489257812,-115.30345153808594,2.6275370121002197,-3.940412759780884,-0.9417482018470764,-0.0004070744401231232,-1.1876103271104068,-56.301964517629564
2026-06-27T14:49:26.414493,1782582397.811691,9.261823654174805,-13.896744728088379,-115.40428161621094,2.6308066844940186,-3.9453296661376953,-0.925453782081604,-0.000418095805314898,-1.163212603305459,-56.30232582965654
2026-06-27T14:49:26.524681,1782582397.9136932,9.530319213867188,-14.299397468566895,-115.4979019165039,2.633662462234497,-3.9496264457702637,-0.9102323651313782,-0.00041764206394652226,-1.143181738163776,-56.30309599763951
2026-06-27T14:49:26.632400,1782582398.0186954,9.807004928588867,-14.714335441589355,-115.59265899658203,2.6363964080810547,-3.953740358352661,-0.8947135210037231,-0.0003998922494278058,-1.1251756101290271,-56.30399844594835
2026-06-27T14:49:26.742104,1782582398.1236978,10.083967208862305,-15.129692077636719,-115.68579864501953,2.638946771621704,-3.9575788974761963,-0.8793544173240662,-0.0003957073003810891,-1.109398537931293,-56.30481403507907
2026-06-27T14:49:26.848911,1782582398.2257,10.353265762329102,-15.533555030822754,-115.77473449707031,2.641270637512207,-3.9610755443573,-0.8645926117897034,-0.00039097318630672577,-1.0959815100935462,-56.305441770939936
2026-06-27T14:49:26.960170,1782582398.333702,10.638652801513672,-15.96155071258545,-115.8672866821289,2.6435837745666504,-3.9645564556121826,-0.8490903377532959,-0.00039357922889228443,-1.0834364491942827,-56.305769556060206
2026-06-27T14:49:27.067891,1782582398.4387045,10.91634750366211,-16.37801170349121,-115.95565032958984,2.6457035541534424,-3.9677467346191406,-0.8341876864433289,-0.0004000996405798258,-1.0726563710441253,-56.30590119295126
2026-06-27T14:49:27.177295,1782582398.5437067,11.194257736206055,-16.79479217529297,-116.0424575805664,2.647710084915161,-3.9707674980163574,-0.8194470405578613,-0.0003993868529791326,-1.0630795155052375,-56.305865063356705
2026-06-27T14:49:27.285527,1782582398.6487088,11.472373962402344,-17.211885452270508,-116.12775421142578,2.6496143341064453,-3.9736359119415283,-0.804857075214386,-0.0004131098189047391,-1.0545141900132518,-56.30564798067729
2026-06-27T14:49:27.394234,1782582398.753711,11.750685691833496,-17.629270553588867,-116.21150970458984,2.651426076889038,-3.9763662815093994,-0.7904152870178223,-0.00042586088102794463,-1.0468339934030448,-56.30546326334788
2026-06-27T14:49:27.503032,1782582398.8557134,12.021224021911621,-18.034997940063477,-116.29142761230469,2.6531076431274414,-3.9788997173309326,-0.7765589356422424,-0.00042708411655505634,-1.04005574089206,-56.30545668973159
2026-06-27T14:49:27.612793,1782582398.9637156,12.30785846710205,-18.464866638183594,-116.37451934814453,2.654808521270752,-3.9814648628234863,-0.7620129585266113,-0.0004373526772682074,-1.0335169733325746,-56.30545651620997
2026-06-27T14:49:27.721499,1782582399.0687177,12.586703300476074,-18.883056640625,-116.45379638671875,2.656391143798828,-3.9838526248931885,-0.7480356693267822,-0.000447578780937564,-1.0277763948995764,-56.30556145136183
2026-06-27T14:49:27.830210,1782582399.1737201,12.86571216583252,-19.301490783691406,-116.53162384033203,2.657909631729126,-3.9861443042755127,-0.7342320084571838,-0.00044943939093667864,-1.022460929871468,-56.30566806718494
2026-06-27T14:49:27.940414,1782582399.2757223,13.136898040771484,-19.70819664001465,-116.6058349609375,2.659327745437622,-3.9882853031158447,-0.7209839820861816,-0.0004471433413520057,-1.017689350062481,-56.30576844930259
2026-06-27T14:49:28.048678,1782582399.3777244,13.408226013183594,-20.115116119384766,-116.67870330810547,2.660693883895874,-3.990347385406494,-0.7078911662101746,-0.00044759973792937344,-1.0132485758046232,-56.30587140428372
2026-06-27T14:49:28.156921,1782582399.4767265,13.671704292297363,-20.510263442993164,-116.74816131591797,2.6619725227355957,-3.9922783374786377,-0.6953020691871643,-0.0004457081787094401,-1.0092210117335492,-56.305973196977064
2026-06-27T14:49:28.265656,1782582399.5847287,13.951286315917969,-20.9295654296875,-116.82046508789062,2.663280963897705,-3.9942550659179688,-0.6821165680885315,-0.0004436097725964699,-1.0051793441557109,-56.306077570267426
2026-06-27T14:49:28.374366,1782582399.686731,14.231002807617188,-21.349071502685547,-116.89140319824219,2.664543390274048,-3.9961624145507812,-0.6691107153892517,-0.0004419675014268214,-1.001345409397041,-56.30618356744047
2026-06-27T14:49:28.483621,1782582399.7917333,14.510848999023438,-21.768775939941406,-116.96098327636719,2.6657605171203613,-3.998002052307129,-0.6562181115150452,-0.0004360899517092865,-0.9977643927022602,-56.30629153921254
2026-06-27T14:49:28.592526,1782582399.8967354,14.790821075439453,-22.188669204711914,-117.02922821044922,2.6669371128082275,-3.9997808933258057,-0.6435251832008362,-0.0004198636202400754,-0.994344041325012,-56.30639471305443
2026-06-27T14:49:28.701523,1782582400.0047379,15.078920364379883,-22.620752334594727,-117.09803009033203,2.6681063175201416,-4.001547813415527,-0.6306489109992981,-0.00041959432373291176,-0.9909794025176367,-56.306496445755094
2026-06-27T14:49:28.810229,1782582400.10974,15.359135627746582,-23.0410099029541,-117.1635971069336,2.669203996658325,-4.003207206726074,-0.6182854175567627,-0.00041809379986327774,-0.9878493003691833,-56.30661401982132
2026-06-27T14:49:28.918906,1782582400.2147422,15.639463424682617,-23.461441040039062,-117.22787475585938,2.6702651977539062,-4.004811763763428,-0.6060878038406372,-0.000416431151650631,-0.9848420936995221,-56.30672026518838
2026-06-27T14:49:29.029007,1782582400.3197446,15.919900894165039,-23.882034301757812,-117.29087829589844,2.6712915897369385,-4.006363868713379,-0.5940567851066589,-0.0004147873906359321,-0.9819419050144294,-56.306821198849526
2026-06-27T14:49:29.136695,1782582400.4217467,16.192426681518555,-24.290769577026367,-117.35088348388672,2.672255754470825,-4.007822036743164,-0.582514762878418,-0.0004007230455118522,-0.9792196545410392,-56.306925351881816
2026-06-27T14:49:29.245581,1782582400.5237489,16.465049743652344,-24.699649810791016,-117.40972137451172,2.673189163208008,-4.00923490524292,-0.5711703896522522,-0.0003938901665656335,-0.9765502050742946,-56.30692923649463
2026-06-27T14:49:29.354312,1782582400.625751,16.737770080566406,-25.10866928100586,-117.46739959716797,2.6740918159484863,-4.010601997375488,-0.5599004626274109,-0.00039328396524460817,-0.974018611397014,-56.30692360241289
2026-06-27T14:49:29.463020,1782582400.7307532,17.018598556518555,-25.529861450195312,-117.52559661865234,2.6749916076660156,-4.011964797973633,-0.548526406288147,-0.00039245173908147976,-0.9714580191104739,-56.30701945811241
2026-06-27T14:49:29.573286,1782582400.8327556,17.291501998901367,-25.93915557861328,-117.58100128173828,2.675837516784668,-4.013244152069092,-0.5376428365707397,-0.0003830573541419921,-0.9690256443504143,-56.307113535938136
2026-06-27T14:49:29.681137,1782582400.9377577,17.5725154876709,-26.36062240600586,-117.6368637084961,2.6766793727874756,-4.014519214630127,-0.526595413684845,-0.0003698995156625939,-0.9666216091011528,-56.307218378538565
2026-06-27T14:49:29.789344,1782582401.0367599,17.837547302246094,-26.758129119873047,-117.68849182128906,2.6774473190307617,-4.015682697296143,-0.5163643956184387,-0.0003660671282500892,-0.964403843755288,-56.30731244373249
2026-06-27T14:49:29.899046,1782582401.141762,18.11872673034668,-27.17984962463379,-117.74214172363281,2.6782352924346924,-4.016877174377441,-0.5056467652320862,-0.0003658696777499492,-0.9621126438562044,-56.30730870711794
2026-06-27T14:49:30.007902,1782582401.2437642,18.39195442199707,-27.589637756347656,-117.7931900024414,2.678975820541382,-4.017999172210693,-0.49537646770477295,-0.0003539340304884894,-0.9599583073916068,-56.307332947947565
2026-06-27T14:49:30.117704,1782582401.3457663,18.665254592895508,-27.999534606933594,-117.84320831298828,2.679691791534424,-4.0190863609313965,-0.485288143157959,-0.0003380865349967074,-0.9578300822591598,-56.30744167464495
2026-06-27T14:49:30.225711,1782582401.4507687,18.946666717529297,-28.421606063842773,-117.89362335205078,2.6804049015045166,-4.020165920257568,-0.47507044672966003,-0.00033804984944638843,-0.955688733001319,-56.30754842298906
2026-06-27T14:49:30.335913,1782582401.558771,19.236194610595703,-28.855854034423828,-117.94437408447266,2.68111252784729,-4.021238803863525,-0.46473485231399536,-0.00033323769108098764,-0.9535438429950814,-56.307615276587185
2026-06-27T14:49:30.445681,1782582401.660773,19.509706497192383,-29.266075134277344,-117.99127960205078,2.681757688522339,-4.022216320037842,-0.4551151990890503,-0.00032534098845091934,-0.9515812447084572,-56.30761405292968
2026-06-27T14:49:30.553922,1782582401.7597752,19.775236129760742,-29.66433334350586,-118.03588104248047,2.6823627948760986,-4.023133277893066,-0.4459105432033539,-0.0003124686534603645,-0.949718838956865,-56.307677855648
2026-06-27T14:49:30.662142,1782582401.8587773,20.04082489013672,-30.062673568725586,-118.07957458496094,2.682948112487793,-4.024021148681641,-0.4368916451931,-0.000311609782473464,-0.9479044459377225,-56.30777214204658
2026-06-27T14:49:30.771327,1782582401.9637797,20.322572708129883,-30.48525619506836,-118.12495422363281,2.6835477352142334,-4.024930000305176,-0.42746683955192566,-0.0003109421364747021,-0.9460312438738004,-56.30778973594582
2026-06-27T14:49:30.879989,1782582402.0687819,20.604381561279297,-30.907928466796875,-118.16936492919922,2.684126853942871,-4.025806903839111,-0.41820934414863586,-0.0003105464824259346,-0.9442012079838217,-56.30781301236514
2026-06-27T14:49:30.988688,1782582402.173784,20.886247634887695,-31.330686569213867,-118.2127914428711,2.684684991836548,-4.026653289794922,-0.40909093618392944,-0.00030673014394943415,-0.9424220828605623,-56.30791020104793
2026-06-27T14:49:31.097841,1782582402.2757862,21.160112380981445,-31.741458892822266,-118.25406646728516,2.6852071285247803,-4.027446269989014,-0.40034452080726624,-0.0003050874171037154,-0.9407655486393848,-56.30801180749066
2026-06-27T14:49:31.207011,1782582402.3837886,21.450151443481445,-32.176475524902344,-118.29681396484375,2.6857423782348633,-4.028257369995117,-0.3913842439651489,-0.00029512362027344155,-0.9390086684814503,-56.30801832309969
2026-06-27T14:49:31.315492,1782582402.4887908,21.732192993164062,-32.5994758605957,-118.33746337890625,2.68624210357666,-4.02901554107666,-0.382774293422699,-0.0002926150654054415,-0.937357110477754,-56.308034996435985
2026-06-27T14:49:31.424264,1782582402.590793,22.006221771240234,-33.010494232177734,-118.3760757446289,2.6867098808288574,-4.029726028442383,-0.37453728914260864,-0.00028435952453957815,-0.9358063726108509,-56.30812950856374
2026-06-27T14:49:31.533484,1782582402.6957953,22.28835105895996,-33.433658599853516,-118.41496276855469,2.687173843383789,-4.030431270599365,-0.3662450313568115,-0.0002838646099360166,-0.9342421750796447,-56.308236162909445
2026-06-27T14:49:31.644086,1782582402.7947974,22.55440902709961,-33.83271408081055,-118.45083618164062,2.6875951290130615,-4.031071186065674,-0.35854649543762207,-0.00028435140424738705,-0.9328134384099137,-56.308238757434445
2026-06-27T14:49:31.752136,1782582402.8997996,22.828575134277344,-34.24392318725586,-118.48700714111328,2.6880133152008057,-4.031708240509033,-0.35074084997177124,-0.00028395280037459025,-0.9313769036707135,-56.308235181544305
2026-06-27T14:49:31.860843,1782582402.9988017,23.102771759033203,-34.65520095825195,-118.52239227294922,2.6884164810180664,-4.032321453094482,-0.34308677911758423,-0.00027323168440103734,-0.9299892692709993,-56.308265838145424
2026-06-27T14:49:31.967839,1782582403.1038039,23.385087966918945,-35.07862854003906,-118.55801391601562,2.688816547393799,-4.032930850982666,-0.33540457487106323,-0.0002634307189375408,-0.9285870506344907,-56.30838421711707
2026-06-27T14:49:32.077055,1782582403.2118063,23.67551040649414,-35.51423645019531,-118.59381103515625,2.689211368560791,-4.033531665802002,-0.3276077210903168,-0.0002455096686736303,-0.9271971363674242,-56.30843312814386
2026-06-27T14:49:32.186324,1782582403.3198085,23.965961456298828,-35.94988250732422,-118.6287841796875,2.689591407775879,-4.034109115600586,-0.31995323300361633,-0.0002461072359191007,-0.9258531371083,-56.30843636384145
2026-06-27T14:49:32.296617,1782582403.4248106,24.24840545654297,-36.3735237121582,-118.66199493408203,2.689945697784424,-4.03464937210083,-0.31261277198791504,-0.0002322220022419073,-0.9246059183941906,-56.308434239282505
2026-06-27T14:49:32.405349,1782582403.529813,24.530860900878906,-36.79716491699219,-118.69444274902344,2.690286874771118,-4.0351691246032715,-0.3055262565612793,-0.0002298375513479368,-0.9233667922776897,-56.30851710239034
2026-06-27T14:49:32.513577,1782582403.6318152,24.80530548095703,-37.20881652832031,-118.72526550292969,2.6906049251556396,-4.035653591156006,-0.2987051010131836,-0.00022657410013034027,-0.9222119078448581,-56.30862665908076
2026-06-27T14:49:32.621363,1782582403.7308173,25.071680068969727,-37.608375549316406,-118.75450897216797,2.6909027099609375,-4.036107063293457,-0.29224422574043274,-0.00021660764448677263,-0.92111265756167,-56.30862552462885
2026-06-27T14:49:32.732605,1782582403.8328195,25.346189498901367,-38.020057678222656,-118.78399658203125,2.6911981105804443,-4.036555767059326,-0.2857130765914917,-0.0002081681395195793,-0.9200168878637656,-56.30862440974803
2026-06-27T14:49:32.839890,1782582403.9378216,25.628772735595703,-38.443965911865234,-118.81364440917969,2.6914896965026855,-4.0370001792907715,-0.27911576628685,-0.000210173542896671,-0.9189293108361996,-56.308623274329186
2026-06-27T14:49:32.947595,1782582404.042824,25.911413192749023,-38.86787414550781,-118.84260559082031,2.691770315170288,-4.0374274253845215,-0.2726513147354126,-0.0002003919822826108,-0.9178748203232364,-56.308649350129606
2026-06-27T14:49:33.056804,1782582404.1448262,26.18598747253418,-39.27968978881836,-118.87010192871094,2.692031145095825,-4.037824630737305,-0.2664608657360077,-0.00020821417896900346,-0.9168937088805387,-56.30876002028669
2026-06-27T14:49:33.166458,1782582404.2468283,26.46059226989746,-39.69161605834961,-118.89698028564453,2.6922826766967773,-4.038208484649658,-0.2604760229587555,-0.0001948575292100412,-0.9159290365922457,-56.308849216611605
2026-06-27T14:49:33.274174,1782582404.3488305,26.735231399536133,-40.10354232788086,-118.92323303222656,2.692523717880249,-4.038576602935791,-0.254497230052948,-0.00018069425267064622,-0.9150197158819069,-56.30884328668538
2026-06-27T14:49:33.382994,1782582404.4538326,27.017948150634766,-40.527584075927734,-118.94965362548828,2.692762851715088,-4.038941860198975,-0.24859847128391266,-0.00017988632851007004,-0.9140723281241051,-56.30884314313725
2026-06-27T14:49:33.491279,1782582404.561835,27.308799743652344,-40.96384048461914,-118.97618103027344,2.6929986476898193,-4.03930139541626,-0.24261264503002167,-0.00018016420573922212,-0.9131460404443293,-56.30884313730934
2026-06-27T14:49:33.600612,1782582404.6638372,27.58350372314453,-41.37589645385742,-119.00064086914062,2.693211555480957,-4.039626121520996,-0.23706094920635223,-0.00017530725541426388,-0.9123058593964755,-56.308843748825446
2026-06-27T14:49:33.708785,1782582404.7688394,27.866287231445312,-41.800071716308594,-119.02523040771484,2.693422317504883,-4.039945602416992,-0.23148635029792786,-0.00017236057303429833,-0.9114645439549601,-56.308915525918806
2026-06-27T14:49:33.817502,1782582404.8768418,28.157215118408203,-42.236366271972656,-119.0499267578125,2.693629503250122,-4.040262699127197,-0.22585979104042053,-0.00016545109909167367,-0.910636278523923,-56.30891010291926
2026-06-27T14:49:33.926704,1782582404.981844,28.431983947753906,-42.648529052734375,-119.07270050048828,2.6938164234161377,-4.0405497550964355,-0.22064277529716492,-0.0001796423523870877,-0.9098837357260469,-56.308997960258374
2026-06-27T14:49:34.034626,1782582405.080846,28.70675277709961,-43.06071472167969,-119.09494018554688,2.6939961910247803,-4.040825366973877,-0.2155354917049408,-0.00016741774599399444,-0.9091545057237371,-56.30908517385413
2026-06-27T14:49:34.143795,1782582405.1828482,28.981557846069336,-43.472900390625,-119.11666870117188,2.69416880607605,-4.041087627410889,-0.21055349707603455,-0.00014111625743390709,-0.908448779701876,-56.30908686608303
2026-06-27T14:49:34.255076,1782582405.2878504,29.264474868774414,-43.89720916748047,-119.13851165771484,2.694338798522949,-4.041347503662109,-0.20553341507911682,-0.00013980385064628204,-0.9077476507297451,-56.309088393970306
2026-06-27T14:49:34.361834,1782582405.3928528,29.547391891479492,-44.32152557373047,-119.15983581542969,2.6945018768310547,-4.041597843170166,-0.20062145590782166,-0.00016060222102548844,-0.9070781484490832,-56.30908381895108
