time,sim_t,x,y,z,vx,vy,vz,roll_deg,pitch_deg,yaw_deg
2026-06-27T15:06:05.503696,1782583370.3274376,0.0,0.0,2.0396859645843506,0.0,0.0,0.0,0.0,0.0,0.0003895640909249624
2026-06-27T15:06:05.616764,1782583370.4354398,0.0,0.0,2.0396859645843506,0.0,0.0,0.0,0.0,0.0,0.0003895640909249624
2026-06-27T15:06:05.726499,1782583370.5464423,0.0,0.0,2.0396859645843506,0.0,0.0,0.0,0.0,0.0,0.0003895640909249624
2026-06-27T15:06:05.836065,1782583370.6514444,0.0,0.0,2.0396859645843506,0.0,0.0,0.0,0.0,0.0,0.0003895640909249624
2026-06-27T15:06:05.942729,1782583370.7594469,0.0,0.0,2.0396859645843506,0.0,0.0,0.0,0.0,0.0,0.0003895640909249624
2026-06-27T15:06:06.052469,1782583370.864449,0.0,0.0,2.0396859645843506,0.0,0.0,0.0,0.0,0.0,0.0003895640909249624
2026-06-27T15:06:06.161744,1782583370.9724512,0.0,0.0,2.0396859645843506,0.0,0.0,0.0,0.0,0.0,0.0003895640909249624
2026-06-27T15:06:06.270492,1782583371.0804536,0.0,0.0,2.0396859645843506,0.0,0.0,0.0,0.0,0.0,0.0003895640909249624
2026-06-27T15:06:06.379457,1782583371.1854558,0.0,0.0,2.0396859645843506,0.0,0.0,0.0,0.0,0.0,0.0003895640909249624
2026-06-27T15:06:06.488132,1782583371.2934582,0.0,0.0,2.0396859645843506,0.0,0.0,0.0,0.0,0.0,0.0003895640909249624
2026-06-27T15:06:06.597302,1782583371.4014604,0.0,0.0,2.0396859645843506,0.0,0.0,0.0,0.0,0.0,0.0003895640909249624
2026-06-27T15:06:06.706007,1782583371.5094628,0.0,0.0,2.0396859645843506,0.0,0.0,0.0,0.0,0.0,0.0003895640909249624
2026-06-27T15:06:06.814628,1782583371.617465,0.0,0.0,2.0396859645843506,0.0,0.0,0.0,0.0,0.0,0.0003895640909249624
2026-06-27T15:06:06.922860,1782583371.7254674,0.0,0.0,2.0396859645843506,0.0,0.0,0.0,0.0,0.0,0.0003895640909249624
2026-06-27T15:06:07.032139,1782583371.8334696,0.0,0.0,2.0368902683258057,0.0,0.0,-0.18093353509902954,0.0,0.0,0.0003895640909249624
2026-06-27T15:06:07.141319,1782583371.941472,0.0,0.0,2.0007095336914062,0.0,0.0,-0.41216111183166504,0.0,0.0,0.0003895640909249624
2026-06-27T15:06:07.251142,1782583372.0494742,0.0,0.0,1.954089879989624,0.0,0.0,-0.44269752502441406,0.0,0.0,0.0003895640909249624
2026-06-27T15:06:07.359843,1782583372.1544766,0.0,0.0,1.9071283340454102,0.0,0.0,-0.45082005858421326,0.0,0.0,0.0003895640909249624
2026-06-27T15:06:07.468645,1782583372.2594788,0.0,0.0,1.8595051765441895,0.0,0.0,-0.45607200264930725,0.0,0.0,0.0003895640909249624
2026-06-27T15:06:07.576889,1782583372.367481,0.0,0.0,1.8099958896636963,0.0,0.0,-0.46064698696136475,0.0,0.0,0.0003895640909249624
2026-06-27T15:06:07.686316,1782583372.4754834,0.0,0.0,1.7600226402282715,0.0,0.0,-0.46468615531921387,0.0,0.0,0.0003895640909249624
2026-06-27T15:06:07.794301,1782583372.5804856,0.0,0.0,1.7110426425933838,0.0,0.0,-0.46817857027053833,0.0,0.0,0.0003895640909249624
2026-06-27T15:06:07.902482,1782583372.685488,0.0,0.0,1.661716103553772,0.0,0.0,-0.4712916314601898,0.0,0.0,0.0003895640909249624
2026-06-27T15:06:08.011709,1782583372.7934902,0.0,0.0,1.6106582880020142,0.0,0.0,-0.4741417467594147,0.0,0.0,0.0003895640909249624
2026-06-27T15:06:08.120963,1782583372.8984923,0.0,0.0,1.5607404708862305,0.0,0.0,-0.4766079783439636,0.0,0.0,0.0003895640909249624
2026-06-27T15:06:08.228651,1782583373.0034947,0.0,0.0,1.5105777978897095,0.0,0.0,-0.4788067042827606,0.0,0.0,0.0003895640909249624
2026-06-27T15:06:08.338110,1782583373.111497,0.0,0.0,1.4587547779083252,0.0,0.0,-0.48081982135772705,0.0,0.0,0.0003895640909249624
2026-06-27T15:06:08.446867,1782583373.2224994,0.0,0.0,1.4052786827087402,0.0,0.0,-0.48265543580055237,0.0,0.0,0.0003895640909249624
2026-06-27T15:06:08.556066,1782583373.3305016,0.0,0.0,1.3530634641647339,0.0,0.0,-0.4842399060726166,0.0,0.0,0.0003895640909249624
2026-06-27T15:06:08.664642,1782583373.438504,0.0,0.0,1.3006874322891235,0.0,0.0,-0.48564791679382324,0.0,0.0,0.0003895640909249624
2026-06-27T15:06:08.773836,1782583373.5465062,0.0,0.0,1.2481675148010254,0.0,0.0,-0.48689913749694824,0.0,0.0,0.0003895640909249624
2026-06-27T15:06:08.882378,1782583373.6545086,0.0,0.0,1.195520043373108,0.0,0.0,-0.48801106214523315,0.0,0.0,0.0003895640909249624
2026-06-27T15:06:08.991104,1782583373.7625108,0.0,0.0,1.1427593231201172,0.0,0.0,-0.4889991581439972,0.0,0.0,0.0003895640909249624
2026-06-27T15:06:09.100433,1782583373.8705132,0.0,0.0,1.089897871017456,0.0,0.0,-0.489877313375473,0.0,0.0,0.0003895640909249624
2026-06-27T15:06:09.209663,1782583373.9755154,0.0,0.0,1.0384188890457153,0.0,0.0,-0.4906371831893921,0.0,0.0,0.0003895640909249624
2026-06-27T15:06:09.318373,1782583374.0805175,0.0,0.0,0.9868648648262024,0.0,0.0,-0.49131470918655396,0.0,0.0,0.0003895640909249624
2026-06-27T15:06:09.426551,1782583374.18852,0.0,0.0,0.9337676167488098,0.0,0.0,-0.4919349253177643,0.0,0.0,0.0003895640909249624
2026-06-27T15:06:09.537235,1782583374.2965221,0.0,0.0,0.8820846676826477,0.0,0.0,-0.49247172474861145,0.0,0.0,0.0003895640909249624
2026-06-27T15:06:09.645237,1782583374.4015245,0.0,0.0,0.8288694024085999,0.0,0.0,-0.4929632842540741,0.0,0.0,0.0003895640909249624
2026-06-27T15:06:09.752867,1782583374.5065267,0.0,0.0,0.7770844101905823,0.0,0.0,-0.4933886229991913,0.0,0.0,0.0003895640909249624
2026-06-27T15:06:09.862038,1782583374.6115289,0.0,0.0,0.7252572774887085,0.0,0.0,-0.4937678575515747,0.0,0.0,0.0003895640909249624
2026-06-27T15:06:09.971762,1782583374.7195313,0.0,0.0,0.6719103455543518,0.0,0.0,-0.49411487579345703,0.0,0.0,0.0003895640909249624
2026-06-27T15:06:10.079872,1782583374.8245335,0.0,0.0,0.6200111508369446,0.0,0.0,-0.49441543221473694,0.0,0.0,0.0003895640909249624
2026-06-27T15:06:10.188466,1782583374.932536,0.0,0.0,0.5665980577468872,0.0,0.0,-0.49469050765037537,0.0,0.0,0.0003895640909249624
2026-06-27T15:06:10.297732,1782583375.037538,0.0,0.0,0.5162025690078735,0.0,0.0,-0.37361907958984375,0.0,0.0,0.0003895640909249624
2026-06-27T15:06:10.408092,1782583375.1455402,0.0,0.0,0.49977484345436096,0.0,0.0,-0.014341076835989952,0.0,0.0,0.0003895640909249624
2026-06-27T15:06:10.516284,1782583375.2505426,0.0,0.0,0.4931804835796356,0.0,0.0,-0.3057386577129364,0.0,0.0,0.0003786151313067609
2026-06-27T15:06:10.625380,1782583375.3585448,0.0,0.0,0.42125770449638367,0.0,0.0,-1.0238767862319946,0.0,0.0,0.00029439555127928804
2026-06-27T15:06:10.734064,1782583375.4665473,0.0,0.0,0.2727605998516083,0.0,0.0,-1.721437692642212,0.0,0.0,0.00016870365844002337
2026-06-27T15:06:10.842139,1782583375.5745494,0.0,0.0,0.05062512308359146,0.0,0.0,-2.3855597972869873,0.0,0.0,4.462889516958981e-05
2026-06-27T15:06:10.951222,1782583375.6795518,0.0,0.0,-0.23195897042751312,0.0,0.0,-2.989311933517456,0.0,0.0,-4.736998981182827e-05
2026-06-27T15:06:11.060904,1782583375.784554,0.0,0.0,-0.5754536986351013,0.0,0.0,-3.5448341369628906,0.0,0.0,-9.950722988331985e-05
2026-06-27T15:06:11.170179,1782583375.8925562,0.0,0.0,-0.9867234230041504,0.0,0.0,-4.061668395996094,0.0,0.0,-0.00011246173637469125
2026-06-27T15:06:11.277697,1782583375.9975586,0.0,0.0,-1.4371967315673828,0.0,0.0,-4.509621620178223,0.0,0.0,-9.575728161611156e-05
2026-06-27T15:06:11.386438,1782583376.1055608,0.0,0.0,-1.9466378688812256,0.0,0.0,-4.915085315704346,0.0,0.0,-6.167165591161918e-05
2026-06-27T15:06:11.495973,1782583376.2135632,0.0,0.0,-2.4941189289093018,0.0,0.0,-5.158685684204102,0.0,0.0,-2.437618470351234e-05
2026-06-27T15:06:11.605668,1782583376.3185654,0.0,0.0,-3.0369091033935547,0.0,0.0,-5.169120788574219,0.0,0.0,5.647149032918092e-06
2026-06-27T15:06:11.712719,1782583376.4235675,0.0,0.0,-3.5789031982421875,0.0,0.0,-5.153661727905273,0.0,0.0,2.4483254896309137e-05
2026-06-27T15:06:11.822761,1782583376.52857,0.0,0.0,-4.119187355041504,0.0,0.0,-5.1374430656433105,0.0,0.0,3.172851815669498e-05
2026-06-27T15:06:11.930959,1782583376.633572,0.0,0.0,-4.657839775085449,0.0,0.0,-5.122638702392578,0.0,0.0,2.9502197460096075e-05
2026-06-27T15:06:12.039226,1782583376.7415743,0.0,0.0,-5.210343360900879,0.0,0.0,-5.108940601348877,0.0,0.0,2.1077913062399985e-05
2026-06-27T15:06:12.147919,1782583376.8465767,0.0,0.0,-5.746153831481934,0.0,0.0,-5.096979141235352,0.0,0.0,1.0684512555197561e-05
2026-06-27T15:06:12.257263,1782583376.9545789,0.0,0.0,-6.2960309982299805,0.0,0.0,-5.085929870605469,0.0,0.0,9.998617643253282e-07
2026-06-27T15:06:12.366467,1782583377.0625813,0.0,0.0,-6.844778060913086,0.0,0.0,-5.076021671295166,0.0,0.0,-5.879372881986347e-06
2026-06-27T15:06:12.475376,1782583377.1675835,0.0,0.0,-7.377310276031494,0.0,0.0,-5.067371845245361,0.0,0.0,-1.0240838102907618e-05
2026-06-27T15:06:12.584587,1782583377.275586,0.0,0.0,-7.908980846405029,0.0,0.0,-5.0595927238464355,0.0,0.0,-1.3075279226158096e-05
2026-06-27T15:06:12.692750,1782583377.383588,0.0,0.0,-8.470191955566406,0.0,0.0,-5.052219390869141,0.0,0.0,-1.3429079040036616e-05
2026-06-27T15:06:12.801244,1782583377.4915905,0.0,0.0,-9.01548957824707,0.0,0.0,-5.045796871185303,0.0,0.0,-1.0609363935850187e-05
2026-06-27T15:06:12.910437,1782583377.5965927,0.0,0.0,-9.545011520385742,0.0,0.0,-5.040188789367676,0.0,0.0,-8.804884328652945e-06
2026-06-27T15:06:13.019182,1782583377.7045949,0.0,0.0,-10.089077949523926,0.0,0.0,-5.035013675689697,0.0,0.0,-7.576770490167811e-06
2026-06-27T15:06:13.128372,1782583377.8125973,0.0,0.0,-10.632615089416504,0.0,0.0,-5.030372619628906,0.0,0.0,-6.868786549627512e-06
2026-06-27T15:06:13.237107,1782583377.9205995,0.0,0.0,-11.175678253173828,0.0,0.0,-5.026211261749268,0.0,0.0,-6.200355885328145e-06
2026-06-27T15:06:13.346807,1782583378.028602,0.0,0.0,-11.718317031860352,0.0,0.0,-5.022480010986328,0.0,0.0,-5.531925221028779e-06
2026-06-27T15:06:13.454508,1782583378.136604,0.0,0.0,-12.260573387145996,0.0,0.0,-5.019136428833008,0.0,0.0,-4.863494556729413e-06
2026-06-27T15:06:13.563699,1782583378.2446065,0.0,0.0,-12.802486419677734,0.0,0.0,-5.016138553619385,0.0,0.0,-4.1950638924300485e-06
2026-06-27T15:06:13.672423,1782583378.3526087,0.0,0.0,-13.344093322753906,0.0,0.0,-5.013451099395752,0.0,0.0,-3.5266332281306846e-06
2026-06-27T15:06:13.781958,1782583378.460611,0.0,0.0,-13.885425567626953,0.0,0.0,-5.01104211807251,0.0,0.0,-2.858202563831321e-06
2026-06-27T15:06:13.890210,1782583378.5656133,0.0,0.0,-14.411483764648438,0.0,0.0,-5.008939266204834,0.0,0.0,-2.208339417984718e-06
2026-06-27T15:06:13.998906,1782583378.6736157,0.0,0.0,-14.952354431152344,0.0,0.0,-5.006997108459473,0.0,0.0,-1.5399087536853549e-06
2026-06-27T15:06:14.107710,1782583378.7816179,0.0,0.0,-15.493025779724121,0.0,0.0,-5.005256652832031,0.0,0.0,-8.71478089385992e-07
2026-06-27T15:06:14.216915,1782583378.8896203,0.0,0.0,-16.03351593017578,0.0,0.0,-5.003695964813232,0.0,0.0,-2.030492570861259e-07
2026-06-27T15:06:14.326169,1782583378.9976225,0.0,0.0,-16.573848724365234,0.0,0.0,-5.0022969245910645,0.0,0.0,4.1156400478131614e-07
2026-06-27T15:06:14.435873,1782583379.105625,0.0,0.0,-17.11404037475586,0.0,0.0,-5.00104284286499,0.0,0.0,7.433750665917481e-07
2026-06-27T15:06:14.542726,1782583379.213627,0.0,0.0,-17.654104232788086,0.0,0.0,-4.999918460845947,0.0,0.0,9.053977636196147e-07
2026-06-27T15:06:14.652495,1782583379.3186293,0.0,0.0,-18.179052352905273,0.0,0.0,-4.998937606811523,0.0,0.0,9.5844208770844e-07
2026-06-27T15:06:14.761138,1782583379.4266317,0.0,0.0,-18.718902587890625,0.0,0.0,-4.998031139373779,0.0,0.0,1.0069131303874452e-06
2026-06-27T15:06:14.870312,1782583379.5346339,0.0,0.0,-19.25865364074707,0.0,0.0,-4.997218608856201,0.0,0.0,1.027668972238802e-06
2026-06-27T15:06:14.979420,1782583379.6426363,0.0,0.0,-19.798324584960938,0.0,0.0,-4.996490478515625,0.0,0.0,1.0277056122287325e-06
2026-06-27T15:06:15.087509,1782583379.7506385,0.0,0.0,-20.337921142578125,0.0,0.0,-4.995837688446045,0.0,0.0,1.027742252218663e-06
2026-06-27T15:06:15.197178,1782583379.855641,0.0,0.0,-20.862464904785156,0.0,0.0,-4.995267391204834,0.0,0.0,1.0277778744310952e-06
2026-06-27T15:06:15.306022,1782583379.963643,0.0,0.0,-21.40193748474121,0.0,0.0,-4.994741916656494,0.0,0.0,1.0278145144210258e-06
2026-06-27T15:06:15.414731,1782583380.0746455,0.0,0.0,-21.95634651184082,0.0,0.0,-4.99425745010376,0.0,0.0,1.0278521721884543e-06
2026-06-27T15:06:15.523851,1782583380.1796477,0.0,0.0,-22.480724334716797,0.0,0.0,-4.993846416473389,0.0,0.0,1.0278877944008866e-06
2026-06-27T15:06:15.632546,1782583380.28765,0.0,0.0,-23.020050048828125,0.0,0.0,-4.993467330932617,0.0,0.0,1.0279244343908172e-06
2026-06-27T15:06:15.741274,1782583380.3956523,0.0,0.0,-23.559341430664062,0.0,0.0,-4.993127346038818,0.0,0.0,1.0279610743807476e-06
2026-06-27T15:06:15.850972,1782583380.5036547,0.0,0.0,-24.098588943481445,0.0,0.0,-4.992822647094727,0.0,0.0,1.027997714370678e-06
2026-06-27T15:06:15.959362,1782583380.611657,0.0,0.0,-24.6378116607666,0.0,0.0,-4.992549419403076,0.0,0.0,1.0280343543606084e-06
2026-06-27T15:06:16.068687,1782583380.7196593,0.0,0.0,-25.177013397216797,0.0,0.0,-4.992302894592285,0.0,0.0,1.028070994350539e-06
2026-06-27T15:06:16.177344,1782583380.8276615,0.0,0.0,-25.716167449951172,0.0,0.0,-4.99208402633667,0.0,0.0,1.0281076343404695e-06
2026-06-27T15:06:16.286588,1782583380.932664,0.0,0.0,-26.240345001220703,0.0,0.0,-4.991892337799072,0.0,0.0,1.0281432565529018e-06
2026-06-27T15:06:16.395276,1782583381.040666,0.0,0.0,-26.77948760986328,0.0,0.0,-4.991714954376221,0.0,0.0,1.0281798965428324e-06
2026-06-27T15:06:16.503952,1782583381.1486685,0.0,0.0,-27.318572998046875,0.0,0.0,-4.991555690765381,0.0,0.0,1.0282165365327628e-06
2026-06-27T15:06:16.611931,1782583381.2536707,0.0,0.0,-27.842683792114258,0.0,0.0,-4.991416931152344,0.0,0.0,1.028252158745195e-06
2026-06-27T15:06:16.721114,1782583381.3646731,0.0,0.0,-28.38176918029785,0.0,0.0,-4.991289138793945,0.0,0.0,1.0282887987351257e-06
2026-06-27T15:06:16.830289,1782583381.4726753,0.0,0.0,-28.935829162597656,0.0,0.0,-4.9911699295043945,0.0,0.0,1.0283264565025542e-06
2026-06-27T15:06:16.938991,1782583381.5776775,0.0,0.0,-29.459915161132812,0.0,0.0,-4.991069793701172,0.0,0.0,1.0283620787149865e-06
2026-06-27T15:06:17.049086,1782583381.68568,0.0,0.0,-29.998931884765625,0.0,0.0,-4.990978717803955,0.0,0.0,1.0283987187049169e-06
2026-06-27T15:06:17.156788,1782583381.793682,0.0,0.0,-30.537948608398438,0.0,0.0,-4.9908928871154785,0.0,0.0,1.0284353586948475e-06
2026-06-27T15:06:17.266474,1782583381.9016845,0.0,0.0,-31.07696533203125,0.0,0.0,-4.99082088470459,0.0,0.0,1.028471998684778e-06
2026-06-27T15:06:17.374639,1782583382.0126867,0.0,0.0,-31.63095474243164,0.0,0.0,-4.990750312805176,0.0,0.0,1.0285096564522064e-06
2026-06-27T15:06:17.482813,1782583382.1176891,0.0,0.0,-32.154998779296875,0.0,0.0,-4.990690231323242,0.0,0.0,1.028545278664639e-06
2026-06-27T15:06:17.592069,1782583382.2286913,0.0,0.0,-32.708988189697266,0.0,0.0,-4.990637302398682,0.0,0.0,1.0285829364320674e-06
2026-06-27T15:06:17.700229,1782583382.3366938,0.0,0.0,-33.24800491333008,0.0,0.0,-4.990585803985596,0.0,0.0,1.0286195764219978e-06
2026-06-27T15:06:17.808975,1782583382.444696,0.0,0.0,-33.78702163696289,0.0,0.0,-4.990543842315674,0.0,0.0,1.0286562164119282e-06
2026-06-27T15:06:17.917685,1782583382.5496984,0.0,0.0,-34.311065673828125,0.0,0.0,-4.990508079528809,0.0,0.0,1.0286918386243607e-06
2026-06-27T15:06:18.026890,1782583382.6607006,0.0,0.0,-34.85008239746094,0.0,0.0,-4.99047327041626,0.0,0.0,1.0287284786142911e-06
2026-06-27T15:06:18.135068,1782583382.765703,0.0,0.0,-35.38909912109375,0.0,0.0,-4.990438938140869,0.0,0.0,1.0287651186042215e-06
2026-06-27T15:06:18.244782,1782583382.8737051,0.0,0.0,-35.92811584472656,0.0,0.0,-4.990408897399902,0.0,0.0,1.0288017585941521e-06
2026-06-27T15:06:18.353443,1782583382.9787076,0.0,0.0,-36.4521598815918,0.0,0.0,-4.990386009216309,0.0,0.0,1.0288373808065844e-06
2026-06-27T15:06:18.462630,1782583383.0867097,0.0,0.0,-36.99117660522461,0.0,0.0,-4.990363597869873,0.0,0.0,1.0288740207965148e-06
2026-06-27T15:06:18.571814,1782583383.1947122,0.0,0.0,-37.53019332885742,0.0,0.0,-4.990344524383545,0.0,0.0,1.0289106607864455e-06
2026-06-27T15:06:18.680738,1782583383.3027143,0.0,0.0,-38.069210052490234,0.0,0.0,-4.990326404571533,0.0,0.0,1.0289473007763759e-06
2026-06-27T15:06:18.788930,1782583383.4077165,0.0,0.0,-38.59325408935547,0.0,0.0,-4.990309715270996,0.0,0.0,1.0289829229888082e-06
2026-06-27T15:06:18.897445,1782583383.515719,0.0,0.0,-39.13227081298828,0.0,0.0,-4.990292549133301,0.0,0.0,1.0290195629787388e-06
2026-06-27T15:06:19.005941,1782583383.620721,0.0,0.0,-39.656314849853516,0.0,0.0,-4.990275859832764,0.0,0.0,1.029055185191171e-06
2026-06-27T15:06:19.114680,1782583383.7287235,0.0,0.0,-40.19533157348633,0.0,0.0,-4.990261077880859,0.0,0.0,1.0290918251811015e-06
2026-06-27T15:06:19.224371,1782583383.8337257,0.0,0.0,-40.71937561035156,0.0,0.0,-4.990251064300537,0.0,0.0,1.029127447393534e-06
2026-06-27T15:06:19.332575,1782583383.941728,0.0,0.0,-41.258392333984375,0.0,0.0,-4.990242004394531,0.0,0.0,1.0291640873834644e-06
2026-06-27T15:06:19.442306,1782583384.0497303,0.0,0.0,-41.79740905761719,0.0,0.0,-4.990231990814209,0.0,0.0,1.0292007273733948e-06
2026-06-27T15:06:19.550042,1782583384.1547325,0.0,0.0,-42.32145309448242,0.0,0.0,-4.990223407745361,0.0,0.0,1.0292363495858273e-06
2026-06-27T15:06:19.658744,1782583384.262735,0.0,0.0,-42.860469818115234,0.0,0.0,-4.9902167320251465,0.0,0.0,1.0292729895757577e-06
2026-06-27T15:06:19.767969,1782583384.370737,0.0,0.0,-43.39948654174805,0.0,0.0,-4.99021053314209,0.0,0.0,1.0293096295656881e-06
2026-06-27T15:06:19.876984,1782583384.4727392,0.0,0.0,-43.9085578918457,0.0,0.0,-4.990204811096191,0.0,0.0,1.0293442340006226e-06
2026-06-27T15:06:19.985908,1782583384.5807416,0.0,0.0,-44.447574615478516,0.0,0.0,-4.990199089050293,0.0,0.0,1.029380873990553e-06
2026-06-27T15:06:20.095125,1782583384.6857438,0.0,0.0,-44.97161865234375,0.0,0.0,-4.990194320678711,0.0,0.0,1.0294164962029853e-06
2026-06-27T15:06:20.202730,1782583384.7907462,0.0,0.0,-45.495662689208984,0.0,0.0,-4.990189552307129,0.0,0.0,1.0294521184154178e-06
2026-06-27T15:06:20.312511,1782583384.8987484,0.0,0.0,-46.0346794128418,0.0,0.0,-4.990185737609863,0.0,0.0,1.0294887584053482e-06
2026-06-27T15:06:20.421302,1782583385.0097508,0.0,0.0,-46.58866882324219,0.0,0.0,-4.990180492401123,0.0,0.0,1.0295264161727767e-06
2026-06-27T15:06:20.530431,1782583385.114753,0.0,0.0,-47.11271286010742,0.0,0.0,-4.990176677703857,0.0,0.0,1.0295620383852092e-06
2026-06-27T15:06:20.639630,1782583385.2197552,0.0,0.0,-47.636756896972656,0.0,0.0,-4.990173816680908,0.0,0.0,1.0295976605976415e-06
2026-06-27T15:06:20.748881,1782583385.3307576,0.0,0.0,-48.19074630737305,0.0,0.0,-4.990169525146484,0.0,0.0,1.02963531836507e-06
2026-06-27T15:06:20.856892,1782583385.4357598,0.0,0.0,-48.71479034423828,0.0,0.0,-4.990166664123535,0.0,0.0,1.0296709405775023e-06
2026-06-27T15:06:20.965571,1782583385.5437622,0.0,0.0,-49.253807067871094,0.0,0.0,-4.990164279937744,0.0,0.0,1.029707580567433e-06
2026-06-27T15:06:21.074754,1782583385.6517644,0.0,0.0,-49.792823791503906,0.0,0.0,-4.990160942077637,0.0,0.0,1.0297442205573633e-06
2026-06-27T15:06:21.183870,1782583385.7597668,0.0,0.0,-50.33184051513672,0.0,0.0,-4.990159034729004,0.0,0.0,1.0297808605472937e-06
2026-06-27T15:06:21.292581,1782583385.864769,0.0,0.0,-50.85588455200195,0.0,0.0,-4.990157127380371,0.0,0.0,1.0298164827597262e-06
2026-06-27T15:06:21.401250,1782583385.9727714,0.0,0.0,-51.394901275634766,0.0,0.0,-4.990155220031738,0.0,0.0,1.0298531227496566e-06
2026-06-27T15:06:21.510525,1782583386.0777736,0.0,0.0,-51.9189453125,0.0,0.0,-4.990153789520264,0.0,0.0,1.029888744962089e-06
2026-06-27T15:06:21.618735,1782583386.1857758,0.0,0.0,-52.45783233642578,0.0,0.0,-4.990149974822998,0.0,0.0,1.0299253849520196e-06
2026-06-27T15:06:21.727985,1782583386.2937782,0.0,0.0,-52.99671173095703,0.0,0.0,-4.990148544311523,0.0,0.0,1.02996202494195e-06
2026-06-27T15:06:21.837235,1782583386.4017804,0.0,0.0,-53.53559112548828,0.0,0.0,-4.990147113800049,0.0,0.0,1.0299986649318804e-06
2026-06-27T15:06:21.945928,1782583386.5097828,0.0,0.0,-54.07447052001953,0.0,0.0,-4.990145206451416,0.0,0.0,1.030035304921811e-06
2026-06-27T15:06:22.055142,1782583386.614785,0.0,0.0,-54.59838104248047,0.0,0.0,-4.990142822265625,0.0,0.0,1.0300709271342433e-06
2026-06-27T15:06:22.162842,1782583386.7227874,0.0,0.0,-55.13726043701172,0.0,0.0,-4.99014139175415,0.0,0.0,1.0301075671241737e-06
2026-06-27T15:06:22.272331,1782583386.8307896,0.0,0.0,-55.67613983154297,0.0,0.0,-4.990139961242676,0.0,0.0,1.030144207114104e-06
2026-06-27T15:06:22.381498,1782583386.938792,0.0,0.0,-56.21501922607422,0.0,0.0,-4.990139007568359,0.0,0.0,1.0301808471040347e-06
2026-06-27T15:06:22.490973,1782583387.0467942,0.0,0.0,-56.75389862060547,0.0,0.0,-4.990138530731201,0.0,0.0,1.030217487093965e-06
2026-06-27T15:06:22.599747,1782583387.1547966,0.0,0.0,-57.29277801513672,0.0,0.0,-4.990137100219727,0.0,0.0,1.0302541270838955e-06
2026-06-27T15:06:22.707866,1782583387.2597988,0.0,0.0,-57.816688537597656,0.0,0.0,-4.990135192871094,0.0,0.0,1.030289749296328e-06
2026-06-27T15:06:22.816505,1782583387.3678012,0.0,0.0,-58.355567932128906,0.0,0.0,-4.990134239196777,0.0,0.0,1.0303263892862584e-06
2026-06-27T15:06:22.924845,1782583387.4758034,0.0,0.0,-58.894447326660156,0.0,0.0,-4.990131855010986,0.0,0.0,1.0303630292761888e-06
2026-06-27T15:06:23.032738,1782583387.5838058,0.0,0.0,-59.433326721191406,0.0,0.0,-4.990130424499512,0.0,0.0,1.0303996692661194e-06
2026-06-27T15:06:23.141579,1782583387.691808,0.0,0.0,-59.972206115722656,0.0,0.0,-4.9901299476623535,0.0,0.0,1.0304363092560498e-06
2026-06-27T15:06:23.251273,1782583387.7968102,0.0,0.0,-60.496116638183594,0.0,0.0,-4.990128517150879,0.0,0.0,1.0304719314684821e-06
2026-06-27T15:06:23.359999,1782583387.9048126,0.0,0.0,-61.034996032714844,0.0,0.0,-4.9901275634765625,0.0,0.0,1.0305085714584127e-06
2026-06-27T15:06:23.467690,1782583388.0098147,0.0,0.0,-61.55890655517578,0.0,0.0,-4.990126609802246,0.0,0.0,1.030544193670845e-06
2026-06-27T15:06:23.577879,1782583388.1208172,0.0,0.0,-62.112754821777344,0.0,0.0,-4.99012565612793,0.0,0.0,1.0305818514382735e-06
2026-06-27T15:06:23.686069,1782583388.2258193,0.0,0.0,-62.63666534423828,0.0,0.0,-4.9901251792907715,0.0,0.0,1.0306174736507058e-06
2026-06-27T15:06:23.794946,1782583388.3338218,0.0,0.0,-63.17554473876953,0.0,0.0,-4.990123271942139,0.0,0.0,1.0306541136406365e-06
2026-06-27T15:06:23.902627,1782583388.438824,0.0,0.0,-63.69945526123047,0.0,0.0,-4.990121364593506,0.0,0.0,1.0306897358530688e-06
2026-06-27T15:06:24.012153,1782583388.5468261,0.0,0.0,-64.23833465576172,0.0,0.0,-4.990119457244873,0.0,0.0,1.0307263758429992e-06
2026-06-27T15:06:24.121853,1782583388.6518285,0.0,0.0,-64.76224517822266,0.0,0.0,-4.990119457244873,0.0,0.0,1.0307619980554317e-06
2026-06-27T15:06:24.230562,1782583388.7568307,0.0,0.0,-65.2861557006836,0.0,0.0,-4.990118026733398,0.0,0.0,1.030797620267864e-06
2026-06-27T15:06:24.339282,1782583388.864833,0.0,0.0,-65.82503509521484,0.0,0.0,-4.99011754989624,0.0,0.0,1.0308342602577944e-06
2026-06-27T15:06:24.448022,1782583388.9728353,0.0,0.0,-66.3639144897461,0.0,0.0,-4.990116596221924,0.0,0.0,1.030870900247725e-06
2026-06-27T15:06:24.557213,1782583389.0778375,0.0,0.0,-66.88782501220703,0.0,0.0,-4.990115642547607,0.0,0.0,1.0309065224601573e-06
2026-06-27T15:06:24.665874,1782583389.18584,0.0,0.0,-67.42670440673828,0.0,0.0,-4.990114212036133,0.0,0.0,1.0309431624500877e-06
2026-06-27T15:06:24.774170,1782583389.293842,0.0,0.0,-67.96558380126953,0.0,0.0,-4.990114212036133,0.0,0.0,1.0309798024400183e-06
2026-06-27T15:06:24.882411,1782583389.3988445,0.0,0.0,-68.48949432373047,0.0,0.0,-4.990111827850342,0.0,0.0,1.0310154246524506e-06
2026-06-27T15:06:24.991982,1782583389.5068467,0.0,0.0,-69.02837371826172,0.0,0.0,-4.990109920501709,0.0,0.0,1.031052064642381e-06
2026-06-27T15:06:25.100153,1782583389.614849,0.0,0.0,-69.56725311279297,0.0,0.0,-4.990109920501709,0.0,0.0,1.0310887046323116e-06
2026-06-27T15:06:25.208393,1782583389.7228513,0.0,0.0,-70.10613250732422,0.0,0.0,-4.990108966827393,0.0,0.0,1.031125344622242e-06
2026-06-27T15:06:25.317742,1782583389.8308537,0.0,0.0,-70.64501190185547,0.0,0.0,-4.990108013153076,0.0,0.0,1.0311619846121724e-06
2026-06-27T15:06:25.426632,1782583389.9358559,0.0,0.0,-71.1689224243164,0.0,0.0,-4.99010705947876,0.0,0.0,1.031197606824605e-06
2026-06-27T15:06:25.536321,1782583390.0438583,0.0,0.0,-71.70780181884766,0.0,0.0,-4.990106105804443,0.0,0.0,1.0312342468145354e-06
2026-06-27T15:06:25.644571,1782583390.1518605,0.0,0.0,-72.2466812133789,0.0,0.0,-4.990105152130127,0.0,0.0,1.0312708868044658e-06
2026-06-27T15:06:25.752737,1782583390.259863,0.0,0.0,-72.78556060791016,0.0,0.0,-4.990103721618652,0.0,0.0,1.0313075267943962e-06
2026-06-27T15:06:25.862943,1782583390.367865,0.0,0.0,-73.3244400024414,0.0,0.0,-4.990102767944336,0.0,0.0,1.0313441667843268e-06
2026-06-27T15:06:25.971136,1782583390.4758675,0.0,0.0,-73.86331939697266,0.0,0.0,-4.990100860595703,0.0,0.0,1.0313808067742572e-06
2026-06-27T15:06:26.082315,1782583390.5868697,0.0,0.0,-74.41716766357422,0.0,0.0,-4.990099906921387,0.0,0.0,1.0314184645416857e-06
2026-06-27T15:06:26.189996,1782583390.6888719,0.0,0.0,-74.92610931396484,0.0,0.0,-4.990098476409912,0.0,0.0,1.03145306897662e-06
2026-06-27T15:06:26.299187,1782583390.7938743,0.0,0.0,-75.45001983642578,0.0,0.0,-4.990098476409912,0.0,0.0,1.0314886911890524e-06
2026-06-27T15:06:26.406945,1782583390.9018764,0.0,0.0,-75.98889923095703,0.0,0.0,-4.9900970458984375,0.0,0.0,1.0315253311789828e-06
2026-06-27T15:06:26.515616,1782583391.0098789,0.0,0.0,-76.52777862548828,0.0,0.0,-4.990096092224121,0.0,0.0,1.0315619711689134e-06
2026-06-27T15:06:26.625149,1782583391.117881,0.0,0.0,-77.06665802001953,0.0,0.0,-4.990095138549805,0.0,0.0,1.0315986111588438e-06
2026-06-27T15:06:26.732857,1782583391.2258835,0.0,0.0,-77.60553741455078,0.0,0.0,-4.990094184875488,0.0,0.0,1.0316352511487742e-06
2026-06-27T15:06:26.842150,1782583391.3368857,0.0,0.0,-78.15938568115234,0.0,0.0,-4.990093231201172,0.0,0.0,1.0316729089162027e-06
2026-06-27T15:06:26.951506,1782583391.444888,0.0,0.0,-78.6982650756836,0.0,0.0,-4.990091800689697,0.0,0.0,1.0317095489061333e-06
2026-06-27T15:06:27.060153,1782583391.5528903,0.0,0.0,-79.23714447021484,0.0,0.0,-4.9900898933410645,0.0,0.0,1.0317461888960637e-06
2026-06-27T15:06:27.168702,1782583391.6608927,0.0,0.0,-79.7760238647461,0.0,0.0,-4.9900898933410645,0.0,0.0,1.0317828288859941e-06
2026-06-27T15:06:27.277909,1782583391.768895,0.0,0.0,-80.31490325927734,0.0,0.0,-4.99008846282959,0.0,0.0,1.0318194688759247e-06
2026-06-27T15:06:27.386613,1782583391.8768973,0.0,0.0,-80.83881378173828,0.0,0.0,-4.990087509155273,0.0,0.0,1.031855091088357e-06
2026-06-27T15:06:27.496297,1782583391.9848995,0.0,0.0,-81.39266204833984,0.0,0.0,-4.990087032318115,0.0,0.0,1.0318927488557855e-06
2026-06-27T15:06:27.605401,1782583392.092902,0.0,0.0,-81.9315414428711,0.0,0.0,-4.990085601806641,0.0,0.0,1.031929388845716e-06
2026-06-27T15:06:27.713602,1782583392.2009041,0.0,0.0,-82.47042083740234,0.0,0.0,-4.990085124969482,0.0,0.0,1.0319660288356465e-06
2026-06-27T15:06:27.822843,1782583392.2969062,0.0,0.0,-82.94942474365234,0.0,0.0,-4.990084171295166,0.0,0.0,1.0319985977155846e-06
2026-06-27T15:06:27.932531,1782583392.4049087,0.0,0.0,-83.4883041381836,0.0,0.0,-4.99008321762085,0.0,0.0,1.0320352377055152e-06
2026-06-27T15:06:28.040254,1782583392.5129108,0.0,0.0,-84.02718353271484,0.0,0.0,-4.990082263946533,0.0,0.0,1.0320718776954456e-06
2026-06-27T15:06:28.148937,1782583392.6209133,0.0,0.0,-84.5660629272461,0.0,0.0,-4.990079879760742,0.0,0.0,1.032108517685376e-06
2026-06-27T15:06:28.258111,1782583392.7289155,0.0,0.0,-85.10494232177734,0.0,0.0,-4.990079879760742,0.0,0.0,1.0321451576753066e-06
2026-06-27T15:06:28.367364,1782583392.8339176,0.0,0.0,-85.62885284423828,0.0,0.0,-4.990078926086426,0.0,0.0,1.032180779887739e-06
2026-06-27T15:06:28.476633,1782583392.94192,0.0,0.0,-86.16773223876953,0.0,0.0,-4.990077495574951,0.0,0.0,1.0322174198776693e-06
2026-06-27T15:06:28.584839,1782583393.0499222,0.0,0.0,-86.70661163330078,0.0,0.0,-4.990076541900635,0.0,0.0,1.0322540598676e-06
2026-06-27T15:06:28.694063,1782583393.1579247,0.0,0.0,-87.24549102783203,0.0,0.0,-4.990076065063477,0.0,0.0,1.0322906998575303e-06
2026-06-27T15:06:28.802269,1782583393.2659268,0.0,0.0,-87.78437042236328,0.0,0.0,-4.990074634552002,0.0,0.0,1.0323273398474607e-06
2026-06-27T15:06:28.911989,1782583393.3739293,0.0,0.0,-88.32324981689453,0.0,0.0,-4.9900736808776855,0.0,0.0,1.0323639798373911e-06
2026-06-27T15:06:29.020617,1782583393.4789314,0.0,0.0,-88.84716033935547,0.0,0.0,-4.990072727203369,0.0,0.0,1.0323996020498236e-06
2026-06-27T15:06:29.128819,1782583393.5869339,0.0,0.0,-89.38603973388672,0.0,0.0,-4.990072250366211,0.0,0.0,1.032436242039754e-06
2026-06-27T15:06:29.238006,1782583393.694936,0.0,0.0,-89.92491912841797,0.0,0.0,-4.990070819854736,0.0,0.0,1.0324728820296844e-06
2026-06-27T15:06:29.346524,1782583393.8029385,0.0,0.0,-90.46379852294922,0.0,0.0,-4.990069389343262,0.0,0.0,1.032509522019615e-06
2026-06-27T15:06:29.455685,1782583393.9109406,0.0,0.0,-91.00267791748047,0.0,0.0,-4.990069389343262,0.0,0.0,1.0325461620095454e-06
2026-06-27T15:06:29.564601,1782583394.018943,0.0,0.0,-91.54155731201172,0.0,0.0,-4.990067958831787,0.0,0.0,1.0325828019994758e-06
2026-06-27T15:06:29.673812,1782583394.1269453,0.0,0.0,-92.08043670654297,0.0,0.0,-4.9900665283203125,0.0,0.0,1.0326194419894062e-06
2026-06-27T15:06:29.782393,1782583394.2319474,0.0,0.0,-92.6043472290039,0.0,0.0,-4.990066051483154,0.0,0.0,1.0326550642018388e-06
2026-06-27T15:06:29.891123,1782583394.3369498,0.0,0.0,-93.12825775146484,0.0,0.0,-4.990065097808838,0.0,0.0,1.032690686414271e-06
2026-06-27T15:06:30.000320,1782583394.441952,0.0,0.0,-93.65216827392578,0.0,0.0,-4.9900641441345215,0.0,0.0,1.0327263086267036e-06
2026-06-27T15:06:30.109037,1782583394.5469542,0.0,0.0,-94.17607879638672,0.0,0.0,-4.990063190460205,0.0,0.0,1.032761930839136e-06
2026-06-27T15:06:30.218242,1782583394.6549566,0.0,0.0,-94.71495819091797,0.0,0.0,-4.990062236785889,0.0,0.0,1.0327985708290663e-06
2026-06-27T15:06:30.326976,1782583394.7599587,0.0,0.0,-95.2388687133789,0.0,0.0,-4.990060806274414,0.0,0.0,1.0328341930414988e-06
2026-06-27T15:06:30.435652,1782583394.8709612,0.0,0.0,-95.79271697998047,0.0,0.0,-4.990060329437256,0.0,0.0,1.0328718508089273e-06
2026-06-27T15:06:30.545272,1782583394.9789634,0.0,0.0,-96.33159637451172,0.0,0.0,-4.990058898925781,0.0,0.0,1.0329084907988577e-06
2026-06-27T15:06:30.652948,1782583395.0839658,0.0,0.0,-96.85550689697266,0.0,0.0,-4.990057468414307,0.0,0.0,1.0329441130112902e-06
2026-06-27T15:06:30.762149,1782583395.191968,0.0,0.0,-97.3943862915039,0.0,0.0,-4.99005651473999,0.0,0.0,1.0329807530012206e-06
2026-06-27T15:06:30.871345,1782583395.2999704,0.0,0.0,-97.93326568603516,0.0,0.0,-4.990056037902832,0.0,0.0,1.033017392991151e-06
2026-06-27T15:06:30.980959,1782583395.4079726,0.0,0.0,-98.4721450805664,0.0,0.0,-4.990054130554199,0.0,0.0,1.0330540329810814e-06
2026-06-27T15:06:31.089195,1782583395.515975,0.0,0.0,-99.01102447509766,0.0,0.0,-4.990054130554199,0.0,0.0,1.033090672971012e-06
2026-06-27T15:06:31.197875,1782583395.6239772,0.0,0.0,-99.5499038696289,0.0,0.0,-4.990053176879883,0.0,0.0,1.0331273129609424e-06
2026-06-27T15:06:31.307015,1782583395.7289793,0.0,0.0,-100.07381439208984,0.0,0.0,-4.990051746368408,0.0,0.0,1.0331629351733748e-06
2026-06-27T15:06:31.415707,1782583395.8369818,9.357334420201369e-06,-1.574270208948292e-05,-100.5968017578125,0.0004215663066133857,-0.0006969515234231949,-4.710804462432861,-0.17072119704398786,-0.11329244781535457,-1.7492924917915296
2026-06-27T15:06:31.525386,1782583395.944984,0.0002180580049753189,-0.0003505667264107615,-101.09729766845703,0.00432599289342761,-0.006883656606078148,-4.579113960266113,-0.5813126496938639,-0.4763722742448846,-6.909277243958762
2026-06-27T15:06:31.633551,1782583396.0529864,0.0011821560328826308,-0.0018738561775535345,-101.59004211425781,0.014814244583249092,-0.023320339620113373,-4.563653945922852,-0.9638686775041209,-1.0501838544651299,-14.812995408068657
2026-06-27T15:06:31.742235,1782583396.1579885,0.0036221109330654144,-0.0057002343237400055,-102.07247161865234,0.03308067098259926,-0.05173797160387039,-4.638253211975098,-1.137494755722688,-1.7785664303602757,-24.56710912357654
2026-06-27T15:06:31.851911,1782583396.268991,0.008804576471447945,-0.01377909630537033,-102.59512329101562,0.062097370624542236,-0.09655296802520752,-4.793121814727783,-0.9890313294934223,-2.656735838743827,-36.56069237840442
2026-06-27T15:06:31.960134,1782583396.3739932,0.01726808212697506,-0.026901140809059143,-103.11149597167969,0.09878187626600266,-0.1528249979019165,-4.9865827560424805,-0.514251875246647,-3.487330194445756,-48.42723512160338
2026-06-27T15:06:32.069146,1782583396.4789956,0.029445968568325043,-0.04570542275905609,-103.63155364990234,0.13330237567424774,-0.20550291240215302,-4.892916202545166,0.1404661141089353,-4.23326400265274,-58.60293864249156
2026-06-27T15:06:32.178123,1782583396.5869977,0.045873261988162994,-0.07098645716905594,-104.15020751953125,0.17159584164619446,-0.26365789771080017,-4.7038373947143555,0.8255225942403731,-4.889120824770719,-66.15532956876179
2026-06-27T15:06:32.286942,1782583396.6950002,0.0667242482304573,-0.10296552628278732,-104.64744567871094,0.2157968133687973,-0.33038437366485596,-4.510138034820557,1.356084970463887,-5.467587975986324,-70.34662334335269
2026-06-27T15:06:32.396636,1782583396.8030024,0.09282249957323074,-0.1428411453962326,-105.12672424316406,0.2693614065647125,-0.41076725721359253,-4.380897521972656,1.6086082082142639,-6.030152657701136,-71.21961378404004
2026-06-27T15:06:32.504684,1782583396.9110048,0.12538114190101624,-0.1923876851797104,-105.59812927246094,0.3361147940158844,-0.5104959011077881,-4.373697280883789,1.5312797536724412,-6.6108610091411375,-69.23371320551085
2026-06-27T15:06:32.612909,1782583397.019007,0.16605232656002045,-0.2540363669395447,-106.07769012451172,0.4202812612056732,-0.6359158754348755,-4.538775444030762,1.156340293419158,-7.203924536417329,-65.26112387218355
2026-06-27T15:06:32.723598,1782583397.1240091,0.2152642458677292,-0.32837390899658203,-106.56991577148438,0.5167753100395203,-0.7795583009719849,-4.818578720092773,0.6187962148296368,-7.779974900981225,-60.66599976796302
2026-06-27T15:06:32.831826,1782583397.2320116,0.2755603790283203,-0.41924047470092773,-107.0905532836914,0.5982547998428345,-0.9008257985115051,-4.79074239730835,0.04941399168777578,-8.392673484156042,-56.444310722125124
2026-06-27T15:06:32.940521,1782583397.3370137,0.34244251251220703,-0.5198794603347778,-107.58788299560547,0.6761523485183716,-1.0168099403381348,-4.676783561706543,-0.39275701590576406,-9.006361562872554,-53.61486170590281
2026-06-27T15:06:33.049244,1782583397.442016,0.41768598556518555,-0.6329731941223145,-108.07195281982422,0.7576683759689331,-1.1382912397384644,-4.54006290435791,-0.6472487893289337,-9.634285630904882,-52.28537590301321
2026-06-27T15:06:33.158467,1782583397.5500183,0.5042191743850708,-0.7629268765449524,-108.55379486083984,0.8453428149223328,-1.2691007852554321,-4.378778457641602,-0.6940193025849685,-10.290963051127699,-52.29719459597192
2026-06-27T15:06:33.267637,1782583397.6580205,0.600403368473053,-0.9072884917259216,-109.01696014404297,0.9362085461616516,-1.4048300981521606,-4.193049430847168,-0.5608669455525164,-10.950351510118217,-53.255318691972946
2026-06-27T15:06:33.375871,1782583397.769023,0.7096198201179504,-1.071144700050354,-109.47040557861328,1.0318633317947388,-1.5478639602661133,-3.9706523418426514,-0.31594430914169963,-11.627055799585941,-54.66641497743938
2026-06-27T15:06:33.484510,1782583397.874025,0.822749674320221,-1.2408292293548584,-109.87458038330078,1.122738242149353,-1.6838674545288086,-3.719205141067505,-0.06504214665903083,-12.282817743143738,-55.95311805281636
2026-06-27T15:06:33.593895,1782583397.9820275,0.9489623308181763,-1.4301096200942993,-110.25960540771484,1.2138807773590088,-1.8203659057617188,-3.398362874984741,0.14673109945253493,-13.028654558707585,-56.93235322911409
2026-06-27T15:06:33.701593,1782583398.0900297,1.0846048593521118,-1.6335160732269287,-110.60440826416016,1.2955036163330078,-1.9426685571670532,-2.961271047592163,0.2760563154987603,-13.969203476810424,-57.44391991230704
2026-06-27T15:06:33.810180,1782583398.1950321,1.223924160003662,-1.8424290418624878,-110.88488006591797,1.3585162162780762,-2.037112236022949,-2.376856803894043,0.31552067317537197,-15.17461891574291,-57.52007188299771
2026-06-27T15:06:33.918906,1782583398.3030343,1.3769323825836182,-2.071868419647217,-111.1261978149414,1.4826438426971436,-2.2233006954193115,-2.1421804428100586,0.2511870154659855,-15.292963189191948,-57.27741693025654
2026-06-27T15:06:34.027940,1782583398.4080367,1.5396356582641602,-2.3158559799194336,-111.34461212158203,1.615297555923462,-2.422337532043457,-2.0193960666656494,0.13968527278881135,-14.493738957390395,-56.88637081968495
2026-06-27T15:06:34.137130,1782583398.5130389,1.7158012390136719,-2.5800442695617676,-111.55034637451172,1.7382701635360718,-2.6068737506866455,-1.8997101783752441,0.03713202941428356,-13.287838151347207,-56.4869685872303
2026-06-27T15:06:34.246814,1782583398.621041,1.9098291397094727,-2.871032953262329,-111.74920654296875,1.8527071475982666,-2.7786102294921875,-1.784949541091919,-0.03095282195756115,-11.910043446929862,-56.16831315309331
2026-06-27T15:06:34.356993,1782583398.7260435,2.1096959114074707,-3.1707894802093506,-111.93136596679688,1.952301025390625,-2.928072214126587,-1.687399983406067,-0.05848093412185334,-10.584653111349517,-55.991141556908616
2026-06-27T15:06:34.464221,1782583398.8310456,2.319432020187378,-3.4853572845458984,-112.10407257080078,2.04077410697937,-3.060835838317871,-1.604773998260498,-0.05818690913351267,-9.345647915993332,-55.942194100442876
2026-06-27T15:06:34.572975,1782583398.9330478,2.5315473079681396,-3.8034989833831787,-112.26424407958984,2.1166653633117676,-3.1747000217437744,-1.5375566482543945,-0.043695570606651545,-8.254306784513004,-55.98825093695567
2026-06-27T15:06:34.681649,1782583399.03805,2.7574830055236816,-4.142371654510498,-112.42255401611328,2.185230016708374,-3.277538776397705,-1.479623794555664,-0.024704021519478855,-7.255122730319728,-56.0903628270985
2026-06-27T15:06:34.790851,1782583399.1430523,2.9901490211486816,-4.491336345672607,-112.57528686523438,2.2450122833251953,-3.3671646118164062,-1.43092679977417,-0.008221841266600074,-6.3791961376360105,-56.20737575760393
2026-06-27T15:06:34.899064,1782583399.2480545,3.2286717891693115,-4.84907865524292,-112.72329711914062,2.2969610691070557,-3.445007085800171,-1.3894652128219604,0.002859232542249445,-5.61775915101335,-56.30818789114534
2026-06-27T15:06:35.007501,1782583399.3530567,3.4722790718078613,-5.214438438415527,-112.86726379394531,2.3420000076293945,-3.512463092803955,-1.3535635471343994,0.008356720983739194,-4.95991345533353,-56.37540640266508
2026-06-27T15:06:35.117205,1782583399.458059,3.7202913761138916,-5.586394309997559,-113.00769805908203,2.380995750427246,-3.5708470344543457,-1.3219457864761353,0.009526883811641027,-4.393604843379509,-56.404772226508285
2026-06-27T15:06:35.226099,1782583399.5600612,3.9648725986480713,-5.953195095062256,-113.14110565185547,2.4138388633728027,-3.6200122833251953,-1.2943867444992065,0.008127316544894465,-3.920362734429676,-56.402369988369784
2026-06-27T15:06:35.334800,1782583399.6680634,4.227238178253174,-6.346657752990723,-113.2794418334961,2.443929672241211,-3.6650636196136475,-1.2678333520889282,0.005496021376507328,-3.490944586606139,-56.37788015855403
2026-06-27T15:06:35.445123,1782583399.7760658,4.492623329162598,-6.7446417808532715,-113.41502380371094,2.469864845275879,-3.703906774520874,-1.2431983947753906,0.0028293742100656007,-3.1251307268411654,-56.343817225781734
2026-06-27T15:06:35.552793,1782583399.878068,4.745662212371826,-7.124107360839844,-113.54070281982422,2.491084098815918,-3.7357029914855957,-1.2212954759597778,0.0008591237464388252,-2.829836433373628,-56.312967924852195
2026-06-27T15:06:35.661189,1782583399.9830701,5.0082526206970215,-7.517895221710205,-113.66781616210938,2.5100808143615723,-3.7641823291778564,-1.199966549873352,-0.0004220100100863081,-2.569427941677872,-56.289145043829976
2026-06-27T15:06:35.770079,1782583400.0880725,5.272703647613525,-7.914473056793213,-113.79273223876953,2.526599645614624,-3.7889578342437744,-1.1796555519104004,-0.0010071778559779723,-2.3469319541934683,-56.27608477127267
2026-06-27T15:06:35.878795,1782583400.1900747,5.531151294708252,-8.302051544189453,-113.91206359863281,2.540602922439575,-3.8099663257598877,-1.1602861881256104,-0.001083059239101681,-2.1620466797016573,-56.273265242409906
2026-06-27T15:06:35.988047,1782583400.2920768,5.790938377380371,-8.691637992858887,-114.02946472167969,2.552891969680786,-3.8284072875976562,-1.1418379545211792,-0.0008732615248873281,-2.0032353100683356,-56.277717914661004
2026-06-27T15:06:36.096685,1782583400.397079,6.059595108032227,-9.094521522521973,-114.14837646484375,2.563995838165283,-3.8450686931610107,-1.1232028007507324,-0.0005440045146611213,-1.863228166342676,-56.286527816216086
2026-06-27T15:06:36.206405,1782583400.5020814,6.329344272613525,-9.499046325683594,-114.26535034179688,2.573755979537964,-3.8597090244293213,-1.1048392057418823,-0.00023338846311163274,-1.7436982029149943,-56.29634684165536
2026-06-27T15:06:36.315112,1782583400.6040835,6.592309474945068,-9.893399238586426,-114.3771743774414,2.582137107849121,-3.8722798824310303,-1.0875338315963745,-2.1754343303529585e-05,-1.6439975315450155,-56.30445897653534
2026-06-27T15:06:36.423805,1782583400.7060857,6.856080055236816,-10.288960456848145,-114.48723602294922,2.589581251144409,-3.883443593978882,-1.0704082250595093,8.473524525139365e-05,-1.558361368956519,-56.30989819015059
2026-06-27T15:06:36.534487,1782583400.8110878,7.12835693359375,-10.697279930114746,-114.59871673583984,2.5964043140411377,-3.893674612045288,-1.0530667304992676,9.346574935929716e-05,-1.4827148587691086,-56.31239390449555
2026-06-27T15:06:36.641679,1782583400.91609,7.401310443878174,-11.106612205505371,-114.70838928222656,2.6024930477142334,-3.902805805206299,-1.036036729812622,2.8437161875142013e-05,-1.4178277541260904,-56.31221226431645
2026-06-27T15:06:36.750426,1782583401.0210924,7.674866199493408,-11.516852378845215,-114.8162841796875,2.6079468727111816,-3.9109890460968018,-1.0190836191177368,-7.742434300548538e-05,-1.36228772461479,-56.31027416500496
2026-06-27T15:06:36.859618,1782583401.1260946,7.948968887329102,-11.927908897399902,-114.92241668701172,2.6128580570220947,-3.9183597564697266,-1.0024083852767944,-0.0001852188113793149,-1.3145261780933244,-56.30763425540388
2026-06-27T15:06:36.967941,1782583401.2310967,8.22356128692627,-12.339700698852539,-115.02680969238281,2.617299795150757,-3.925029754638672,-0.9859235286712646,-0.00028137463617346534,-1.2734470860657505,-56.30506417799607
2026-06-27T15:06:37.077142,1782583401.3330991,8.49073600769043,-12.740367889404297,-115.1265640258789,2.621225595474243,-3.930926561355591,-0.970072865486145,-0.000352653940464293,-1.238991879381212,-56.3032004972469
2026-06-27T15:06:37.185841,1782583401.4411013,8.774040222167969,-13.165229797363281,-115.23043060302734,2.625021457672119,-3.9366304874420166,-0.9534927606582642,-0.00039750565577641015,-1.2075074763208473,-56.30214872007158
2026-06-27T15:06:37.295035,1782583401.5431035,9.041969299316406,-13.56702995300293,-115.326904296875,2.628309726715088,-3.941572904586792,-0.9379740953445435,-0.0004201186075183984,-1.1817833815991252,-56.30199028827309
2026-06-27T15:06:37.403704,1782583401.6511059,9.326008796691895,-13.992993354797363,-115.42733001708984,2.631519079208374,-3.946399211883545,-0.9217318892478943,-0.00042425700491809776,-1.1581596040171538,-56.30249185530848
2026-06-27T15:06:37.512749,1782583401.756108,9.602477073669434,-14.40760612487793,-115.5232925415039,2.6344048976898193,-3.9507389068603516,-0.9060989022254944,-0.000420899950412074,-1.1382473910501691,-56.303330598334036
2026-06-27T15:06:37.621457,1782583401.8551102,9.863415718078613,-14.798928260803223,-115.6122817993164,2.6369407176971436,-3.9545533657073975,-0.8914924263954163,-0.0004211874680967443,-1.1217866901762736,-56.304182598925166
2026-06-27T15:06:37.731234,1782583401.9601123,10.140434265136719,-15.214366912841797,-115.70508575439453,2.639455795288086,-3.9583401679992676,-0.8761608600616455,-0.000418716685028977,-1.10646179959561,-56.30497787005173
2026-06-27T15:06:37.839779,1782583402.0651147,10.417708396911621,-15.6301908493042,-115.7962875366211,2.6418142318725586,-3.961890697479248,-0.8609869480133057,-0.00040736824159524334,-1.093014199334356,-56.305551940519834
2026-06-27T15:06:37.947844,1782583402.1671169,10.687292098999023,-16.034481048583984,-115.88335418701172,2.643972158432007,-3.965139627456665,-0.8464104533195496,-0.00040242735310134787,-1.081460402709867,-56.305819227055956
2026-06-27T15:06:38.057665,1782583402.272119,10.965025901794434,-16.450998306274414,-115.97145080566406,2.646070718765259,-3.968299627304077,-0.8315384984016418,-0.0004017244163461043,-1.070902898774784,-56.30590929774556
2026-06-27T15:06:38.166408,1782583402.3711212,11.227086067199707,-16.844009399414062,-116.05309295654297,2.6479477882385254,-3.9711270332336426,-0.8177460432052612,-0.0004103956424439527,-1.0619907024686595,-56.30585143701257
2026-06-27T15:06:38.276037,1782583402.4761233,11.505227088928223,-17.261137008666992,-116.13817596435547,2.6498398780822754,-3.97397780418396,-0.8031205534934998,-0.0004273694111256534,-1.0535474506847158,-56.3056353264858
2026-06-27T15:06:38.382797,1782583402.5811257,11.783560752868652,-17.678558349609375,-116.22173309326172,2.651642084121704,-3.9766926765441895,-0.7886549830436707,-0.00042823455106178463,-1.045983480821784,-56.30549672583567
2026-06-27T15:06:38.492996,1782583402.686128,12.062080383300781,-18.096256256103516,-116.30380249023438,2.65336275100708,-3.979285717010498,-0.7744596600532532,-0.00043986768073462176,-1.0390527281484812,-56.30549330168923
2026-06-27T15:06:38.602260,1782583402.78513,12.324846267700195,-18.490331649780273,-116.37979888916016,2.6549131870269775,-3.981623888015747,-0.761005699634552,-0.0004530944981951313,-1.0332013823649355,-56.30549216272043
2026-06-27T15:06:38.711493,1782583402.8871322,12.595730781555176,-18.89658546447754,-116.45674133300781,2.6564481258392334,-3.983940601348877,-0.7474951148033142,-0.00045060265067587265,-1.0275906701905089,-56.30559819423067
2026-06-27T15:06:38.820148,1782583402.9921343,12.874744415283203,-19.31502914428711,-116.53451538085938,2.6579649448394775,-3.986229419708252,-0.733712375164032,-0.00045061465999971895,-1.0222920104439135,-56.30570495853763
2026-06-27T15:06:38.928876,1782583403.0971367,13.153914451599121,-19.733705520629883,-116.61083984375,2.659421682357788,-3.988429069519043,-0.7200686931610107,-0.0004470614860711709,-1.0173910486903677,-56.30581489403665
2026-06-27T15:06:39.037079,1782583403.1961389,13.417267799377441,-20.128665924072266,-116.68150329589844,2.6607446670532227,-3.990427017211914,-0.7073690891265869,-0.00044595007946307834,-1.0130810546015243,-56.30591448205181
2026-06-27T15:06:39.147407,1782583403.301141,13.696722984313965,-20.547780990600586,-116.75507354736328,2.662097454071045,-3.9924697875976562,-0.6940317749977112,-0.0004436201741857008,-1.0088046567747198,-56.306017025546055
2026-06-27T15:06:39.258102,1782583403.4061432,13.976317405700684,-20.967103958129883,-116.82725524902344,2.6634013652801514,-3.9944398403167725,-0.6808672547340393,-0.00044165023187024835,-1.0047749261231744,-56.30612763665199
2026-06-27T15:06:39.366285,1782583403.5111454,14.256047248840332,-21.386629104614258,-116.89806365966797,2.6646595001220703,-3.99634051322937,-0.6678480505943298,-0.0004360484896271583,-1.0010174317664682,-56.3062280951344
2026-06-27T15:06:39.473999,1782583403.6131477,14.527910232543945,-21.794355392456055,-116.96556091308594,2.665839672088623,-3.9981234073638916,-0.6553446054458618,-0.00042569364024317195,-0.9975325904428313,-56.30633245853485
2026-06-27T15:06:39.582292,1782583403.7151499,14.799890518188477,-22.202260971069336,-117.03176879882812,2.666980743408203,-3.999847888946533,-0.6430543065071106,-0.00042076917163129585,-0.9942241267950043,-56.306438134913975
2026-06-27T15:06:39.692078,1782583403.823152,15.087992668151855,-22.634349822998047,-117.10052490234375,2.6681482791900635,-4.001611709594727,-0.6301676034927368,-0.0004224739876863907,-0.9908487452114473,-56.30654591601974
2026-06-27T15:06:39.800775,1782583403.9281545,15.36821174621582,-23.054615020751953,-117.16604614257812,2.6692445278167725,-4.003269195556641,-0.6178220510482788,-0.00042123587051997804,-0.9877020682732454,-56.306651092597875
2026-06-27T15:06:39.909359,1782583404.0361567,15.65655517578125,-23.4870662689209,-117.2320785522461,2.6703338623046875,-4.004916191101074,-0.6052037477493286,-0.00042025334464207734,-0.9846589924604594,-56.30675529126365
2026-06-27T15:06:40.017947,1782583404.1381588,15.928985595703125,-23.895652770996094,-117.29322814941406,2.6713297367095947,-4.006422519683838,-0.5935903191566467,-0.0004191230942975068,-0.9818354170680953,-56.30686034608043
2026-06-27T15:06:40.127281,1782583404.2431612,16.20953369140625,-24.316415786743164,-117.35492706298828,2.6723203659057617,-4.00792121887207,-0.5817375779151917,-0.000412006792044912,-0.9790280871811333,-56.30685885140617
2026-06-27T15:06:40.235484,1782583404.342163,16.466123580932617,-24.701248168945312,-117.41026306152344,2.6731972694396973,-4.00924825668335,-0.5710169672966003,-0.0004050879196227568,-0.9765494976253491,-56.30687613723828
2026-06-27T15:06:40.345353,1782583404.4471655,16.7548885345459,-25.13433265686035,-117.47128295898438,2.6741528511047363,-4.01069450378418,-0.5591766238212585,-0.00039330292341423987,-0.9738441973592326,-56.30698920016499
2026-06-27T15:06:40.454775,1782583404.5521677,17.035724639892578,-25.5555362701416,-117.52938842773438,2.675050973892212,-4.012054443359375,-0.5477877259254456,-0.00039148595064038944,-0.9713116191721858,-56.30709295708625
2026-06-27T15:06:40.562474,1782583404.6571698,17.316661834716797,-25.97688102722168,-117.58631134033203,2.6759192943573,-4.013368606567383,-0.5366160273551941,-0.00039049870521046774,-0.9688143385000785,-56.307187521714795
2026-06-27T15:06:40.671261,1782583404.7621722,17.597681045532227,-26.398361206054688,-117.64207458496094,2.6767585277557373,-4.014639854431152,-0.525590181350708,-0.00038065731058081536,-0.9663965613985999,-56.3071890454723
2026-06-27T15:06:40.780499,1782583404.8671744,17.878786087036133,-26.819971084594727,-117.69669342041016,2.6775693893432617,-4.015867710113525,-0.5147297382354736,-0.00036617519119360543,-0.9640445937224023,-56.30728816932538
2026-06-27T15:06:40.889036,1782583404.9691765,18.151947021484375,-27.229658126831055,-117.74867248535156,2.6783313751220703,-4.017023086547852,-0.5043653249740601,-0.00036600735395894316,-0.9618035970785315,-56.30736646321939
2026-06-27T15:06:40.997753,1782583405.077179,18.44125747680664,-27.663570404052734,-117.80255126953125,2.679110050201416,-4.018202781677246,-0.49349650740623474,-0.00036557274542730716,-0.9595364147138086,-56.30737164287537
2026-06-27T15:06:41.106963,1782583405.1851811,18.730648040771484,-28.097606658935547,-117.85527801513672,2.6798624992370605,-4.019343376159668,-0.4828665554523468,-0.0003572729055925587,-0.957307203518886,-56.30748217560599
2026-06-27T15:06:41.215180,1782583405.2871833,19.0040340423584,-28.507638931274414,-117.9040298461914,2.680549144744873,-4.020384311676025,-0.4729856848716736,-0.00034105992673979455,-0.9552352508990855,-56.30758519646627
2026-06-27T15:06:41.326881,1782583405.3951857,19.293575286865234,-28.94190788269043,-117.95455169677734,2.681251049041748,-4.021448135375977,-0.4626551568508148,-0.0003390218377559474,-0.9531391647366333,-56.307618568136505
2026-06-27T15:06:41.433597,1782583405.4971879,19.55905532836914,-29.340087890625,-117.9999008178711,2.681872844696045,-4.022390842437744,-0.45332661271095276,-0.0003387749114453398,-0.951247664569624,-56.30761777768117
2026-06-27T15:06:41.542779,1782583405.59619,19.832643508911133,-29.75042724609375,-118.04566192626953,2.682492256164551,-4.023331642150879,-0.4439471960067749,-0.0003287659434306352,-0.949325246909613,-56.30771495144886
2026-06-27T15:06:41.651538,1782583405.7011921,20.114343643188477,-30.172935485839844,-118.09176635742188,2.6831071376800537,-4.024265289306641,-0.43434980511665344,-0.00031130879612128646,-0.9474230942565938,-56.30781134107652
2026-06-27T15:06:41.761412,1782583405.8091946,20.404159545898438,-30.607616424560547,-118.13815307617188,2.6837189197540283,-4.025192737579346,-0.4247099757194519,-0.00031131466642172063,-0.9455076690146327,-56.30783913782153
2026-06-27T15:06:41.869125,1782583405.9141967,20.68598747253418,-31.03031349182129,-118.1822738647461,2.6842916011810303,-4.026060104370117,-0.4155012369155884,-0.00030902170087627605,-0.9436823204083277,-56.30783892159695
2026-06-27T15:06:41.978330,1782583406.0221992,20.975929260253906,-31.46518898010254,-118.22663879394531,2.6848597526550293,-4.026922225952148,-0.40621060132980347,-0.00029833425461975354,-0.9418611118723833,-56.30795251708367
2026-06-27T15:06:42.087039,1782583406.1272013,21.25787353515625,-31.8880672454834,-118.26881408691406,2.6853911876678467,-4.027729034423828,-0.39735332131385803,-0.00028412940366908524,-0.9401241027113545,-56.308025008546075
2026-06-27T15:06:42.196207,1782583406.2322035,21.53986930847168,-32.3110237121582,-118.3100814819336,2.6859030723571777,-4.028506278991699,-0.3885965943336487,-0.0002858518102559922,-0.9384682619069452,-56.30802598477429
2026-06-27T15:06:42.305402,1782583406.3372056,21.821918487548828,-32.734066009521484,-118.35043334960938,2.686397075653076,-4.029256343841553,-0.3800393044948578,-0.00028837082680694873,-0.9368244378839614,-56.30807391551258
2026-06-27T15:06:42.415091,1782583406.442208,22.104028701782227,-33.15717315673828,-118.38988494873047,2.6868724822998047,-4.029977321624756,-0.3716084957122803,-0.00027989883708754343,-0.9352506709950444,-56.30817877063106
2026-06-27T15:06:42.522150,1782583406.5472102,22.386180877685547,-33.58038330078125,-118.428466796875,2.6873302459716797,-4.030672550201416,-0.363349974155426,-0.0002799442065148826,-0.9337102795105922,-56.308256912661584
2026-06-27T15:06:42.630916,1782583406.6522124,22.668373107910156,-34.003623962402344,-118.46619415283203,2.6877708435058594,-4.031342506408691,-0.3552432954311371,-0.00027207785562624994,-0.9322141835644199,-56.30825298507239
2026-06-27T15:06:42.739643,1782583406.7542148,22.94255828857422,-34.414886474609375,-118.50202941894531,2.688182830810547,-4.0319695472717285,-0.3474976420402527,-0.00026754493206425557,-0.9308011612054307,-56.30825574742826
2026-06-27T15:06:42.846657,1782583406.859217,23.2248477935791,-34.838260650634766,-118.5381088256836,2.688591480255127,-4.032591819763184,-0.3396884500980377,-0.0002578334650945839,-0.9293885858252796,-56.3082985125886
2026-06-27T15:06:42.956797,1782583406.961219,23.49909782409668,-35.24964904785156,-118.57237243652344,2.6889729499816895,-4.033172130584717,-0.3321748673915863,-0.0002556637218037534,-0.9280665070348805,-56.308400744140506
2026-06-27T15:06:43.065052,1782583407.0602212,23.765342712402344,-35.648956298828125,-118.60490417480469,2.689331531524658,-4.033717155456543,-0.32515475153923035,-0.00023938554387198786,-0.9267816062030091,-56.308479028931295
2026-06-27T15:06:43.172827,1782583407.1622233,24.039669036865234,-36.0604362487793,-118.6376953125,2.6896870136260986,-4.034256935119629,-0.317995548248291,-0.0002398038030890929,-0.925520554494937,-56.30847668756236
2026-06-27T15:06:43.282537,1782583407.2672255,24.322118759155273,-36.48407745361328,-118.67070770263672,2.690037727355957,-4.034790992736816,-0.31075596809387207,-0.00023055204346472715,-0.9242562044735242,-56.3084805533256
2026-06-27T15:06:43.391115,1782583407.369228,24.596519470214844,-36.8956298828125,-118.70206451416016,2.690366744995117,-4.035289287567139,-0.303878515958786,-0.00023035362793268608,-0.9230621299596853,-56.30847868871521
2026-06-27T15:06:43.501320,1782583407.47723,24.887107849121094,-37.331512451171875,-118.73448181152344,2.690699815750122,-4.035797595977783,-0.2967064082622528,-0.00022921060430600515,-0.9218437195600936,-56.308574750037344
2026-06-27T15:06:43.609509,1782583407.5792322,25.161575317382812,-37.74317932128906,-118.76439666748047,2.69100284576416,-4.036258697509766,-0.2900789976119995,-0.00021900843000691915,-0.9207386015139369,-56.308656032253204
2026-06-27T15:06:43.717255,1782583407.6812344,25.436084747314453,-38.1549072265625,-118.79366302490234,2.691293716430664,-4.036701679229736,-0.2835748493671417,-0.00022675153532434008,-0.9196592398514801,-56.308648760303846
2026-06-27T15:06:43.825654,1782583407.7892368,25.726755142211914,-38.59092712402344,-118.82391357421875,2.691589593887329,-4.037153244018555,-0.27684080600738525,-0.0002157089122410059,-0.9185531796259238,-56.30864760922186
2026-06-27T15:06:43.935846,1782583407.894239,26.0094051361084,-39.014835357666016,-118.85265350341797,2.691866159439087,-4.037574768066406,-0.2704216241836548,-0.0002053998758727247,-0.9175110652807549,-56.30867735019706
2026-06-27T15:06:44.043562,1782583407.996241,26.283979415893555,-39.42669677734375,-118.87992095947266,2.6921234130859375,-4.037968158721924,-0.26430344581604004,-0.00020584784871840602,-0.9165314549228423,-56.308781952261036
2026-06-27T15:06:44.152857,1782583408.1012435,26.56668472290039,-39.850738525390625,-118.90736389160156,2.692378520965576,-4.038357257843018,-0.25816836953163147,-0.00018895077443197123,-0.9155473355152689,-56.30884672642414
2026-06-27T15:06:44.261238,1782583408.2062457,26.849401473999023,-40.2747802734375,-118.93414306640625,2.6926229000091553,-4.038729190826416,-0.25211015343666077,-0.0001758666127529668,-0.9146034258553482,-56.30884056065638
2026-06-27T15:06:44.370085,1782583408.3082478,27.124053955078125,-40.68671798706055,-118.95955657958984,2.692850351333618,-4.03907585144043,-0.24635446071624756,-0.00017833229376646958,-0.9137178940502292,-56.308840804109444
2026-06-27T15:06:44.478085,1782583408.4162502,27.4149169921875,-41.12301254272461,-118.98585510253906,2.6930816173553467,-4.0394287109375,-0.24041543900966644,-0.00017984746123831397,-0.9128133921139626,-56.30884707488052
2026-06-27T15:06:44.587961,1782583408.5212524,27.69770050048828,-41.54718780517578,-119.01079559326172,2.6932971477508545,-4.039758205413818,-0.23475345969200134,-0.00017363069231812663,-0.9119614035338433,-56.308926496610276
2026-06-27T15:06:44.697273,1782583408.6232545,27.97242546081543,-41.95924377441406,-119.03446197509766,2.693498373031616,-4.040064334869385,-0.22935552895069122,-0.0001565296767994505,-0.9111667397261117,-56.30894056941078
2026-06-27T15:06:44.805488,1782583408.7282567,28.25527572631836,-42.38344192504883,-119.05825805664062,2.6936967372894287,-4.040367126464844,-0.2239302694797516,-0.00016445286719761487,-0.9103709771948725,-56.308943948882344
2026-06-27T15:06:44.914023,1782583408.833259,28.53812599182129,-42.8077507019043,-119.08148956298828,2.6938862800598145,-4.040656089782715,-0.21861885488033295,-0.00017612546942308028,-0.9096040976281905,-56.30905426892999
2026-06-27T15:06:45.022785,1782583408.9352612,28.812894821166992,-43.21993637084961,-119.10353088378906,2.6940629482269287,-4.040926933288574,-0.2135673463344574,-0.00016168834237342266,-0.9088860513871493,-56.309087799674515
2026-06-27T15:06:45.131526,1782583409.0402634,29.095808029174805,-43.64424514770508,-119.12568664550781,2.69423770904541,-4.041194438934326,-0.20848119258880615,-0.0001417817368913934,-0.9081778765756107,-56.30908942636146
2026-06-27T15:06:45.240772,1782583409.1422656,29.370641708374023,-44.05643081665039,-119.1467056274414,2.6944005489349365,-4.041441917419434,-0.2036464363336563,-0.0001502187418083575,-0.907509142153505,-56.30909109184731
2026-06-27T15:06:45.348710,1782583409.2472677,29.6535587310791,-44.480796813964844,-119.16783905029297,2.694561004638672,-4.041688442230225,-0.19877712428569794,-0.00016732370663051686,-0.9068419607447454,-56.30908656259636
2026-06-27T15:06:45.458414,1782583409.34927,29.92839241027832,-44.89311218261719,-119.18788146972656,2.6947100162506104,-4.041916847229004,-0.19415417313575745,-0.0001599528799496135,-0.906216336011488,-56.309088643407186
