time,sim_t,x,y,z,vx,vy,vz,roll_deg,pitch_deg,yaw_deg
2026-06-27T14:43:11.035820,1782582031.8908849,0.0,0.0,2.0396859645843506,0.0,0.0,0.0,0.0,0.0,0.0003895640909249624
2026-06-27T14:43:11.146399,1782582031.998887,0.0,0.0,2.0396859645843506,0.0,0.0,0.0,0.0,0.0,0.0003895640909249624
2026-06-27T14:43:11.255104,1782582032.1068895,0.0,0.0,2.0396859645843506,0.0,0.0,0.0,0.0,0.0,0.0003895640909249624
2026-06-27T14:43:11.363828,1782582032.2118917,0.0,0.0,2.0396859645843506,0.0,0.0,0.0,0.0,0.0,0.0003895640909249624
2026-06-27T14:43:11.473561,1782582032.319894,0.0,0.0,2.0396859645843506,0.0,0.0,0.0,0.0,0.0,0.0003895640909249624
2026-06-27T14:43:11.582669,1782582032.4278963,0.0,0.0,2.0396859645843506,0.0,0.0,0.0,0.0,0.0,0.0003895640909249624
2026-06-27T14:43:11.692424,1782582032.5358987,0.0,0.0,2.0396859645843506,0.0,0.0,0.0,0.0,0.0,0.0003895640909249624
2026-06-27T14:43:11.801210,1782582032.6439009,0.0,0.0,2.0396859645843506,0.0,0.0,0.0,0.0,0.0,0.0003895640909249624
2026-06-27T14:43:11.910409,1782582032.7519033,0.0,0.0,2.0396859645843506,0.0,0.0,0.0,0.0,0.0,0.0003895640909249624
2026-06-27T14:43:12.019624,1782582032.8539054,0.0,0.0,2.0396859645843506,0.0,0.0,0.0,0.0,0.0,0.0003895640909249624
2026-06-27T14:43:12.127934,1782582032.9619076,0.0,0.0,2.0396859645843506,0.0,0.0,0.0,0.0,0.0,0.0003895640909249624
2026-06-27T14:43:12.236640,1782582033.06991,0.0,0.0,2.0396859645843506,0.0,0.0,0.0,0.0,0.0,0.0003895640909249624
2026-06-27T14:43:12.345629,1782582033.1779122,0.0,0.0,2.0396859645843506,0.0,0.0,0.0,0.0,0.0,0.0003895640909249624
2026-06-27T14:43:12.454816,1782582033.2859147,0.0,0.0,2.0396859645843506,0.0,0.0,0.0,0.0,0.0,0.0003895640909249624
2026-06-27T14:43:12.563447,1782582033.3939168,0.0,0.0,2.039424419403076,0.0,0.0,-0.05572962760925293,0.0,0.0,0.0003895640909249624
2026-06-27T14:43:12.672983,1782582033.4989192,0.0,0.0,2.010392665863037,0.0,0.0,-0.39326420426368713,0.0,0.0,0.0003895640909249624
2026-06-27T14:43:12.782574,1782582033.6069214,0.0,0.0,1.9646782875061035,0.0,0.0,-0.43947604298591614,0.0,0.0,0.0003895640909249624
2026-06-27T14:43:12.889768,1782582033.7149239,0.0,0.0,1.9165829420089722,0.0,0.0,-0.4495789110660553,0.0,0.0,0.0003895640909249624
2026-06-27T14:43:12.998223,1782582033.819926,0.0,0.0,1.8690729141235352,0.0,0.0,-0.4551045298576355,0.0,0.0,0.0003895640909249624
2026-06-27T14:43:13.107514,1782582033.9249282,0.0,0.0,1.8210399150848389,0.0,0.0,-0.45968103408813477,0.0,0.0,0.0003895640909249624
2026-06-27T14:43:13.216714,1782582034.0329306,0.0,0.0,1.7711650133132935,0.0,0.0,-0.4638298749923706,0.0,0.0,0.0003895640909249624
2026-06-27T14:43:13.326486,1782582034.1409328,0.0,0.0,1.72086763381958,0.0,0.0,-0.46751177310943604,0.0,0.0,0.0003895640909249624
2026-06-27T14:43:13.434719,1782582034.2489352,0.0,0.0,1.6701949834823608,0.0,0.0,-0.470782995223999,0.0,0.0,0.0003895640909249624
2026-06-27T14:43:13.542999,1782582034.3569374,0.0,0.0,1.6191890239715576,0.0,0.0,-0.4736897945404053,0.0,0.0,0.0003895640909249624
2026-06-27T14:43:13.653335,1782582034.4649398,0.0,0.0,1.567887306213379,0.0,0.0,-0.4762727916240692,0.0,0.0,0.0003895640909249624
2026-06-27T14:43:13.760502,1782582034.569942,0.0,0.0,1.5177578926086426,0.0,0.0,-0.4785078465938568,0.0,0.0,0.0003895640909249624
2026-06-27T14:43:13.869297,1782582034.6779444,0.0,0.0,1.4659651517868042,0.0,0.0,-0.4805542826652527,0.0,0.0,0.0003895640909249624
2026-06-27T14:43:13.977654,1782582034.7829466,0.0,0.0,1.4154112339019775,0.0,0.0,-0.4823249876499176,0.0,0.0,0.0003895640909249624
2026-06-27T14:43:14.090445,1782582034.893949,0.0,0.0,1.3617777824401855,0.0,0.0,-0.4839886426925659,0.0,0.0,0.0003895640909249624
2026-06-27T14:43:14.195657,1782582034.9989512,0.0,0.0,1.3108837604522705,0.0,0.0,-0.4853869676589966,0.0,0.0,0.0003895640909249624
2026-06-27T14:43:14.304409,1782582035.1069534,0.0,0.0,1.258390188217163,0.0,0.0,-0.48666730523109436,0.0,0.0,0.0003895640909249624
2026-06-27T14:43:14.413931,1782582035.2149558,0.0,0.0,1.2057663202285767,0.0,0.0,-0.487805038690567,0.0,0.0,0.0003895640909249624
2026-06-27T14:43:14.522666,1782582035.322958,0.0,0.0,1.1530265808105469,0.0,0.0,-0.4888160526752472,0.0,0.0,0.0003895640909249624
2026-06-27T14:43:14.631843,1782582035.4309604,0.0,0.0,1.1001838445663452,0.0,0.0,-0.4897145926952362,0.0,0.0,0.0003895640909249624
2026-06-27T14:43:14.740072,1782582035.5389626,0.0,0.0,1.047249436378479,0.0,0.0,-0.49051299691200256,0.0,0.0,0.0003895640909249624
2026-06-27T14:43:14.848161,1782582035.646965,0.0,0.0,0.9942340850830078,0.0,0.0,-0.491222620010376,0.0,0.0,0.0003895640909249624
2026-06-27T14:43:14.957454,1782582035.7549672,0.0,0.0,0.941146194934845,0.0,0.0,-0.49185314774513245,0.0,0.0,0.0003895640909249624
2026-06-27T14:43:15.067645,1782582035.8629696,0.0,0.0,0.887994110584259,0.0,0.0,-0.4924134314060211,0.0,0.0,0.0003895640909249624
2026-06-27T14:43:15.175369,1782582035.9679718,0.0,0.0,0.8362635374069214,0.0,0.0,-0.4928984045982361,0.0,0.0,0.0003895640909249624
2026-06-27T14:43:15.283956,1782582036.072974,0.0,0.0,0.7844849824905396,0.0,0.0,-0.49333080649375916,0.0,0.0,0.0003895640909249624
2026-06-27T14:43:15.392163,1782582036.1809764,0.0,0.0,0.731182336807251,0.0,0.0,-0.4937267005443573,0.0,0.0,0.0003895640909249624
2026-06-27T14:43:15.502730,1782582036.2889786,0.0,0.0,0.6778396368026733,0.0,0.0,-0.4940783381462097,0.0,0.0,0.0003895640909249624
2026-06-27T14:43:15.609912,1782582036.393981,0.0,0.0,0.6259440779685974,0.0,0.0,-0.4943827986717224,0.0,0.0,0.0003895640909249624
2026-06-27T14:43:15.718092,1782582036.5019832,0.0,0.0,0.5725343227386475,0.0,0.0,-0.49466148018836975,0.0,0.0,0.0003895640909249624
2026-06-27T14:43:15.827810,1782582036.6099856,0.0,0.0,0.5200163125991821,0.0,0.0,-0.40269893407821655,0.0,0.0,0.0003895640909249624
2026-06-27T14:43:15.936528,1782582036.7179878,0.0,0.0,0.5013667941093445,0.0,0.0,-0.02146652527153492,0.0,0.0,0.0003895640909249624
2026-06-27T14:43:16.046732,1782582036.8259902,0.0,0.0,0.49839988350868225,0.0,0.0,-0.2183845341205597,0.0,0.0,0.00038216936014694153
2026-06-27T14:43:16.154432,1782582036.9309924,0.0,0.0,0.4386301338672638,0.0,0.0,-0.9182417988777161,0.0,0.0,0.00030667706746331547
2026-06-27T14:43:16.263174,1782582037.0329945,0.0,0.0,0.31095167994499207,0.0,0.0,-1.5814682245254517,0.0,0.0,0.00019048119175470212
2026-06-27T14:43:16.372020,1782582037.137997,0.0,0.0,0.11026713997125626,0.0,0.0,-2.2352042198181152,0.0,0.0,6.699707814940322e-05
2026-06-27T14:43:16.481045,1782582037.245999,0.0,0.0,-0.1656448245048523,0.0,0.0,-2.8664450645446777,0.0,0.0,-3.435122817724569e-05
2026-06-27T14:43:16.591243,1782582037.3510013,0.0,0.0,-0.4967840015888214,0.0,0.0,-3.43251371383667,0.0,0.0,-9.338631926681626e-05
2026-06-27T14:43:16.698952,1782582037.4590037,0.0,0.0,-0.8965404629707336,0.0,0.0,-3.960844039916992,0.0,0.0,-0.00011263079491667469
2026-06-27T14:43:16.808163,1782582037.5640059,0.0,0.0,-1.3370205163955688,0.0,0.0,-4.420079231262207,0.0,0.0,-9.997676891161341e-05
2026-06-27T14:43:16.916394,1782582037.669008,0.0,0.0,-1.822910189628601,0.0,0.0,-4.825989246368408,0.0,0.0,-6.884938108568099e-05
2026-06-27T14:43:17.026124,1782582037.7770104,0.0,0.0,-2.3634111881256104,0.0,0.0,-5.138006687164307,0.0,0.0,-3.126332056009783e-05
2026-06-27T14:43:17.134359,1782582037.8820126,0.0,0.0,-2.90568208694458,0.0,0.0,-5.171379566192627,0.0,0.0,5.036524873621007e-07
2026-06-27T14:43:17.243397,1782582037.987015,0.0,0.0,-3.448045492172241,0.0,0.0,-5.157635688781738,0.0,0.0,2.1641742255001916e-05
2026-06-27T14:43:17.352431,1782582038.0920172,0.0,0.0,-3.9887404441833496,0.0,0.0,-5.141198635101318,0.0,0.0,3.107839120292078e-05
2026-06-27T14:43:17.461699,1782582038.2000194,0.0,0.0,-4.54314661026001,0.0,0.0,-5.125621795654297,0.0,0.0,3.0369698889241734e-05
2026-06-27T14:43:17.569894,1782582038.3020217,0.0,0.0,-5.065283298492432,0.0,0.0,-5.112356185913086,0.0,0.0,2.3217356271763625e-05
2026-06-27T14:43:17.679147,1782582038.404024,0.0,0.0,-5.586134433746338,0.0,0.0,-5.100385665893555,0.0,0.0,1.3269283087507896e-05
2026-06-27T14:43:17.788025,1782582038.512026,0.0,0.0,-6.136362075805664,0.0,0.0,-5.088984489440918,0.0,0.0,3.0655912170582116e-06
2026-06-27T14:43:17.896710,1782582038.6170282,0.0,0.0,-6.670185089111328,0.0,0.0,-5.0790300369262695,0.0,0.0,-4.384888759372774e-06
2026-06-27T14:43:18.005893,1782582038.7250307,0.0,0.0,-7.218226432800293,0.0,0.0,-5.069835186004639,0.0,0.0,-9.429532647651411e-06
2026-06-27T14:43:18.114455,1782582038.8300328,0.0,0.0,-7.750143051147461,0.0,0.0,-5.061807632446289,0.0,0.0,-1.261107579462111e-05
2026-06-27T14:43:18.223132,1782582038.9380352,0.0,0.0,-8.29642105102539,0.0,0.0,-5.054394245147705,0.0,0.0,-1.3958577376295675e-05
2026-06-27T14:43:18.332011,1782582039.0460374,0.0,0.0,-8.841941833496094,0.0,0.0,-5.047747611999512,0.0,0.0,-1.105651593029553e-05
2026-06-27T14:43:18.441322,1782582039.1540399,0.0,0.0,-9.3867826461792,0.0,0.0,-5.0417890548706055,0.0,0.0,-8.976217806899768e-06
2026-06-27T14:43:18.550019,1782582039.259042,0.0,0.0,-9.91590404510498,0.0,0.0,-5.036585807800293,0.0,0.0,-7.59875855523608e-06
2026-06-27T14:43:18.658211,1782582039.3670444,0.0,0.0,-10.459603309631348,0.0,0.0,-5.0317816734313965,0.0,0.0,-6.751652572929824e-06
2026-06-27T14:43:18.767447,1782582039.4750466,0.0,0.0,-11.00281047821045,0.0,0.0,-5.027474880218506,0.0,0.0,-6.06384668195523e-06
2026-06-27T14:43:18.876877,1782582039.583049,0.0,0.0,-11.545576095581055,0.0,0.0,-5.023613452911377,0.0,0.0,-5.376040790980638e-06
2026-06-27T14:43:18.985601,1782582039.6910512,0.0,0.0,-12.0879487991333,0.0,0.0,-5.0201520919799805,0.0,0.0,-4.688234900006045e-06
2026-06-27T14:43:19.094156,1782582039.7990537,0.0,0.0,-12.629966735839844,0.0,0.0,-5.017049312591553,0.0,0.0,-4.000429009031452e-06
2026-06-27T14:43:19.203372,1782582039.9040558,0.0,0.0,-13.156621932983398,0.0,0.0,-5.014340877532959,0.0,0.0,-3.3317278194731022e-06
2026-06-27T14:43:19.312667,1782582040.009058,0.0,0.0,-13.68301010131836,0.0,0.0,-5.011905193328857,0.0,0.0,-2.6630205232497635e-06
2026-06-27T14:43:19.421284,1782582040.1140604,0.0,0.0,-14.20915412902832,0.0,0.0,-5.0097150802612305,0.0,0.0,-1.9943132270264252e-06
2026-06-27T14:43:19.528976,1782582040.2220626,0.0,0.0,-14.750102996826172,0.0,0.0,-5.007692813873291,0.0,0.0,-1.306500008053849e-06
2026-06-27T14:43:19.636868,1782582040.3270648,0.0,0.0,-15.275827407836914,0.0,0.0,-5.005927562713623,0.0,0.0,-6.377927118305114e-07
2026-06-27T14:43:19.747128,1782582040.4350672,0.0,0.0,-15.816390037536621,0.0,0.0,-5.004297733306885,0.0,0.0,5.002032903100221e-08
2026-06-27T14:43:19.854328,1782582040.5430694,0.0,0.0,-16.356781005859375,0.0,0.0,-5.00283670425415,0.0,0.0,5.707351182595324e-07
2026-06-27T14:43:19.963524,1782582040.6480718,0.0,0.0,-16.882022857666016,0.0,0.0,-5.001560688018799,0.0,0.0,8.137589605819141e-07
2026-06-27T14:43:20.072744,1782582040.756074,0.0,0.0,-17.422138214111328,0.0,0.0,-5.000383377075195,0.0,0.0,9.206307376554535e-07
2026-06-27T14:43:20.181546,1782582040.8640764,0.0,0.0,-17.962135314941406,0.0,0.0,-4.999327182769775,0.0,0.0,9.788003856690513e-07
2026-06-27T14:43:20.289976,1782582040.9690785,0.0,0.0,-18.487022399902344,0.0,0.0,-4.9984049797058105,0.0,0.0,1.0213618050832726e-06
2026-06-27T14:43:20.398251,1782582041.0770807,0.0,0.0,-19.026817321777344,0.0,0.0,-4.997554302215576,0.0,0.0,1.0310970504077958e-06
2026-06-27T14:43:20.507156,1782582041.1850832,0.0,0.0,-19.566524505615234,0.0,0.0,-4.996791362762451,0.0,0.0,1.0408322957323188e-06
2026-06-27T14:43:20.616441,1782582041.2900853,0.0,0.0,-20.091161727905273,0.0,0.0,-4.9961256980896,0.0,0.0,1.0502971175756054e-06
2026-06-27T14:43:20.725699,1782582041.3980877,0.0,0.0,-20.630722045898438,0.0,0.0,-4.995510578155518,0.0,0.0,1.0600323629001285e-06
2026-06-27T14:43:20.834515,1782582041.50309,0.0,0.0,-21.15523338317871,0.0,0.0,-4.994973182678223,0.0,0.0,1.069497184743415e-06
2026-06-27T14:43:20.943188,1782582041.6140924,0.0,0.0,-21.709653854370117,0.0,0.0,-4.99446439743042,0.0,0.0,1.079502853549175e-06
2026-06-27T14:43:21.051885,1782582041.7220945,0.0,0.0,-22.249040603637695,0.0,0.0,-4.994020938873291,0.0,0.0,1.0101259486155975e-06
2026-06-27T14:43:21.161571,1782582041.827097,0.0,0.0,-22.77341651916504,0.0,0.0,-4.9936347007751465,0.0,0.0,9.348277159760086e-07
2026-06-27T14:43:21.270740,1782582041.9350991,0.0,0.0,-23.312707901000977,0.0,0.0,-4.993277072906494,0.0,0.0,8.573781052610029e-07
2026-06-27T14:43:21.378888,1782582042.0401013,0.0,0.0,-23.837007522583008,0.0,0.0,-4.992965221405029,0.0,0.0,7.820816028431607e-07
2026-06-27T14:43:21.487555,1782582042.1481037,0.0,0.0,-24.376230239868164,0.0,0.0,-4.992677211761475,0.0,0.0,7.046338241276514e-07
2026-06-27T14:43:21.596717,1782582042.256106,0.0,0.0,-24.91545295715332,0.0,0.0,-4.99241828918457,0.0,0.0,6.271860454121422e-07
2026-06-27T14:43:21.705942,1782582042.3641083,0.0,0.0,-25.454618453979492,0.0,0.0,-4.992187023162842,0.0,0.0,5.49738266696633e-07
2026-06-27T14:43:21.815153,1782582042.4691105,0.0,0.0,-25.978796005249023,0.0,0.0,-4.991983413696289,0.0,0.0,4.744418151676657e-07
2026-06-27T14:43:21.922992,1782582042.577113,0.0,0.0,-26.5179500579834,0.0,0.0,-4.99179744720459,0.0,0.0,3.969940364521565e-07
2026-06-27T14:43:22.032186,1782582042.682115,0.0,0.0,-27.042081832885742,0.0,0.0,-4.991634845733643,0.0,0.0,3.216975849231892e-07
2026-06-27T14:43:22.141380,1782582042.7901173,0.0,0.0,-27.581167221069336,0.0,0.0,-4.991483688354492,0.0,0.0,2.4424980620767995e-07
2026-06-27T14:43:22.250093,1782582042.8981197,0.0,0.0,-28.12025260925293,0.0,0.0,-4.991347312927246,0.0,0.0,1.6680202749217075e-07
2026-06-27T14:43:22.358794,1782582043.0061219,0.0,0.0,-28.659337997436523,0.0,0.0,-4.991227149963379,0.0,0.0,8.935424877666152e-08
2026-06-27T14:43:22.467968,1782582043.1141243,0.0,0.0,-29.198423385620117,0.0,0.0,-4.991119384765625,0.0,0.0,1.1906406450058676e-08
2026-06-27T14:43:22.577119,1782582043.2221265,0.0,0.0,-29.73744773864746,0.0,0.0,-4.991020202636719,0.0,0.0,-6.5541467682091e-08
2026-06-27T14:43:22.686335,1782582043.333129,0.0,0.0,-30.29143714904785,0.0,0.0,-4.990931987762451,0.0,0.0,-1.451405799452515e-07
2026-06-27T14:43:22.794507,1782582043.438131,0.0,0.0,-30.815481185913086,0.0,0.0,-4.990854263305664,0.0,0.0,-2.204370441964375e-07
2026-06-27T14:43:22.903683,1782582043.5461335,0.0,0.0,-31.3544979095459,0.0,0.0,-4.990785121917725,0.0,0.0,-2.9788482291194673e-07
2026-06-27T14:43:23.012759,1782582043.6541357,0.0,0.0,-31.89351463317871,0.0,0.0,-4.990716934204102,0.0,0.0,-3.7533260162745593e-07
2026-06-27T14:43:23.121982,1782582043.7621381,0.0,0.0,-32.43252944946289,0.0,0.0,-4.990663528442383,0.0,0.0,-4.527804057874026e-07
2026-06-27T14:43:23.230081,1782582043.8701403,0.0,0.0,-32.9715461730957,0.0,0.0,-4.990612030029297,0.0,0.0,-5.302281845029118e-07
2026-06-27T14:43:23.339263,1782582043.9781427,0.0,0.0,-33.510562896728516,0.0,0.0,-4.990564346313477,0.0,0.0,-6.076759632184211e-07
2026-06-27T14:43:23.447433,1782582044.086145,0.0,0.0,-34.04957962036133,0.0,0.0,-4.990524768829346,0.0,0.0,-6.851237419339303e-07
2026-06-27T14:43:23.556489,1782582044.1941473,0.0,0.0,-34.58859634399414,0.0,0.0,-4.990489482879639,0.0,0.0,-7.625715206494395e-07
2026-06-27T14:43:23.665666,1782582044.3021495,0.0,0.0,-35.12761306762695,0.0,0.0,-4.990455150604248,0.0,0.0,-8.400192993649487e-07
2026-06-27T14:43:23.774349,1782582044.410152,0.0,0.0,-35.666629791259766,0.0,0.0,-4.990420818328857,0.0,0.0,-9.17468604746705e-07
2026-06-27T14:43:23.883257,1782582044.5151541,0.0,0.0,-36.190673828125,0.0,0.0,-4.9903974533081055,0.0,0.0,-9.92766837386294e-07
2026-06-27T14:43:23.992005,1782582044.6231565,0.0,0.0,-36.72969055175781,0.0,0.0,-4.990374565124512,0.0,0.0,-1.0702164481012997e-06
2026-06-27T14:43:24.101748,1782582044.7311587,0.0,0.0,-37.268707275390625,0.0,0.0,-4.990353584289551,0.0,0.0,-1.1476660588163055e-06
2026-06-27T14:43:24.210130,1782582044.8391612,0.0,0.0,-37.80772399902344,0.0,0.0,-4.990334510803223,0.0,0.0,-1.2251156695313113e-06
2026-06-27T14:43:24.318823,1782582044.9441633,0.0,0.0,-38.33176803588867,0.0,0.0,-4.9903178215026855,0.0,0.0,-1.3004139021709e-06
2026-06-27T14:43:24.427996,1782582045.0521657,0.0,0.0,-38.870784759521484,0.0,0.0,-4.99030065536499,0.0,0.0,-1.3778635128859062e-06
2026-06-27T14:43:24.537422,1782582045.160168,0.0,0.0,-39.4098014831543,0.0,0.0,-4.990283489227295,0.0,0.0,-1.4553131236009118e-06
2026-06-27T14:43:24.645643,1782582045.26517,0.0,0.0,-39.93384552001953,0.0,0.0,-4.990267276763916,0.0,0.0,-1.5306113562405007e-06
2026-06-27T14:43:24.754847,1782582045.3761725,0.0,0.0,-40.48783493041992,0.0,0.0,-4.9902567863464355,0.0,0.0,-1.6102123450309233e-06
2026-06-27T14:43:24.863589,1782582045.4811747,0.0,0.0,-41.011878967285156,0.0,0.0,-4.990246295928955,0.0,0.0,-1.6855105776705123e-06
2026-06-27T14:43:24.972852,1782582045.586177,0.0,0.0,-41.53592300415039,0.0,0.0,-4.990236282348633,0.0,0.0,-1.7608088103101012e-06
2026-06-27T14:43:25.082095,1782582045.6941793,0.0,0.0,-42.0749397277832,0.0,0.0,-4.990227699279785,0.0,0.0,-1.838258421025107e-06
2026-06-27T14:43:25.189855,1782582045.8021817,0.0,0.0,-42.613956451416016,0.0,0.0,-4.99022102355957,0.0,0.0,-1.9157080317401126e-06
2026-06-27T14:43:25.298217,1782582045.907184,0.0,0.0,-43.13800048828125,0.0,0.0,-4.990213394165039,0.0,0.0,-1.9910062643797015e-06
2026-06-27T14:43:25.407969,1782582046.015186,0.0,0.0,-43.67701721191406,0.0,0.0,-4.990206718444824,0.0,0.0,-2.0684558750947075e-06
2026-06-27T14:43:25.516663,1782582046.1231885,0.0,0.0,-44.216033935546875,0.0,0.0,-4.990201473236084,0.0,0.0,-2.145905485809713e-06
2026-06-27T14:43:25.625379,1782582046.234191,0.0,0.0,-44.770023345947266,0.0,0.0,-4.990196228027344,0.0,0.0,-2.225506474600136e-06
2026-06-27T14:43:25.733896,1782582046.339193,0.0,0.0,-45.2940673828125,0.0,0.0,-4.99019193649292,0.0,0.0,-2.3008047072397246e-06
2026-06-27T14:43:25.843015,1782582046.4441953,0.0,0.0,-45.818111419677734,0.0,0.0,-4.990187168121338,0.0,0.0,-2.376102939879314e-06
2026-06-27T14:43:25.952428,1782582046.5521977,0.0,0.0,-46.35712814331055,0.0,0.0,-4.990182876586914,0.0,0.0,-2.4535525505943195e-06
2026-06-27T14:43:26.061587,1782582046.6601999,0.0,0.0,-46.89614486694336,0.0,0.0,-4.990179061889648,0.0,0.0,-2.531002161309325e-06
2026-06-27T14:43:26.170271,1782582046.7682023,0.0,0.0,-47.43516159057617,0.0,0.0,-4.990174770355225,0.0,0.0,-2.608451772024331e-06
2026-06-27T14:43:26.280039,1782582046.8732045,0.0,0.0,-47.959205627441406,0.0,0.0,-4.990170001983643,0.0,0.0,-2.6837500046639205e-06
2026-06-27T14:43:26.387857,1782582046.981207,0.0,0.0,-48.49822235107422,0.0,0.0,-4.99016809463501,0.0,0.0,-2.7611996153789256e-06
2026-06-27T14:43:26.497062,1782582047.089209,0.0,0.0,-49.03723907470703,0.0,0.0,-4.990164756774902,0.0,0.0,-2.838649226093932e-06
2026-06-27T14:43:26.605757,1782582047.1942112,0.0,0.0,-49.561283111572266,0.0,0.0,-4.990162372589111,0.0,0.0,-2.9139474587335214e-06
2026-06-27T14:43:26.714981,1782582047.3022137,0.0,0.0,-50.10029983520508,0.0,0.0,-4.990159034729004,0.0,0.0,-2.9913970694485265e-06
2026-06-27T14:43:26.822833,1782582047.4102159,0.0,0.0,-50.63931655883789,0.0,0.0,-4.9901580810546875,0.0,0.0,-3.068846680163533e-06
2026-06-27T14:43:26.932519,1782582047.5152183,0.0,0.0,-51.163360595703125,0.0,0.0,-4.990156173706055,0.0,0.0,-3.1441449128031223e-06
2026-06-27T14:43:27.041648,1782582047.6232204,0.0,0.0,-51.70237731933594,0.0,0.0,-4.990153789520264,0.0,0.0,-3.2215945235181274e-06
2026-06-27T14:43:27.149641,1782582047.7282226,0.0,0.0,-52.22636413574219,0.0,0.0,-4.990151882171631,0.0,0.0,-3.296892756157717e-06
2026-06-27T14:43:27.258254,1782582047.836225,0.0,0.0,-52.76524353027344,0.0,0.0,-4.990149974822998,0.0,0.0,-3.374342366872723e-06
2026-06-27T14:43:27.367442,1782582047.9442272,0.0,0.0,-53.30412292480469,0.0,0.0,-4.990147590637207,0.0,0.0,-3.4517883135887353e-06
2026-06-27T14:43:27.476614,1782582048.0522296,0.0,0.0,-53.84300231933594,0.0,0.0,-4.990145683288574,0.0,0.0,-3.5292305963057552e-06
2026-06-27T14:43:27.585807,1782582048.1602318,0.0,0.0,-54.38188171386719,0.0,0.0,-4.9901442527771,0.0,0.0,-3.6066728790227747e-06
2026-06-27T14:43:27.695085,1782582048.2682343,0.0,0.0,-54.92076110839844,0.0,0.0,-4.990141868591309,0.0,0.0,-3.6841151617397955e-06
2026-06-27T14:43:27.804686,1782582048.3762364,0.0,0.0,-55.45964050292969,0.0,0.0,-4.990140438079834,0.0,0.0,-3.761557444456814e-06
2026-06-27T14:43:27.912392,1782582048.487239,0.0,0.0,-56.01348876953125,0.0,0.0,-4.990139007568359,0.0,0.0,-3.841150901693752e-06
2026-06-27T14:43:28.022118,1782582048.5952413,0.0,0.0,-56.5523681640625,0.0,0.0,-4.990138530731201,0.0,0.0,-3.918593184410772e-06
2026-06-27T14:43:28.130397,1782582048.7002435,0.0,0.0,-57.07627868652344,0.0,0.0,-4.990137577056885,0.0,0.0,-3.993884292607874e-06
2026-06-27T14:43:28.239124,1782582048.8082457,0.0,0.0,-57.61515808105469,0.0,0.0,-4.99013614654541,0.0,0.0,-4.0713265753248946e-06
2026-06-27T14:43:28.347685,1782582048.916248,0.0,0.0,-58.15403747558594,0.0,0.0,-4.990134239196777,0.0,0.0,-4.148768858041914e-06
2026-06-27T14:43:28.457250,1782582049.0242503,0.0,0.0,-58.69291687011719,0.0,0.0,-4.9901323318481445,0.0,0.0,-4.2262111407589335e-06
2026-06-27T14:43:28.565967,1782582049.1292527,0.0,0.0,-59.216827392578125,0.0,0.0,-4.99013090133667,0.0,0.0,-4.301502248956036e-06
2026-06-27T14:43:28.674084,1782582049.2372549,0.0,0.0,-59.755706787109375,0.0,0.0,-4.990129470825195,0.0,0.0,-4.378944531673055e-06
2026-06-27T14:43:28.783282,1782582049.3452573,0.0,0.0,-60.294586181640625,0.0,0.0,-4.990128517150879,0.0,0.0,-4.456386814390076e-06
2026-06-27T14:43:28.891808,1782582049.4532595,0.0,0.0,-60.833465576171875,0.0,0.0,-4.990127086639404,0.0,0.0,-4.533829097107095e-06
2026-06-27T14:43:29.002081,1782582049.561262,0.0,0.0,-61.372344970703125,0.0,0.0,-4.990126609802246,0.0,0.0,-4.6112713798241155e-06
2026-06-27T14:43:29.109838,1782582049.669264,0.0,0.0,-61.911224365234375,0.0,0.0,-4.99012565612793,0.0,0.0,-4.688713662541136e-06
2026-06-27T14:43:29.220145,1782582049.7772665,0.0,0.0,-62.450103759765625,0.0,0.0,-4.990124702453613,0.0,0.0,-4.766155945258155e-06
2026-06-27T14:43:29.327873,1782582049.8822687,0.0,0.0,-62.97401428222656,0.0,0.0,-4.990123271942139,0.0,0.0,-4.841447053455258e-06
2026-06-27T14:43:29.436619,1782582049.9872708,0.0,0.0,-63.4979248046875,0.0,0.0,-4.990122318267822,0.0,0.0,-4.916738161652362e-06
2026-06-27T14:43:29.545825,1782582050.0952733,0.0,0.0,-64.03680419921875,0.0,0.0,-4.9901204109191895,0.0,0.0,-4.994180444369381e-06
2026-06-27T14:43:29.654511,1782582050.2002754,0.0,0.0,-64.56071472167969,0.0,0.0,-4.990119934082031,0.0,0.0,-5.069471552566483e-06
2026-06-27T14:43:29.763726,1782582050.3082778,0.0,0.0,-65.09959411621094,0.0,0.0,-4.990118980407715,0.0,0.0,-5.146913835283503e-06
2026-06-27T14:43:29.872396,1782582050.41628,0.0,0.0,-65.63847351074219,0.0,0.0,-4.990118026733398,0.0,0.0,-5.224356118000522e-06
2026-06-27T14:43:29.981168,1782582050.5242825,0.0,0.0,-66.17735290527344,0.0,0.0,-4.990116596221924,0.0,0.0,-5.3017984007175435e-06
2026-06-27T14:43:30.090424,1782582050.6322846,0.0,0.0,-66.71623229980469,0.0,0.0,-4.990115642547607,0.0,0.0,-5.379240683434564e-06
2026-06-27T14:43:30.198669,1782582050.740287,0.0,0.0,-67.25511169433594,0.0,0.0,-4.990115165710449,0.0,0.0,-5.456682966151584e-06
2026-06-27T14:43:30.307986,1782582050.8452892,0.0,0.0,-67.77902221679688,0.0,0.0,-4.990114212036133,0.0,0.0,-5.5319740743486865e-06
2026-06-27T14:43:30.416550,1782582050.9532914,0.0,0.0,-68.31790161132812,0.0,0.0,-4.990113258361816,0.0,0.0,-5.609416357065706e-06
2026-06-27T14:43:30.525787,1782582051.0612938,0.0,0.0,-68.85678100585938,0.0,0.0,-4.990110874176025,0.0,0.0,-5.6868586397827255e-06
2026-06-27T14:43:30.634996,1782582051.1722963,0.0,0.0,-69.41062927246094,0.0,0.0,-4.990108966827393,0.0,0.0,-5.766452097019664e-06
2026-06-27T14:43:30.743262,1782582051.2772985,0.0,0.0,-69.93453979492188,0.0,0.0,-4.990108966827393,0.0,0.0,-5.841743205216767e-06
2026-06-27T14:43:30.852247,1782582051.3853006,0.0,0.0,-70.47341918945312,0.0,0.0,-4.990107536315918,0.0,0.0,-5.9191854879337865e-06
2026-06-27T14:43:30.961007,1782582051.493303,0.0,0.0,-71.01229858398438,0.0,0.0,-4.990106582641602,0.0,0.0,-5.996627770650807e-06
2026-06-27T14:43:31.070699,1782582051.6013052,0.0,0.0,-71.55117797851562,0.0,0.0,-4.990106105804443,0.0,0.0,-6.074070053367827e-06
2026-06-27T14:43:31.179487,1782582051.7093077,0.0,0.0,-72.09005737304688,0.0,0.0,-4.990105152130127,0.0,0.0,-6.151512336084847e-06
2026-06-27T14:43:31.288152,1782582051.8173099,0.0,0.0,-72.62893676757812,0.0,0.0,-4.9901041984558105,0.0,0.0,-6.228954618801866e-06
2026-06-27T14:43:31.395984,1782582051.9223123,0.0,0.0,-73.15284729003906,0.0,0.0,-4.990102767944336,0.0,0.0,-6.30424572699897e-06
2026-06-27T14:43:31.504707,1782582052.0303144,0.0,0.0,-73.69172668457031,0.0,0.0,-4.990101337432861,0.0,0.0,-6.3816880097159904e-06
2026-06-27T14:43:31.613882,1782582052.141317,0.0,0.0,-74.24557495117188,0.0,0.0,-4.9900994300842285,0.0,0.0,-6.461281466952928e-06
2026-06-27T14:43:31.723417,1782582052.249319,0.0,0.0,-74.78445434570312,0.0,0.0,-4.9900994300842285,0.0,0.0,-6.538723749669947e-06
2026-06-27T14:43:31.832105,1782582052.3573215,0.0,0.0,-75.30836486816406,0.0,0.0,-4.990098476409912,0.0,0.0,-6.61401485786705e-06
2026-06-27T14:43:31.941304,1782582052.4653237,0.0,0.0,-75.86221313476562,0.0,0.0,-4.990097522735596,0.0,0.0,-6.693608315103987e-06
2026-06-27T14:43:32.051606,1782582052.570326,0.0,0.0,-76.38612365722656,0.0,0.0,-4.990096569061279,0.0,0.0,-6.768899423301091e-06
2026-06-27T14:43:32.158850,1782582052.6783283,0.0,0.0,-76.92500305175781,0.0,0.0,-4.990095138549805,0.0,0.0,-6.846341706018111e-06
2026-06-27T14:43:32.267538,1782582052.7863307,0.0,0.0,-77.46388244628906,0.0,0.0,-4.990094184875488,0.0,0.0,-6.92378398873513e-06
2026-06-27T14:43:32.377233,1782582052.894333,0.0,0.0,-78.00276184082031,0.0,0.0,-4.990093231201172,0.0,0.0,-7.00122627145215e-06
2026-06-27T14:43:32.485928,1782582052.999335,0.0,0.0,-78.52667236328125,0.0,0.0,-4.990092754364014,0.0,0.0,-7.0765173796492545e-06
2026-06-27T14:43:32.594445,1782582053.1073375,0.0,0.0,-79.0655517578125,0.0,0.0,-4.990091800689697,0.0,0.0,-7.153959662366274e-06
2026-06-27T14:43:32.703148,1782582053.2153397,0.0,0.0,-79.60443115234375,0.0,0.0,-4.990090370178223,0.0,0.0,-7.231401945083295e-06
2026-06-27T14:43:32.812027,1782582053.323342,0.0,0.0,-80.143310546875,0.0,0.0,-4.990089416503906,0.0,0.0,-7.308844227800315e-06
2026-06-27T14:43:32.920804,1782582053.4313443,0.0,0.0,-80.68218994140625,0.0,0.0,-4.990087985992432,0.0,0.0,-7.386286510517337e-06
2026-06-27T14:43:33.030513,1782582053.5393467,0.0,0.0,-81.2210693359375,0.0,0.0,-4.990087509155273,0.0,0.0,-7.463728793234356e-06
2026-06-27T14:43:33.139573,1782582053.6473489,0.0,0.0,-81.75994873046875,0.0,0.0,-4.990086555480957,0.0,0.0,-7.541171075951376e-06
2026-06-27T14:43:33.247846,1782582053.7523513,0.0,0.0,-82.28385925292969,0.0,0.0,-4.990085601806641,0.0,0.0,-7.61646218414848e-06
2026-06-27T14:43:33.357104,1782582053.8603535,0.0,0.0,-82.82273864746094,0.0,0.0,-4.990084648132324,0.0,0.0,-7.6939044668655e-06
2026-06-27T14:43:33.466323,1782582053.968356,0.0,0.0,-83.36161804199219,0.0,0.0,-4.990083694458008,0.0,0.0,-7.77134674958252e-06
2026-06-27T14:43:33.575006,1782582054.076358,0.0,0.0,-83.90049743652344,0.0,0.0,-4.990082263946533,0.0,0.0,-7.84878903229954e-06
2026-06-27T14:43:33.683181,1782582054.1843605,0.0,0.0,-84.43937683105469,0.0,0.0,-4.9900803565979,0.0,0.0,-7.926231315016561e-06
2026-06-27T14:43:33.792216,1782582054.2923627,0.0,0.0,-84.97825622558594,0.0,0.0,-4.9900803565979,0.0,0.0,-8.00367359773358e-06
2026-06-27T14:43:33.901523,1782582054.400365,0.0,0.0,-85.51713562011719,0.0,0.0,-4.990078926086426,0.0,0.0,-8.081115880450602e-06
2026-06-27T14:43:34.009218,1782582054.5053673,0.0,0.0,-86.04104614257812,0.0,0.0,-4.990077972412109,0.0,0.0,-8.156406988647703e-06
2026-06-27T14:43:34.118089,1782582054.6133697,0.0,0.0,-86.57992553710938,0.0,0.0,-4.990077018737793,0.0,0.0,-8.233849271364726e-06
2026-06-27T14:43:34.227276,1782582054.721372,0.0,0.0,-87.11880493164062,0.0,0.0,-4.990076065063477,0.0,0.0,-8.311291554081745e-06
2026-06-27T14:43:34.336349,1782582054.8293743,0.0,0.0,-87.65768432617188,0.0,0.0,-4.99007511138916,0.0,0.0,-8.388733836798767e-06
2026-06-27T14:43:34.444078,1782582054.9283764,0.0,0.0,-88.15165710449219,0.0,0.0,-4.990074157714844,0.0,0.0,-8.459722595956034e-06
2026-06-27T14:43:34.553787,1782582055.0363786,0.0,0.0,-88.69053649902344,0.0,0.0,-4.990073204040527,0.0,0.0,-8.537164878673057e-06
2026-06-27T14:43:34.661964,1782582055.144381,0.0,0.0,-89.22941589355469,0.0,0.0,-4.990072250366211,0.0,0.0,-8.614607161390076e-06
2026-06-27T14:43:34.771684,1782582055.2523832,0.0,0.0,-89.76829528808594,0.0,0.0,-4.9900712966918945,0.0,0.0,-8.692049444107096e-06
2026-06-27T14:43:34.879895,1782582055.3603854,0.0,0.0,-90.30717468261719,0.0,0.0,-4.99006986618042,0.0,0.0,-8.769491726824117e-06
2026-06-27T14:43:34.988094,1782582055.4683878,0.0,0.0,-90.84605407714844,0.0,0.0,-4.9900689125061035,0.0,0.0,-8.846934009541136e-06
2026-06-27T14:43:35.098142,1782582055.57639,0.0,0.0,-91.38493347167969,0.0,0.0,-4.990067958831787,0.0,0.0,-8.924376292258159e-06
2026-06-27T14:43:35.206885,1782582055.6843925,0.0,0.0,-91.92381286621094,0.0,0.0,-4.990067005157471,0.0,0.0,-9.001818574975179e-06
2026-06-27T14:43:35.315719,1782582055.7923946,0.0,0.0,-92.46269226074219,0.0,0.0,-4.990065574645996,0.0,0.0,-9.079260857692198e-06
2026-06-27T14:43:35.424547,1782582055.900397,0.0,0.0,-93.00157165527344,0.0,0.0,-4.99006462097168,0.0,0.0,-9.156703140409221e-06
2026-06-27T14:43:35.533378,1782582056.0083992,0.0,0.0,-93.54045104980469,0.0,0.0,-4.990063667297363,0.0,0.0,-9.23414542312624e-06
2026-06-27T14:43:35.642541,1782582056.1164017,0.0,0.0,-94.07933044433594,0.0,0.0,-4.990062713623047,0.0,0.0,-9.311587705843262e-06
2026-06-27T14:43:35.752297,1782582056.2244039,0.0,0.0,-94.61820983886719,0.0,0.0,-4.9900617599487305,0.0,0.0,-9.389029988560281e-06
2026-06-27T14:43:35.859981,1782582056.3324063,0.0,0.0,-95.15708923339844,0.0,0.0,-4.990060806274414,0.0,0.0,-9.4664722712773e-06
2026-06-27T14:43:35.968037,1782582056.4404085,0.0,0.0,-95.69596862792969,0.0,0.0,-4.9900593757629395,0.0,0.0,-9.543914553994323e-06
2026-06-27T14:43:36.077702,1782582056.548411,0.0,0.0,-96.23484802246094,0.0,0.0,-4.990057945251465,0.0,0.0,-9.621356836711345e-06
2026-06-27T14:43:36.186928,1782582056.653413,0.0,0.0,-96.75875854492188,0.0,0.0,-4.990057945251465,0.0,0.0,-9.696647944908448e-06
2026-06-27T14:43:36.295936,1782582056.7614155,0.0,0.0,-97.29763793945312,0.0,0.0,-4.99005651473999,0.0,0.0,-9.774090227625469e-06
2026-06-27T14:43:36.405178,1782582056.8694177,0.0,0.0,-97.83651733398438,0.0,0.0,-4.990055561065674,0.0,0.0,-9.851532510342488e-06
2026-06-27T14:43:36.513411,1782582056.97742,0.0,0.0,-98.37539672851562,0.0,0.0,-4.990054607391357,0.0,0.0,-9.92897479305951e-06
2026-06-27T14:43:36.622719,1782582057.0854223,0.0,0.0,-98.91427612304688,0.0,0.0,-4.990053176879883,0.0,0.0,-1.0006417075776529e-05
2026-06-27T14:43:36.731981,1782582057.1934247,0.0,0.0,-99.45315551757812,0.0,0.0,-4.990052223205566,0.0,0.0,-1.008385935849355e-05
2026-06-27T14:43:36.840243,1782582057.301427,0.0,0.0,-99.99203491210938,0.0,0.0,-4.990051746368408,0.0,0.0,-1.0161301641210573e-05
2026-06-27T14:43:36.948912,1782582057.4094293,3.917913545592455e-06,-6.7018931986240204e-06,-100.51823425292969,0.00021773453045170754,-0.000366648513590917,-4.733542442321777,-0.11784663128640817,-0.07574784304416013,-1.372931643617939
2026-06-27T14:43:37.057225,1782582057.5144315,0.0001429868134437129,-0.0002315051096957177,-101.00663757324219,0.0031860750168561935,-0.0050971354357898235,-4.589937686920166,-0.49919981498507293,-0.3950474788056235,-6.015628216327036
2026-06-27T14:43:37.166414,1782582057.6194336,0.0008776942268013954,-0.0013963790843263268,-101.48605346679688,0.011965777724981308,-0.01888909935951233,-4.559010982513428,-0.8895133723230441,-0.9181407882775553,-13.332357907575476
2026-06-27T14:43:37.274808,1782582057.724436,0.002926748711615801,-0.004616979975253344,-101.9672622680664,0.02845335751771927,-0.044589173048734665,-4.620124340057373,-1.1093170611309466,-1.6176390860185654,-22.77376031449772
2026-06-27T14:43:37.384119,1782582057.8324382,0.0073195090517401695,-0.01147725060582161,-102.47299194335938,0.0544683113694191,-0.08483760058879852,-4.755121231079102,-1.03495833370748,-2.457435626244096,-34.184319837134716
2026-06-27T14:43:37.492324,1782582057.9374404,0.014866265468299389,-0.023196270689368248,-102.98493194580078,0.09011605381965637,-0.13960382342338562,-4.978002071380615,-0.6239682695903607,-3.296876282389725,-46.13163669845715
2026-06-27T14:43:37.601838,1782582058.0454428,0.026509229093790054,-0.04119434952735901,-103.5213394165039,0.12537804245948792,-0.19347238540649414,-4.918438911437988,0.022450410557500262,-4.084557234708915,-57.041172427681325
2026-06-27T14:43:37.712050,1782582058.1564453,0.04252578318119049,-0.06586435437202454,-104.05757141113281,0.16386601328849792,-0.25197941064834595,-4.73256254196167,0.7318328766158188,-4.776240556467269,-65.30506542023629
2026-06-27T14:43:37.820750,1782582058.2614474,0.06185966730117798,-0.09554126113653183,-104.54418182373047,0.20551154017448425,-0.314912348985672,-4.539886951446533,1.27830577781359,-5.347390538078665,-69.88735459210302
2026-06-27T14:43:37.929080,1782582058.3694496,0.08674215525388718,-0.1335921436548233,-105.02593231201172,0.25702378153800964,-0.39228689670562744,-4.395740509033203,1.582427470156807,-5.909690964354225,-71.29269433975253
2026-06-27T14:43:38.038292,1782582058.477452,0.11782673001289368,-0.18093439936637878,-105.49772644042969,0.3210279047489166,-0.4879641830921173,-4.364439487457275,1.5610864761113417,-6.487186125145663,-69.73367996599335
2026-06-27T14:43:38.146487,1782582058.5824542,0.15548524260520935,-0.23806138336658478,-105.9611587524414,0.3992134928703308,-0.6045065522193909,-4.491847038269043,1.244033106867259,-7.063302703070536,-66.1368551304183
2026-06-27T14:43:38.254871,1782582058.6904566,0.20381192862987518,-0.3111076354980469,-106.46172332763672,0.4978362023830414,-0.751327395439148,-4.791759014129639,0.7143538248050778,-7.6558395192372055,-61.45116332999183
2026-06-27T14:43:38.363954,1782582058.7984588,0.26225006580352783,-0.399203896522522,-106.98284149169922,0.581608772277832,-0.8760024905204773,-4.809772968292236,0.13897358716384503,-8.262722236603205,-57.07116862099421
2026-06-27T14:43:38.472693,1782582058.9034612,0.3273584246635437,-0.49719735980033875,-107.48261260986328,0.6588952541351318,-0.9910616874694824,-4.70278787612915,-0.32781585262899493,-8.874403189382827,-53.99420048225369
2026-06-27T14:43:38.581394,1782582059.0114634,0.40297138690948486,-0.6108646988868713,-107.98336791992188,0.7419138550758362,-1.1147607564926147,-4.565807819366455,-0.6223159867847281,-9.520773276456142,-52.38635030808057
2026-06-27T14:43:38.690621,1782582059.1194658,0.4877709150314331,-0.7382279634475708,-108.46824645996094,0.8290067315101624,-1.2446794509887695,-4.409031391143799,-0.6982010378548531,-10.175688968966877,-52.226357351076786
2026-06-27T14:43:38.798285,1782582059.224468,0.5794088244438171,-0.8757761716842651,-108.92222595214844,0.916864812374115,-1.375893473625183,-4.233718395233154,-0.5915025018905282,-10.816627670121424,-53.05198315850337
2026-06-27T14:43:38.908013,1782582059.3324702,0.6834238767623901,-1.0318371057510376,-109.36849975585938,1.009596824645996,-1.5145328044891357,-4.024882793426514,-0.365830757915933,-11.47370751304383,-54.39017050617301
2026-06-27T14:43:39.017195,1782582059.4344726,0.7909119725227356,-1.1930656433105469,-109.7674789428711,1.097963809967041,-1.6467622518539429,-3.791637897491455,-0.12017469007748002,-12.10222070667236,-55.67998784767291
2026-06-27T14:43:39.125045,1782582059.5424747,0.914505660533905,-1.3784230947494507,-110.16142272949219,1.1902357339859009,-1.7849332094192505,-3.4913129806518555,0.10570670315150008,-12.818836931283267,-56.753050443134924
2026-06-27T14:43:39.233807,1782582059.647477,1.0439366102218628,-1.572516918182373,-110.50885772705078,1.273376703262329,-1.9094985723495483,-3.10666823387146,0.25132125061845756,-13.661544382378354,-57.35994953992484
2026-06-27T14:43:39.342710,1782582059.7554793,1.1852811574935913,-1.784467339515686,-110.81520080566406,1.3403509855270386,-2.009871244430542,-2.5332064628601074,0.31336241909372947,-14.846507202063426,-57.5341689641433
2026-06-27T14:43:39.451980,1782582059.8604815,1.3306440114974976,-2.0024402141571045,-111.0582504272461,1.442379355430603,-2.1628851890563965,-2.185119867324829,0.2752319598980724,-15.386760430449813,-57.36024170840453
2026-06-27T14:43:39.561168,1782582059.968484,1.4938573837280273,-2.2471885681152344,-111.28675079345703,1.5798091888427734,-2.369077205657959,-2.0520174503326416,0.1665876089238283,-14.766476661733481,-56.98152410383798
2026-06-27T14:43:39.670353,1782582060.076486,1.6715741157531738,-2.513699769973755,-111.50167083740234,1.709242343902588,-2.5633044242858887,-1.9283077716827393,0.05551660832763538,-13.601895710973219,-56.56246542306979
2026-06-27T14:43:39.778219,1782582060.1844885,1.862625002861023,-2.800220251083374,-111.70349884033203,1.8266185522079468,-2.7394509315490723,-1.8109705448150635,-0.021161393003886277,-12.23979108368881,-56.22024117732511
2026-06-27T14:43:39.887374,1782582060.2894907,2.059898853302002,-3.0960843563079834,-111.88822174072266,1.9289816617965698,-2.8930699825286865,-1.7096861600875854,-0.05594915041968466,-10.902318054519911,-56.015721224419174
2026-06-27T14:43:39.996599,1782582060.397493,2.2733919620513916,-3.4162838459014893,-112.06802368164062,2.022566080093384,-3.0335075855255127,-1.6212154626846313,-0.06002795482542212,-9.60384430817205,-55.9424836911671
2026-06-27T14:43:40.104713,1782582060.4994953,2.4837610721588135,-3.731804370880127,-112.22972106933594,2.100599527359009,-3.1505908966064453,-1.5513087511062622,-0.0471054248279164,-8.486681270498194,-55.97506141468683
2026-06-27T14:43:40.214444,1782582060.6074975,2.714634418487549,-4.078081130981445,-112.3938217163086,2.173056125640869,-3.2592740058898926,-1.4893876314163208,-0.02759364053494225,-7.433148176480066,-56.07395005326875
2026-06-27T14:43:40.323350,1782582060.7124996,2.9461071491241455,-4.42525577545166,-112.5475082397461,2.2344248294830322,-3.351285696029663,-1.4392638206481934,-0.010394568897955982,-6.5345504032594555,-56.19106917156152
2026-06-27T14:43:40.431002,1782582060.817502,3.1835944652557373,-4.781445503234863,-112.69634246826172,2.2877726554870605,-3.4312334060668945,-1.3965957164764404,0.0015935709276798623,-5.752483090380923,-56.29559341947632
2026-06-27T14:43:40.540690,1782582060.9225042,3.4263036251068115,-5.145460605621338,-112.84101104736328,2.334041118621826,-3.5005369186401367,-1.3597793579101562,0.007870831363728164,-5.076003827347391,-56.3681356683334
2026-06-27T14:43:40.648201,1782582061.0245063,3.666416645050049,-5.505571365356445,-112.97808837890625,2.373042106628418,-3.5589334964752197,-1.3283302783966064,0.00957122823825386,-4.508878214227795,-56.40227497094202
2026-06-27T14:43:40.757798,1782582061.1325088,3.9246888160705566,-5.892904758453369,-113.11991882324219,2.408780097961426,-3.612436294555664,-1.2986494302749634,0.00838297674593388,-3.993014444549516,-56.40393326175638
2026-06-27T14:43:40.866495,1782582061.240511,4.186546325683594,-6.285606384277344,-113.2586898803711,2.4395670890808105,-3.6585302352905273,-1.2716439962387085,0.005812633433367917,-3.552900382024201,-56.38132930200646
2026-06-27T14:43:40.975759,1782582061.345513,4.444096088409424,-6.671842098236084,-113.39091491699219,2.465414524078369,-3.6972408294677734,-1.2473182678222656,0.0031722782880305588,-3.187632401226623,-56.34870375470159
2026-06-27T14:43:41.084969,1782582061.4475155,4.696710109710693,-7.050673961639404,-113.51699829101562,2.4872145652770996,-3.729902982711792,-1.225292444229126,0.0010976584929185823,-2.8834566259177628,-56.317170695488805
2026-06-27T14:43:41.193418,1782582061.5525177,4.958921909332275,-7.44389533996582,-113.64452362060547,2.5067172050476074,-3.7591392993927,-1.2036393880844116,-0.0002980060002536576,-2.61520073350914,-56.29194880862459
2026-06-27T14:43:41.302149,1782582061.6545198,5.21547269821167,-7.82862663269043,-113.76629638671875,2.5232224464416504,-3.7838943004608154,-1.1838788986206055,-0.0009606034020676979,-2.3920939017813296,-56.27759301233889
2026-06-27T14:43:41.417442,1782582061.7655222,5.496444225311279,-8.249979019165039,-113.89653015136719,2.538832187652588,-3.8073129653930664,-1.1628464460372925,-0.001099489679542166,-2.1852152858658758,-56.27321343352505
2026-06-27T14:43:41.521416,1782582061.8645244,5.748408317565918,-8.62783432006836,-114.01075744628906,2.550990343093872,-3.8255553245544434,-1.1447317600250244,-0.0009150463210869802,-2.027556479787601,-56.276939569641115
2026-06-27T14:43:41.627991,1782582061.9695265,6.016877174377441,-9.030439376831055,-114.1299819946289,2.5623271465301514,-3.8425660133361816,-1.1260045766830444,-0.0005914361235177309,-1.8840326928998643,-56.285422341764686
2026-06-27T14:43:41.737408,1782582062.0745287,6.28646183013916,-9.43471908569336,-114.24725341796875,2.5722882747650146,-3.8575098514556885,-1.107703447341919,-0.0002740840635532034,-1.76137455560929,-56.29526304571624
2026-06-27T14:43:41.846505,1782582062.179531,6.557028770446777,-9.840472221374512,-114.36260986328125,2.5810699462890625,-3.8706836700439453,-1.0897572040557861,-4.004313176202059e-05,-1.6564817310760143,-56.303838919573664
2026-06-27T14:43:41.956224,1782582062.2845333,6.828463554382324,-10.247529029846191,-114.4760971069336,2.588841438293457,-3.882337808609009,-1.0721200704574585,8.224779624530107e-05,-1.5667403609261064,-56.30966860631452
2026-06-27T14:43:42.064789,1782582062.3895354,7.100667953491211,-10.65573501586914,-114.58776092529297,2.5957448482513428,-3.892690420150757,-1.0547538995742798,9.690473823424096e-05,-1.4899059574930533,-56.31234410824783
2026-06-27T14:43:42.173492,1782582062.4915376,7.365749835968018,-11.053265571594238,-114.69450378417969,2.6017351150512695,-3.9016759395599365,-1.038133144378662,3.893199735027587e-05,-1.425793358118517,-56.312332869154105
2026-06-27T14:43:42.282203,1782582062.59354,7.631414413452148,-11.451663970947266,-114.799560546875,2.6071181297302246,-3.9097516536712646,-1.0217316150665283,-5.752843435225563e-05,-1.3705904897648307,-56.310574528392465
2026-06-27T14:43:42.392111,1782582062.698542,7.905433654785156,-11.862597465515137,-114.90596008300781,2.6121106147766113,-3.917243242263794,-1.0050253868103027,-0.00016808961205380552,-1.321670432576375,-56.30797278519573
2026-06-27T14:43:42.500328,1782582062.8035443,8.179950714111328,-12.27427864074707,-115.0106201171875,2.6166231632232666,-3.9240169525146484,-0.9885126352310181,-0.00026795184408429773,-1.2795985237177487,-56.30536541216293
2026-06-27T14:43:42.609515,1782582062.9115467,8.462782859802246,-12.698429107666016,-115.11647033691406,2.620831251144409,-3.930338144302368,-0.9716953635215759,-0.00034641646125673663,-1.2424000898439767,-56.30331681083743
2026-06-27T14:43:42.717796,1782582063.0135489,8.730303764343262,-13.099616050720215,-115.21479034423828,2.6244585514068604,-3.935788154602051,-0.9560582637786865,-0.00039122408845955345,-1.2120484952420023,-56.302243747834446
2026-06-27T14:43:42.826498,1782582063.118551,9.006059646606445,-13.513155937194824,-115.3143310546875,2.6278839111328125,-3.9409375190734863,-0.9399726390838623,-0.00041806971666478147,-1.1850757100851124,-56.30201221045066
2026-06-27T14:43:42.935777,1782582063.2205532,9.27426815032959,-13.91537857055664,-115.40943145751953,2.6309549808502197,-3.9455554485321045,-0.9247028827667236,-0.0004205245440757303,-1.1622074477690805,-56.30242153144243
2026-06-27T14:43:43.045027,1782582063.3225553,9.542778015136719,-14.318055152893066,-115.50296783447266,2.633800983428955,-3.9498350620269775,-0.9094430208206177,-0.0004219935916215412,-1.1423514392653218,-56.30321324807149
2026-06-27T14:43:43.153222,1782582063.4275577,9.819478988647461,-14.733014106750488,-115.59764862060547,2.6365268230438232,-3.953935384750366,-0.8939332962036133,-0.0004217697035342029,-1.124447556451217,-56.30410341278844
2026-06-27T14:43:43.262418,1782582063.5295599,10.08853816986084,-15.136514663696289,-115.68806457519531,2.6389987468719482,-3.957655906677246,-0.8789850473403931,-0.0004174319476043424,-1.109211044064585,-56.30488606164246
2026-06-27T14:43:43.371613,1782582063.631562,10.357841491699219,-15.540382385253906,-115.77696228027344,2.641319513320923,-3.961148738861084,-0.8642022609710693,-0.00041098049301140305,-1.095793141883159,-56.30549564431246
2026-06-27T14:43:43.479991,1782582063.7335641,10.627373695373535,-15.944597244262695,-115.8643798828125,2.643505096435547,-3.9644389152526855,-0.8495815396308899,-0.0004103009579802988,-1.083918978327944,-56.30580264456534
2026-06-27T14:43:43.588176,1782582063.8355663,10.897123336791992,-16.34913444519043,-115.95030212402344,2.6455698013305664,-3.9675486087799072,-0.8351122140884399,-0.00041565972867621743,-1.0733785664561724,-56.30593868693976
2026-06-27T14:43:43.698238,1782582063.9405687,11.175021171569824,-16.765897750854492,-116.03720092773438,2.647582530975342,-3.970581293106079,-0.820361852645874,-0.0004246911714253697,-1.063715987081405,-56.305924291767276
2026-06-27T14:43:43.807442,1782582064.0455709,11.453124046325684,-17.182971954345703,-116.12257385253906,2.6494929790496826,-3.9734604358673096,-0.8057628870010376,-0.00042781550702368547,-1.0550799167387686,-56.30571543079066
2026-06-27T14:43:43.915770,1782582064.150573,11.731422424316406,-17.600339889526367,-116.2064208984375,2.651310682296753,-3.976200580596924,-0.7913169264793396,-0.00043042355207423993,-1.0473234802245017,-56.305527631882725
2026-06-27T14:43:44.023478,1782582064.2585754,12.017868041992188,-18.029924392700195,-116.29109191894531,2.6530938148498535,-3.978889226913452,-0.7766929864883423,-0.0004314587563668768,-1.0401070589769041,-56.305519515876455
2026-06-27T14:43:44.133168,1782582064.3605776,12.28857135772705,-18.435903549194336,-116.36961364746094,2.6547021865844727,-3.9813151359558105,-0.7628891468048096,-0.00043104497057312616,-1.033958844374376,-56.3055162267079
2026-06-27T14:43:44.240934,1782582064.4685798,12.5753755569458,-18.86602783203125,-116.45123291015625,2.6563336849212646,-3.983776807785034,-0.7484983205795288,-0.00042995645233958295,-1.027986467917275,-56.305623866999724
2026-06-27T14:43:44.350013,1782582064.5735822,12.854376792907715,-19.284454345703125,-116.52910614013672,2.65785551071167,-3.986071825027466,-0.7346798181533813,-0.00042816192939847873,-1.0226513710817067,-56.30573036082846
2026-06-27T14:43:44.458279,1782582064.6785843,13.13353443145752,-19.7031192779541,-116.60554504394531,2.6593172550201416,-3.9882760047912598,-0.7210233807563782,-0.00042689162034592235,-1.0177334050310698,-56.30583399699055
2026-06-27T14:43:44.567570,1782582064.7865865,13.42082691192627,-20.13397789001465,-116.68266296386719,2.6607627868652344,-3.9904568195343018,-0.7071375250816345,-0.00042906969954071764,-1.013040242981356,-56.305949922343956
2026-06-27T14:43:44.677896,1782582064.891589,13.700284004211426,-20.55309295654297,-116.7562255859375,2.6621153354644775,-3.9924988746643066,-0.6938048601150513,-0.00043462516673778537,-1.0087739959225464,-56.306052471407014
2026-06-27T14:43:44.786418,1782582064.993591,13.971890449523926,-20.960433959960938,-116.82633972167969,2.6633822917938232,-3.994413137435913,-0.6810073852539062,-0.0004347181146122088,-1.004878254466136,-56.306153550451285
2026-06-27T14:43:44.894194,1782582065.0985932,14.251618385314941,-21.37995719909668,-116.89716339111328,2.6646411418914795,-3.9963154792785645,-0.6679984927177429,-0.00043270125464246663,-1.001087213886789,-56.30625987062891
2026-06-27T14:43:45.003365,1782582065.2005954,14.523478507995605,-21.78767967224121,-116.96466064453125,2.665822982788086,-3.9981002807617188,-0.6555300354957581,-0.00043046414696256064,-0.9975920683867446,-56.30636408693711
2026-06-27T14:43:45.112080,1782582065.3055978,14.803458213806152,-22.207582473754883,-117.03282928466797,2.666998863220215,-3.999876022338867,-0.6428649425506592,-0.00042843641406457796,-0.9941824010956642,-56.30646721884362
2026-06-27T14:43:45.221155,1782582065.4106,15.083559036254883,-22.62767219543457,-117.09966278076172,2.6681325435638428,-4.001590251922607,-0.6302241683006287,-0.00042720727961551025,-0.9909647353737695,-56.30657794856961
2026-06-27T14:43:45.330510,1782582065.5186021,15.371786117553711,-23.059946060180664,-117.16704559326172,2.6692614555358887,-4.003296852111816,-0.6175810098648071,-0.0004217987785490867,-0.9876989138904917,-56.30668665640097
2026-06-27T14:43:45.439732,1782582065.6206045,15.644108772277832,-23.46837043762207,-117.22944641113281,2.67029070854187,-4.004854202270508,-0.6057567000389099,-0.000423206016986649,-0.984762807467424,-56.3067890350327
2026-06-27T14:43:45.549495,1782582065.7256067,15.924549102783203,-23.88896942138672,-117.29243469238281,2.6713154315948486,-4.006405353546143,-0.5937395095825195,-0.00042022994801456815,-0.9818350949101692,-56.306895925604024
2026-06-27T14:43:45.656826,1782582065.8276088,16.197078704833984,-24.29770851135254,-117.35240173339844,2.672278881072998,-4.007863998413086,-0.5822206139564514,-0.0004151398480546078,-0.9791307195377673,-56.30694021645282
2026-06-27T14:43:45.765585,1782582065.929611,16.469703674316406,-24.706592559814453,-117.41120910644531,2.6732113361358643,-4.009275436401367,-0.5708694458007812,-0.00040269949289902283,-0.9764913503755761,-56.306940012162315
2026-06-27T14:43:45.874320,1782582066.0346131,16.75044822692871,-25.127647399902344,-117.47054290771484,2.674140214920044,-4.01068115234375,-0.5593570470809937,-0.0003936136521637627,-0.9738629342487827,-56.30700673750873
2026-06-27T14:43:45.984048,1782582066.1396155,17.031282424926758,-25.548847198486328,-117.5286865234375,2.6750378608703613,-4.012040138244629,-0.5479612946510315,-0.0003923877785446952,-0.9713063366847857,-56.30710418003432
2026-06-27T14:43:46.092328,1782582066.2416177,17.304189682006836,-25.95815086364746,-117.58401489257812,2.6758816242218018,-4.013317108154297,-0.5370699763298035,-0.0003893143794280742,-0.9688969003972997,-56.30721064791903
2026-06-27T14:43:46.200371,1782582066.3436198,17.577177047729492,-26.36758041381836,-117.63825225830078,2.6766979694366455,-4.014553546905518,-0.5263267755508423,-0.0003804144047090798,-0.9665549110097544,-56.30727517279509
2026-06-27T14:43:46.311184,1782582066.445622,17.850242614746094,-26.777137756347656,-117.69139862060547,2.677487850189209,-4.015750885009766,-0.5157535076141357,-0.00036626482759571807,-0.9642708919243876,-56.30727156831471
2026-06-27T14:43:46.417948,1782582066.5506244,18.131427764892578,-27.19886589050293,-117.7449951171875,2.6782748699188232,-4.016942501068115,-0.5050444006919861,-0.0003664661755536019,-0.9619796191685007,-56.30734080061407
2026-06-27T14:43:46.526689,1782582066.6586266,18.420732498168945,-27.632770538330078,-117.79895782470703,2.679056406021118,-4.018126964569092,-0.49420931935310364,-0.00036083869731675793,-0.9596901004936444,-56.30745085155396
2026-06-27T14:43:46.635905,1782582066.7576287,18.685998916625977,-28.030624389648438,-117.84740447998047,2.679748773574829,-4.019176959991455,-0.4844233989715576,-0.00034640798289843584,-0.9576278519694006,-56.307549537623984
2026-06-27T14:43:46.744164,1782582066.8596308,18.959375381469727,-28.440641403198242,-117.89630889892578,2.6804394721984863,-4.020223140716553,-0.4745138883590698,-0.0003393037181730314,-0.9555648758746987,-56.30756752513087
2026-06-27T14:43:46.853342,1782582066.961633,19.232820510864258,-28.85076904296875,-117.9442138671875,2.681107759475708,-4.021236419677734,-0.4647592008113861,-0.00033428260780162433,-0.9535484938929165,-56.30756587676423
2026-06-27T14:43:46.963030,1782582067.060635,19.498287200927734,-29.24892234802246,-117.98975372314453,2.6817336082458496,-4.0221848487854,-0.45542797446250916,-0.00032890309681723453,-0.9516492481610525,-56.30767184393808
2026-06-27T14:43:47.071186,1782582067.1626372,19.771862030029297,-29.65924835205078,-118.03572845458984,2.6823575496673584,-4.023129940032959,-0.4459470510482788,-0.0003172614247884232,-0.9497406200312419,-56.307769896819615
2026-06-27T14:43:47.179852,1782582067.2676396,20.05354881286621,-30.08173179626465,-118.08204650878906,2.6829776763916016,-4.024070739746094,-0.4363727569580078,-0.00031145725228715174,-0.9478124332436219,-56.30778713005745
2026-06-27T14:43:47.289876,1782582067.3726418,20.335298538208008,-30.50432014465332,-118.12736511230469,2.6835758686065674,-4.024978160858154,-0.42695918679237366,-0.0003110221325852102,-0.945941484375258,-56.30780831441678
2026-06-27T14:43:47.398094,1782582067.477644,20.617111206054688,-30.9269962310791,-118.17171478271484,2.6841533184051514,-4.025854587554932,-0.41770994663238525,-0.00030826473767442235,-0.9441165029089023,-56.30791129746117
2026-06-27T14:43:47.506275,1782582067.579646,20.890926361083984,-31.33768081665039,-118.2138671875,2.6846940517425537,-4.026676177978516,-0.40887099504470825,-0.000298681419994845,-0.9423866546872542,-56.30798812378872
2026-06-27T14:43:47.615981,1782582067.6816485,21.164793014526367,-31.748455047607422,-118.25514221191406,2.685216188430786,-4.027468681335449,-0.40018102526664734,-0.00028461412303395204,-0.940699242026184,-56.30798898701513
2026-06-27T14:43:47.726867,1782582067.7896507,21.454832077026367,-32.183475494384766,-118.2978744506836,2.6857497692108154,-4.028277397155762,-0.3911556303501129,-0.0002847808759843042,-0.9389626117369162,-56.30798941844582
2026-06-27T14:43:47.833053,1782582067.8886528,21.72075653076172,-32.58230209350586,-118.33619689941406,2.68622088432312,-4.028993129730225,-0.38304251432418823,-0.0002845721469427305,-0.9374122465121387,-56.308071805075976
2026-06-27T14:43:47.942814,1782582067.990655,21.994781494140625,-32.99332046508789,-118.37484741210938,2.686689853668213,-4.02970552444458,-0.37486955523490906,-0.00027449703330717506,-0.9358559363277117,-56.30817857296549
2026-06-27T14:43:48.051413,1782582068.095657,22.27690887451172,-33.41647720336914,-118.41375732421875,2.6871531009674072,-4.03040885925293,-0.36643320322036743,-0.00027166629911707155,-0.9343148969268835,-56.30826799510503
2026-06-27T14:43:48.160600,1782582068.2036595,22.567153930664062,-33.851810455322266,-118.45287322998047,2.6876134872436523,-4.031108856201172,-0.35808825492858887,-0.00025730789139731937,-0.9327507433514357,-56.308263652917226
2026-06-27T14:43:48.268255,1782582068.3086617,22.849388122558594,-34.275123596191406,-118.49005126953125,2.6880438327789307,-4.03176212310791,-0.3500901460647583,-0.0002628520164398228,-0.931274838472565,-56.30826590264049
2026-06-27T14:43:48.377946,1782582068.4106638,23.12358856201172,-34.6864013671875,-118.5253677368164,2.688446283340454,-4.032373428344727,-0.3424662947654724,-0.0002554634796078639,-0.9298863143321697,-56.308262723277096
2026-06-27T14:43:48.486705,1782582068.5156662,23.40590476989746,-35.109840393066406,-118.56092071533203,2.688845634460449,-4.032979965209961,-0.33479365706443787,-0.0002590477824445816,-0.9284940423861725,-56.30835673804621
2026-06-27T14:43:48.596343,1782582068.6176684,23.680194854736328,-35.52124786376953,-118.59468841552734,2.689218044281006,-4.033546447753906,-0.32740622758865356,-0.00024437157635135044,-0.9271837910893234,-56.30845301926005
2026-06-27T14:43:48.706120,1782582068.7226706,23.96257781982422,-35.944793701171875,-118.62867736816406,2.689586877822876,-4.0341081619262695,-0.3199819326400757,-0.00023978566258995822,-0.9258746235320191,-56.30850595458758
2026-06-27T14:43:48.813891,1782582068.8276727,24.24502182006836,-36.36843490600586,-118.6618881225586,2.689941883087158,-4.034648418426514,-0.31270092725753784,-0.00023112839826786878,-0.9246050832632783,-56.30850363777114
2026-06-27T14:43:48.923492,1782582068.9356751,24.53554916381836,-36.80418014526367,-118.69526672363281,2.6902921199798584,-4.035181999206543,-0.3053549528121948,-0.00023015712551077827,-0.9233390512973303,-56.308501294060875
2026-06-27T14:43:49.031728,1782582069.0376773,24.809993743896484,-37.21583557128906,-118.72607421875,2.690610647201538,-4.035665512084961,-0.2985793650150299,-0.00022984716385474033,-0.9221737197577691,-56.30855698178998
2026-06-27T14:43:49.141426,1782582069.1426795,25.092517852783203,-37.639610290527344,-118.7570571899414,2.690925359725952,-4.036145210266113,-0.2917070686817169,-0.00021806879847951412,-0.9210279224050252,-56.308664889831505
2026-06-27T14:43:49.248000,1782582069.2476819,25.37510108947754,-38.06341552734375,-118.7873306274414,2.691228151321411,-4.0366058349609375,-0.28498634696006775,-0.00021214046169813484,-0.9199079190806305,-56.308667945558824
2026-06-27T14:43:49.358225,1782582069.352684,25.657684326171875,-38.48732376098633,-118.81692504882812,2.691518783569336,-4.03704833984375,-0.2784024477005005,-0.00020422647472607023,-0.918823861519451,-56.30868766206786
2026-06-27T14:43:49.466944,1782582069.4546862,25.9322566986084,-38.89912033081055,-118.84498596191406,2.6917898654937744,-4.037461280822754,-0.27212458848953247,-0.0001936997987886966,-0.917806049520851,-56.3086975928284
2026-06-27T14:43:49.575670,1782582069.5596883,26.214906692504883,-39.323062896728516,-118.87323760986328,2.6920583248138428,-4.037869930267334,-0.26580414175987244,-0.00020255939276299292,-0.916787941723042,-56.30873682574083
2026-06-27T14:43:49.684049,1782582069.6616907,26.489519119262695,-39.734989166259766,-118.90003204345703,2.692308187484741,-4.038250923156738,-0.25977325439453125,-0.00019225643724258326,-0.9158325993768864,-56.30883554048383
2026-06-27T14:43:49.793255,1782582069.769693,26.772235870361328,-40.15903091430664,-118.92699432373047,2.6925551891326904,-4.038627624511719,-0.2537062466144562,-0.00017580979773396295,-0.9148816757906719,-56.30883805690785
2026-06-27T14:43:49.902453,1782582069.871695,27.05495262145996,-40.583072662353516,-118.95333099365234,2.6927924156188965,-4.03898811340332,-0.24774311482906342,-0.00018041394389358656,-0.9139638166277618,-56.30883806702259
2026-06-27T14:43:50.011673,1782582069.9766974,27.33773422241211,-41.00722885131836,-118.97903442382812,2.6930203437805176,-4.039336204528809,-0.24194568395614624,-0.00018111704095352248,-0.9130738310192639,-56.30883829915848
2026-06-27T14:43:50.120022,1782582070.0786996,27.612438201904297,-41.41928482055664,-119.00343322753906,2.6932320594787598,-4.039660453796387,-0.2364092916250229,-0.00017526032766169026,-0.9122279478916545,-56.308941304248535
2026-06-27T14:43:50.229267,1782582070.1837018,27.89522361755371,-41.84346008300781,-119.02796173095703,2.693441867828369,-4.039981365203857,-0.23083104193210602,-0.00016408129892844998,-0.9113978209823967,-56.30893589835991
2026-06-27T14:43:50.338008,1782582070.288704,28.17807388305664,-42.267635345458984,-119.05191802978516,2.693643093109131,-4.040287494659424,-0.22537517547607422,-0.00015606687219562156,-0.9105862743035416,-56.308936734714436
2026-06-27T14:43:50.447366,1782582070.390706,28.452842712402344,-42.6798095703125,-119.07464599609375,2.6938300132751465,-4.0405731201171875,-0.22018660604953766,-0.00017654676730693042,-0.9098298344146559,-56.3090183769012
2026-06-27T14:43:50.557160,1782582070.4957085,28.735692977905273,-43.10411834716797,-119.09748840332031,2.694014310836792,-4.040855884552002,-0.21495774388313293,-0.00016473753479566438,-0.9090815353591274,-56.30910033339963
2026-06-27T14:43:50.663960,1782582070.5977106,29.01050567626953,-43.51630401611328,-119.11915588378906,2.6941864490509033,-4.041117191314697,-0.2099924236536026,-0.00013864196405276663,-0.908377856376051,-56.30910203783621
2026-06-27T14:43:50.773090,1782582070.7027128,29.29342269897461,-43.94061279296875,-119.14093780517578,2.6943559646606445,-4.041377067565918,-0.2049841582775116,-0.00014026115225184552,-0.9076803542139514,-56.30910356674818
2026-06-27T14:43:50.882282,1782582070.8077152,29.576339721679688,-44.36494445800781,-119.16220092773438,2.6945178508758545,-4.041626453399658,-0.20008441805839539,-0.00016122251348027103,-0.907006702194144,-56.309098963456535
