time,sim_t,x,y,z,vx,vy,vz,roll_deg,pitch_deg,yaw_deg
2026-06-27T14:05:25.051368,1782579817.5106459,0.0,0.0,2.0396859645843506,0.0,0.0,0.0,0.0,0.0,0.0003895640909249624
2026-06-27T14:05:25.154547,1782579817.615648,0.0,0.0,2.0396859645843506,0.0,0.0,0.0,0.0,0.0,0.0003895640909249624
2026-06-27T14:05:25.265337,1782579817.7206502,0.0,0.0,2.0396859645843506,0.0,0.0,0.0,0.0,0.0,0.0003895640909249624
2026-06-27T14:05:25.373032,1782579817.8286526,0.0,0.0,2.0396859645843506,0.0,0.0,0.0,0.0,0.0,0.0003895640909249624
2026-06-27T14:05:25.482319,1782579817.9366548,0.0,0.0,2.0396859645843506,0.0,0.0,0.0,0.0,0.0,0.0003895640909249624
2026-06-27T14:05:25.590532,1782579818.0446572,0.0,0.0,2.0396859645843506,0.0,0.0,0.0,0.0,0.0,0.0003895640909249624
2026-06-27T14:05:25.699507,1782579818.1496594,0.0,0.0,2.0396859645843506,0.0,0.0,0.0,0.0,0.0,0.0003895640909249624
2026-06-27T14:05:25.808325,1782579818.2576616,0.0,0.0,2.0396859645843506,0.0,0.0,0.0,0.0,0.0,0.0003895640909249624
2026-06-27T14:05:25.916563,1782579818.362664,0.0,0.0,2.0396859645843506,0.0,0.0,0.0,0.0,0.0,0.0003895640909249624
2026-06-27T14:05:26.024556,1782579818.4706662,0.0,0.0,2.0396859645843506,0.0,0.0,0.0,0.0,0.0,0.0003895640909249624
2026-06-27T14:05:26.134265,1782579818.5786686,0.0,0.0,2.0396859645843506,0.0,0.0,0.0,0.0,0.0,0.0003895640909249624
2026-06-27T14:05:26.242550,1782579818.6836708,0.0,0.0,2.0396859645843506,0.0,0.0,0.0,0.0,0.0,0.0003895640909249624
2026-06-27T14:05:26.351765,1782579818.7916732,0.0,0.0,2.0396859645843506,0.0,0.0,0.0,0.0,0.0,0.0003895640909249624
2026-06-27T14:05:26.460426,1782579818.8996754,0.0,0.0,2.0396859645843506,0.0,0.0,0.0,0.0,0.0,0.0003895640909249624
2026-06-27T14:05:26.569639,1782579819.0046775,0.0,0.0,2.034372329711914,0.0,0.0,-0.23636861145496368,0.0,0.0,0.0003895640909249624
2026-06-27T14:05:26.678392,1782579819.11268,0.0,0.0,1.9957218170166016,0.0,0.0,-0.41884979605674744,0.0,0.0,0.0003895640909249624
2026-06-27T14:05:26.788062,1782579819.2206821,0.0,0.0,1.948769450187683,0.0,0.0,-0.444001168012619,0.0,0.0,0.0003895640909249624
2026-06-27T14:05:26.896938,1782579819.3286846,0.0,0.0,1.9003596305847168,0.0,0.0,-0.4516517221927643,0.0,0.0,0.0003895640909249624
2026-06-27T14:05:27.004626,1782579819.4366868,0.0,0.0,1.8512884378433228,0.0,0.0,-0.45687827467918396,0.0,0.0,0.0003895640909249624
2026-06-27T14:05:27.114391,1782579819.5446892,0.0,0.0,1.801697850227356,0.0,0.0,-0.46135443449020386,0.0,0.0,0.0003895640909249624
2026-06-27T14:05:27.222853,1782579819.6526914,0.0,0.0,1.753048300743103,0.0,0.0,-0.46521005034446716,0.0,0.0,0.0003895640909249624
2026-06-27T14:05:27.331876,1782579819.7606938,0.0,0.0,1.70120370388031,0.0,0.0,-0.4688301682472229,0.0,0.0,0.0003895640909249624
2026-06-27T14:05:27.440375,1782579819.868696,0.0,0.0,1.6503969430923462,0.0,0.0,-0.47195443511009216,0.0,0.0,0.0003895640909249624
2026-06-27T14:05:27.549589,1782579819.9736984,0.0,0.0,1.6006957292556763,0.0,0.0,-0.4746578633785248,0.0,0.0,0.0003895640909249624
2026-06-27T14:05:27.658567,1782579820.0817006,0.0,0.0,1.5492953062057495,0.0,0.0,-0.47713297605514526,0.0,0.0,0.0003895640909249624
2026-06-27T14:05:27.767831,1782579820.189703,0.0,0.0,1.4976426362991333,0.0,0.0,-0.47933241724967957,0.0,0.0,0.0003895640909249624
2026-06-27T14:05:27.877057,1782579820.2977052,0.0,0.0,1.4457660913467407,0.0,0.0,-0.48128706216812134,0.0,0.0,0.0003895640909249624
2026-06-27T14:05:27.986253,1782579820.4057076,0.0,0.0,1.3936903476715088,0.0,0.0,-0.48302391171455383,0.0,0.0,0.0003895640909249624
2026-06-27T14:05:28.094496,1782579820.5107098,0.0,0.0,1.3428913354873657,0.0,0.0,-0.4845268428325653,0.0,0.0,0.0003895640909249624
2026-06-27T14:05:28.203735,1782579820.6217122,0.0,0.0,1.289028286933899,0.0,0.0,-0.48593878746032715,0.0,0.0,0.0003895640909249624
2026-06-27T14:05:28.311882,1782579820.7267144,0.0,0.0,1.2379399538040161,0.0,0.0,-0.4871256947517395,0.0,0.0,0.0003895640909249624
2026-06-27T14:05:28.420566,1782579820.8317165,0.0,0.0,1.1867340803146362,0.0,0.0,-0.4881839156150818,0.0,0.0,0.0003895640909249624
2026-06-27T14:05:28.529151,1782579820.936719,0.0,0.0,1.135423183441162,0.0,0.0,-0.4891274571418762,0.0,0.0,0.0003895640909249624
2026-06-27T14:05:28.639366,1782579821.0447211,0.0,0.0,1.08254873752594,0.0,0.0,-0.48999127745628357,0.0,0.0,0.0003895640909249624
2026-06-27T14:05:28.748606,1782579821.1527236,0.0,0.0,1.0295861959457397,0.0,0.0,-0.49075889587402344,0.0,0.0,0.0003895640909249624
2026-06-27T14:05:28.856950,1782579821.2577257,0.0,0.0,0.9780200719833374,0.0,0.0,-0.49142324924468994,0.0,0.0,0.0003895640909249624
2026-06-27T14:05:28.965466,1782579821.3627279,0.0,0.0,0.9263878464698792,0.0,0.0,-0.49201542139053345,0.0,0.0,0.0003895640909249624
2026-06-27T14:05:29.074055,1782579821.4707303,0.0,0.0,0.8732191920280457,0.0,0.0,-0.4925577938556671,0.0,0.0,0.0003895640909249624
2026-06-27T14:05:29.184371,1782579821.5757325,0.0,0.0,0.8214743137359619,0.0,0.0,-0.49302709102630615,0.0,0.0,0.0003895640909249624
2026-06-27T14:05:29.292496,1782579821.683735,0.0,0.0,0.7682026028633118,0.0,0.0,-0.49345675110816956,0.0,0.0,0.0003895640909249624
2026-06-27T14:05:29.401199,1782579821.788737,0.0,0.0,0.7163687944412231,0.0,0.0,-0.49382856488227844,0.0,0.0,0.0003895640909249624
2026-06-27T14:05:29.509384,1782579821.8967392,0.0,0.0,0.663015604019165,0.0,0.0,-0.49416881799697876,0.0,0.0,0.0003895640909249624
2026-06-27T14:05:29.619058,1782579822.0017416,0.0,0.0,0.611111044883728,0.0,0.0,-0.49446362257003784,0.0,0.0,0.0003895640909249624
2026-06-27T14:05:29.727785,1782579822.1097438,0.0,0.0,0.5576930642127991,0.0,0.0,-0.4947332739830017,0.0,0.0,0.0003895640909249624
2026-06-27T14:05:29.838031,1782579822.2177463,0.0,0.0,0.5101207494735718,0.0,0.0,-0.2569139301776886,0.0,0.0,0.0003895640909249624
2026-06-27T14:05:29.945768,1782579822.3257484,0.0,0.0,0.5011890530586243,0.0,0.0,0.006581299472600222,0.0,0.0,0.0003895640909249624
2026-06-27T14:05:30.053965,1782579822.4277506,0.0,0.0,0.48820796608924866,0.0,0.0,-0.42531636357307434,0.0,0.0,0.0003695987886395851
2026-06-27T14:05:30.163227,1782579822.538753,0.0,0.0,0.40002769231796265,0.0,0.0,-1.160638451576233,0.0,0.0,0.0002716429578092972
2026-06-27T14:05:30.272437,1782579822.6407552,0.0,0.0,0.24803954362869263,0.0,0.0,-1.815061092376709,0.0,0.0,0.00015053053609569213
2026-06-27T14:05:30.381155,1782579822.7457573,0.0,0.0,0.02347031980752945,0.0,0.0,-2.455979824066162,0.0,0.0,3.22848467362472e-05
2026-06-27T14:05:30.490692,1782579822.8507597,0.0,0.0,-0.2662438452243805,0.0,0.0,-3.0545735359191895,0.0,0.0,-5.544621873184739e-05
2026-06-27T14:05:30.599088,1782579822.958762,0.0,0.0,-0.6271287798881531,0.0,0.0,-3.619290351867676,0.0,0.0,-0.00010350995174150524
2026-06-27T14:05:30.708241,1782579823.0637643,0.0,0.0,-1.0336557626724243,0.0,0.0,-4.11496114730835,0.0,0.0,-0.00011157531568318793
2026-06-27T14:05:30.816090,1782579823.1657665,0.0,0.0,-1.475752830505371,0.0,0.0,-4.544967174530029,0.0,0.0,-9.306914397264983e-05
2026-06-27T14:05:30.923795,1782579823.2647686,0.0,0.0,-1.9443923234939575,0.0,0.0,-4.91459321975708,0.0,0.0,-6.152500475903342e-05
2026-06-27T14:05:31.033497,1782579823.3727708,0.0,0.0,-2.491839647293091,0.0,0.0,-5.158605098724365,0.0,0.0,-2.4320783410293486e-05
2026-06-27T14:05:31.143314,1782579823.477773,0.0,0.0,-3.034628391265869,0.0,0.0,-5.169137477874756,0.0,0.0,5.6557008065678616e-06
2026-06-27T14:05:31.250538,1782579823.5827754,0.0,0.0,-3.576626777648926,0.0,0.0,-5.153684616088867,0.0,0.0,2.4484243361815263e-05
2026-06-27T14:05:31.360107,1782579823.6907775,0.0,0.0,-4.132325172424316,0.0,0.0,-5.137020111083984,0.0,0.0,3.1769297651265594e-05
2026-06-27T14:05:31.468785,1782579823.79878,0.0,0.0,-4.6863017082214355,0.0,0.0,-5.121857166290283,0.0,0.0,2.9117532932922096e-05
2026-06-27T14:05:31.577995,1782579823.9037821,0.0,0.0,-5.2233991622924805,0.0,0.0,-5.108598232269287,0.0,0.0,2.0696453313011948e-05
2026-06-27T14:05:31.687003,1782579824.0147846,0.0,0.0,-5.774465560913086,0.0,0.0,-5.096348285675049,0.0,0.0,1.0075652000749129e-05
2026-06-27T14:05:31.794524,1782579824.1197867,0.0,0.0,-6.324278354644775,0.0,0.0,-5.08536434173584,0.0,0.0,5.860585727149494e-07
2026-06-27T14:05:31.904208,1782579824.2277892,0.0,0.0,-6.8729681968688965,0.0,0.0,-5.075514316558838,0.0,0.0,-6.116416925285456e-06
2026-06-27T14:05:32.012779,1782579824.3357913,0.0,0.0,-7.420650959014893,0.0,0.0,-5.0666823387146,0.0,0.0,-1.0398528477348335e-05
2026-06-27T14:05:32.122332,1782579824.4407935,0.0,0.0,-7.952252388000488,0.0,0.0,-5.05897331237793,0.0,0.0,-1.3089577778672958e-05
2026-06-27T14:05:32.230569,1782579824.548796,0.0,0.0,-8.498242378234863,0.0,0.0,-5.051853179931641,0.0,0.0,-1.3488338117084148e-05
2026-06-27T14:05:32.340586,1782579824.6567981,0.0,0.0,-9.043502807617188,0.0,0.0,-5.045468330383301,0.0,0.0,-1.082444556207398e-05
2026-06-27T14:05:32.449077,1782579824.7618005,0.0,0.0,-9.572996139526367,0.0,0.0,-5.039894104003906,0.0,0.0,-9.107172387799225e-06
2026-06-27T14:05:32.558046,1782579824.8698027,0.0,0.0,-10.117033004760742,0.0,0.0,-5.0347490310668945,0.0,0.0,-7.969762879941941e-06
2026-06-27T14:05:32.666790,1782579824.9778051,0.0,0.0,-10.660543441772461,0.0,0.0,-5.030135154724121,0.0,0.0,-7.266378479470912e-06
2026-06-27T14:05:32.775482,1782579825.0828073,0.0,0.0,-11.18850326538086,0.0,0.0,-5.026107311248779,0.0,0.0,-6.597706805460002e-06
2026-06-27T14:05:32.884558,1782579825.1908095,0.0,0.0,-11.731131553649902,0.0,0.0,-5.022387504577637,0.0,0.0,-5.909930226477352e-06
2026-06-27T14:05:32.992765,1782579825.295812,0.0,0.0,-12.258319854736328,0.0,0.0,-5.019140720367432,0.0,0.0,-5.241258552466444e-06
2026-06-27T14:05:33.102532,1782579825.403814,0.0,0.0,-12.800232887268066,0.0,0.0,-5.01614236831665,0.0,0.0,-4.553481973483796e-06
2026-06-27T14:05:33.212251,1782579825.5118165,0.0,0.0,-13.341839790344238,0.0,0.0,-5.013454437255859,0.0,0.0,-3.865705394501149e-06
2026-06-27T14:05:33.320476,1782579825.6168187,0.0,0.0,-13.868138313293457,0.0,0.0,-5.011108875274658,0.0,0.0,-3.1970337204902423e-06
2026-06-27T14:05:33.429027,1782579825.7218208,0.0,0.0,-14.394203186035156,0.0,0.0,-5.008999347686768,0.0,0.0,-2.528362046479336e-06
2026-06-27T14:05:33.537635,1782579825.8268232,0.0,0.0,-14.920058250427246,0.0,0.0,-5.007102012634277,0.0,0.0,-1.8596903724684306e-06
2026-06-27T14:05:33.646974,1782579825.9318254,0.0,0.0,-15.445723533630371,0.0,0.0,-5.005396842956543,0.0,0.0,-1.191018698457525e-06
2026-06-27T14:05:33.754639,1782579826.0368276,0.0,0.0,-15.971219062805176,0.0,0.0,-5.003863334655762,0.0,0.0,-5.223470244466198e-07
2026-06-27T14:05:33.864405,1782579826.14483,0.0,0.0,-16.511568069458008,0.0,0.0,-5.002447128295898,0.0,0.0,1.6516129383197223e-07
2026-06-27T14:05:33.973090,1782579826.2498322,0.0,0.0,-17.036771774291992,0.0,0.0,-5.001210689544678,0.0,0.0,6.094219096274823e-07
2026-06-27T14:05:34.081864,1782579826.3518343,0.0,0.0,-17.54684829711914,0.0,0.0,-5.000129222869873,0.0,0.0,8.306160530602954e-07
2026-06-27T14:05:34.191060,1782579826.4598367,0.0,0.0,-18.086814880371094,0.0,0.0,-4.9990997314453125,0.0,0.0,9.393347400707046e-07
2026-06-27T14:05:34.300331,1782579826.567839,0.0,0.0,-18.62668228149414,0.0,0.0,-4.998176574707031,0.0,0.0,9.877801347567583e-07
2026-06-27T14:05:34.408238,1782579826.6758413,0.0,0.0,-19.16645050048828,0.0,0.0,-4.997348785400391,0.0,0.0,1.0297678329953184e-06
2026-06-27T14:05:34.517938,1782579826.7838435,0.0,0.0,-19.706132888793945,0.0,0.0,-4.996607780456543,0.0,0.0,1.0394664383299113e-06
2026-06-27T14:05:34.626116,1782579826.888846,0.0,0.0,-20.23075294494629,0.0,0.0,-4.995959758758545,0.0,0.0,1.0488956379607653e-06
2026-06-27T14:05:34.735304,1782579826.996848,0.0,0.0,-20.770296096801758,0.0,0.0,-4.995362281799316,0.0,0.0,1.058594243295358e-06
2026-06-27T14:05:34.844510,1782579827.1018503,0.0,0.0,-21.294795989990234,0.0,0.0,-4.994839668273926,0.0,0.0,1.068023442926212e-06
2026-06-27T14:05:34.953730,1782579827.2098527,0.0,0.0,-21.834224700927734,0.0,0.0,-4.994357585906982,0.0,0.0,1.0777220482608046e-06
2026-06-27T14:05:35.062399,1782579827.317855,0.0,0.0,-22.37359619140625,0.0,0.0,-4.993926048278809,0.0,0.0,1.0430219422416631e-06
2026-06-27T14:05:35.170570,1782579827.4258573,0.0,0.0,-22.912935256958008,0.0,0.0,-4.993537902832031,0.0,0.0,9.945985315495675e-07
2026-06-27T14:05:35.279248,1782579827.5338595,0.0,0.0,-23.452226638793945,0.0,0.0,-4.993191242218018,0.0,0.0,9.46175120857472e-07
2026-06-27T14:05:35.389880,1782579827.641862,0.0,0.0,-23.991487503051758,0.0,0.0,-4.992879390716553,0.0,0.0,8.977517101653764e-07
2026-06-27T14:05:35.498093,1782579827.749864,0.0,0.0,-24.530710220336914,0.0,0.0,-4.992599964141846,0.0,0.0,8.493282994732808e-07
2026-06-27T14:05:35.606326,1782579827.8578665,0.0,0.0,-25.06992530822754,0.0,0.0,-4.992349624633789,0.0,0.0,8.009048887811853e-07
2026-06-27T14:05:35.714492,1782579827.9658687,0.0,0.0,-25.609079360961914,0.0,0.0,-4.992124557495117,0.0,0.0,7.524814780890897e-07
2026-06-27T14:05:35.823879,1782579828.070871,0.0,0.0,-26.133256912231445,0.0,0.0,-4.991929531097412,0.0,0.0,7.054031621384413e-07
2026-06-27T14:05:35.933117,1782579828.1788733,0.0,0.0,-26.67241096496582,0.0,0.0,-4.991748332977295,0.0,0.0,6.569797514463458e-07
2026-06-27T14:05:36.042108,1782579828.2868757,0.0,0.0,-27.211498260498047,0.0,0.0,-4.991586208343506,0.0,0.0,6.085563407542501e-07
2026-06-27T14:05:36.150802,1782579828.394878,0.0,0.0,-27.75058364868164,0.0,0.0,-4.991440296173096,0.0,0.0,5.601329300621546e-07
2026-06-27T14:05:36.259479,1782579828.5028803,0.0,0.0,-28.289669036865234,0.0,0.0,-4.99130916595459,0.0,0.0,5.117095193700591e-07
2026-06-27T14:05:36.368752,1782579828.6138825,0.0,0.0,-28.84372901916504,0.0,0.0,-4.99118709564209,0.0,0.0,4.619410139365164e-07
2026-06-27T14:05:36.477947,1782579828.721885,0.0,0.0,-29.38279914855957,0.0,0.0,-4.991084098815918,0.0,0.0,4.1351785768879536e-07
2026-06-27T14:05:36.587159,1782579828.8298872,0.0,0.0,-29.921815872192383,0.0,0.0,-4.990991115570068,0.0,0.0,3.6509536299644804e-07
2026-06-27T14:05:36.695401,1782579828.9348896,0.0,0.0,-30.445859909057617,0.0,0.0,-4.990907669067383,0.0,0.0,3.180179376011104e-07
2026-06-27T14:05:36.804608,1782579829.0428917,0.0,0.0,-30.98487663269043,0.0,0.0,-4.990832805633545,0.0,0.0,2.6959544290876314e-07
2026-06-27T14:05:36.911918,1782579829.147894,0.0,0.0,-31.508920669555664,0.0,0.0,-4.9907660484313965,0.0,0.0,2.2251801751342546e-07
2026-06-27T14:05:37.021637,1782579829.2528963,0.0,0.0,-32.032962799072266,0.0,0.0,-4.990703582763672,0.0,0.0,1.7544059211808782e-07
2026-06-27T14:05:37.130107,1782579829.3608985,0.0,0.0,-32.57197952270508,0.0,0.0,-4.990650177001953,0.0,0.0,1.2701809742574053e-07
2026-06-27T14:05:37.238841,1782579829.471901,0.0,0.0,-33.12596893310547,0.0,0.0,-4.990597248077393,0.0,0.0,7.72503934919776e-08
2026-06-27T14:05:37.348131,1782579829.576903,0.0,0.0,-33.6500129699707,0.0,0.0,-4.9905524253845215,0.0,0.0,3.017280270779651e-08
2026-06-27T14:05:37.456500,1782579829.6849055,0.0,0.0,-34.189029693603516,0.0,0.0,-4.99051570892334,0.0,0.0,-1.8249822387292727e-08
2026-06-27T14:05:37.565772,1782579829.7929077,0.0,0.0,-34.72804641723633,0.0,0.0,-4.990480899810791,0.0,0.0,-6.667246020460069e-08
2026-06-27T14:05:37.674009,1782579829.89791,0.0,0.0,-35.25209045410156,0.0,0.0,-4.990447521209717,0.0,0.0,-1.1375007007210986e-07
2026-06-27T14:05:37.783216,1782579830.0059123,0.0,0.0,-35.791107177734375,0.0,0.0,-4.990416526794434,0.0,0.0,-1.6217256476445715e-07
2026-06-27T14:05:37.891913,1782579830.1109145,0.0,0.0,-36.31515121459961,0.0,0.0,-4.990392684936523,0.0,0.0,-2.0924999015979482e-07
2026-06-27T14:05:38.000654,1782579830.2159169,0.0,0.0,-36.839195251464844,0.0,0.0,-4.990370273590088,0.0,0.0,-2.5632741555513244e-07
2026-06-27T14:05:38.109738,1782579830.323919,0.0,0.0,-37.36323928833008,0.0,0.0,-4.990349769592285,0.0,0.0,-3.034048409504701e-07
2026-06-27T14:05:38.218413,1782579830.4289215,0.0,0.0,-37.90225601196289,0.0,0.0,-4.990331172943115,0.0,0.0,-3.518273356428174e-07
2026-06-27T14:05:38.328120,1782579830.5369236,0.0,0.0,-38.4412727355957,0.0,0.0,-4.99031400680542,0.0,0.0,-4.002498303351647e-07
2026-06-27T14:05:38.437184,1782579830.644926,0.0,0.0,-38.980289459228516,0.0,0.0,-4.990296840667725,0.0,0.0,-4.4867275758294867e-07
2026-06-27T14:05:38.545827,1782579830.7499282,0.0,0.0,-39.50433349609375,0.0,0.0,-4.9902801513671875,0.0,0.0,-4.957510735335971e-07
2026-06-27T14:05:38.653981,1782579830.8549304,0.0,0.0,-40.028377532958984,0.0,0.0,-4.990265369415283,0.0,0.0,-5.428293894842456e-07
2026-06-27T14:05:38.765221,1782579830.9629328,0.0,0.0,-40.5673942565918,0.0,0.0,-4.990253925323486,0.0,0.0,-5.912528001763412e-07
2026-06-27T14:05:38.872044,1782579831.070935,0.0,0.0,-41.10641098022461,0.0,0.0,-4.9902448654174805,0.0,0.0,-6.396762108684367e-07
2026-06-27T14:05:38.981275,1782579831.1789374,0.0,0.0,-41.64542770385742,0.0,0.0,-4.990235328674316,0.0,0.0,-6.880996215605322e-07
2026-06-27T14:05:39.089883,1782579831.2839396,0.0,0.0,-42.169471740722656,0.0,0.0,-4.9902262687683105,0.0,0.0,-7.351779375111808e-07
2026-06-27T14:05:39.198590,1782579831.3889418,0.0,0.0,-42.69351577758789,0.0,0.0,-4.990218162536621,0.0,0.0,-7.822562534618292e-07
2026-06-27T14:05:39.306898,1782579831.4939442,0.0,0.0,-43.217559814453125,0.0,0.0,-4.990212440490723,0.0,0.0,-8.293345694124776e-07
2026-06-27T14:05:39.414567,1782579831.6019464,0.0,0.0,-43.75657653808594,0.0,0.0,-4.990207195281982,0.0,0.0,-8.777579801045732e-07
2026-06-27T14:05:39.524253,1782579831.7099488,0.0,0.0,-44.29559326171875,0.0,0.0,-4.990200042724609,0.0,0.0,-9.261813907966688e-07
2026-06-27T14:05:39.632946,1782579831.817951,0.0,0.0,-44.83460998535156,0.0,0.0,-4.990195274353027,0.0,0.0,-9.746048014887644e-07
2026-06-27T14:05:39.741644,1782579831.9259534,0.0,0.0,-45.373626708984375,0.0,0.0,-4.9901909828186035,0.0,0.0,-1.0230282121808598e-06
2026-06-27T14:05:39.850528,1782579832.0309556,0.0,0.0,-45.89767074584961,0.0,0.0,-4.99018669128418,0.0,0.0,-1.0701065281315085e-06
2026-06-27T14:05:39.958862,1782579832.1389577,0.0,0.0,-46.43668746948242,0.0,0.0,-4.9901814460754395,0.0,0.0,-1.118529938823604e-06
2026-06-27T14:05:40.068055,1782579832.2439601,0.0,0.0,-46.960731506347656,0.0,0.0,-4.990177631378174,0.0,0.0,-1.1656082547742525e-06
2026-06-27T14:05:40.177068,1782579832.3519623,0.0,0.0,-47.49974822998047,0.0,0.0,-4.990174770355225,0.0,0.0,-1.2140316654663479e-06
2026-06-27T14:05:40.285761,1782579832.4599648,0.0,0.0,-48.03876495361328,0.0,0.0,-4.990170001983643,0.0,0.0,-1.2624550761584435e-06
2026-06-27T14:05:40.394393,1782579832.567967,0.0,0.0,-48.577781677246094,0.0,0.0,-4.99016809463501,0.0,0.0,-1.310878486850539e-06
2026-06-27T14:05:40.503122,1782579832.6759694,0.0,0.0,-49.116798400878906,0.0,0.0,-4.990164756774902,0.0,0.0,-1.3593018975426348e-06
2026-06-27T14:05:40.613366,1782579832.7839715,0.0,0.0,-49.65581512451172,0.0,0.0,-4.990161895751953,0.0,0.0,-1.4077253082347304e-06
2026-06-27T14:05:40.721127,1782579832.891974,0.0,0.0,-50.19483184814453,0.0,0.0,-4.990159511566162,0.0,0.0,-1.456148718926826e-06
2026-06-27T14:05:40.829238,1782579832.9999762,0.0,0.0,-50.733848571777344,0.0,0.0,-4.9901580810546875,0.0,0.0,-1.5045721296189214e-06
2026-06-27T14:05:40.938979,1782579833.1079786,0.0,0.0,-51.25789260864258,0.0,0.0,-4.990156173706055,0.0,0.0,-1.55165044556957e-06
2026-06-27T14:05:41.048710,1782579833.2129807,0.0,0.0,-51.79690933227539,0.0,0.0,-4.990154266357422,0.0,0.0,-1.6000738562616656e-06
2026-06-27T14:05:41.156921,1782579833.317983,0.0,0.0,-52.32087707519531,0.0,0.0,-4.990151405334473,0.0,0.0,-1.647152172212314e-06
2026-06-27T14:05:41.264287,1782579833.4229853,0.0,0.0,-52.84478759765625,0.0,0.0,-4.990148544311523,0.0,0.0,-1.6942304881629624e-06
2026-06-27T14:05:41.374002,1782579833.5309875,0.0,0.0,-53.3836669921875,0.0,0.0,-4.990147113800049,0.0,0.0,-1.742653898855058e-06
2026-06-27T14:05:41.482796,1782579833.63899,0.0,0.0,-53.92254638671875,0.0,0.0,-4.990145206451416,0.0,0.0,-1.7910773095471535e-06
2026-06-27T14:05:41.591857,1782579833.746992,0.0,0.0,-54.46142578125,0.0,0.0,-4.990143775939941,0.0,0.0,-1.8395007202392491e-06
2026-06-27T14:05:41.701054,1782579833.8549945,0.0,0.0,-55.00030517578125,0.0,0.0,-4.990141868591309,0.0,0.0,-1.8879241309313447e-06
2026-06-27T14:05:41.810288,1782579833.9599967,0.0,0.0,-55.52421569824219,0.0,0.0,-4.990139961242676,0.0,0.0,-1.9350024468819933e-06
2026-06-27T14:05:41.919989,1782579834.067999,0.0,0.0,-56.06309509277344,0.0,0.0,-4.990139484405518,0.0,0.0,-1.983425857574089e-06
2026-06-27T14:05:42.028724,1782579834.1730013,0.0,0.0,-56.587005615234375,0.0,0.0,-4.990140438079834,0.0,0.0,-2.030504173524737e-06
2026-06-27T14:05:42.137716,1782579834.2780035,0.0,0.0,-57.11091613769531,0.0,0.0,-4.990140438079834,0.0,0.0,-2.0775824894753855e-06
2026-06-27T14:05:42.245956,1782579834.3860059,0.0,0.0,-57.64979553222656,0.0,0.0,-4.990140438079834,0.0,0.0,-2.126005900167481e-06
2026-06-27T14:05:42.354248,1782579834.491008,0.0,0.0,-58.1737060546875,0.0,0.0,-4.990140438079834,0.0,0.0,-2.1730842161181297e-06
2026-06-27T14:05:42.463472,1782579834.6020103,0.0,0.0,-58.72755432128906,0.0,0.0,-4.990138053894043,0.0,0.0,-2.222852721551673e-06
2026-06-27T14:05:42.572193,1782579834.7070127,0.0,0.0,-59.25146484375,0.0,0.0,-4.99013614654541,0.0,0.0,-2.2699310375023213e-06
2026-06-27T14:05:42.680400,1782579834.8150148,0.0,0.0,-59.79034423828125,0.0,0.0,-4.9901347160339355,0.0,0.0,-2.318354448194416e-06
2026-06-27T14:05:42.789586,1782579834.9230173,0.0,0.0,-60.3292236328125,0.0,0.0,-4.990131855010986,0.0,0.0,-2.366777858886512e-06
2026-06-27T14:05:42.898289,1782579835.0280194,0.0,0.0,-60.85313415527344,0.0,0.0,-4.990130424499512,0.0,0.0,-2.4138561748371607e-06
2026-06-27T14:05:43.008507,1782579835.1390219,0.0,0.0,-61.406982421875,0.0,0.0,-4.990129470825195,0.0,0.0,-2.4636246802707034e-06
2026-06-27T14:05:43.116716,1782579835.247024,0.0,0.0,-61.94586181640625,0.0,0.0,-4.990128993988037,0.0,0.0,-2.5120480909627986e-06
2026-06-27T14:05:43.224583,1782579835.3520265,0.0,0.0,-62.46977233886719,0.0,0.0,-4.9901275634765625,0.0,0.0,-2.559126406913447e-06
2026-06-27T14:05:43.333775,1782579835.4600286,0.0,0.0,-63.00865173339844,0.0,0.0,-4.990126609802246,0.0,0.0,-2.607549817605543e-06
2026-06-27T14:05:43.443002,1782579835.5620308,0.0,0.0,-63.51759338378906,0.0,0.0,-4.990124702453613,0.0,0.0,-2.6532830388147446e-06
2026-06-27T14:05:43.551188,1782579835.6700332,0.0,0.0,-64.05647277832031,0.0,0.0,-4.9901227951049805,0.0,0.0,-2.7017064495068403e-06
2026-06-27T14:05:43.659864,1782579835.7780354,0.0,0.0,-64.59535217285156,0.0,0.0,-4.990120887756348,0.0,0.0,-2.7501298601989355e-06
2026-06-27T14:05:43.768568,1782579835.8830378,0.0,0.0,-65.1192626953125,0.0,0.0,-4.990118980407715,0.0,0.0,-2.7972081761495844e-06
2026-06-27T14:05:43.877827,1782579835.99104,0.0,0.0,-65.65814208984375,0.0,0.0,-4.990118980407715,0.0,0.0,-2.8456315868416796e-06
2026-06-27T14:05:43.987184,1782579836.0990424,0.0,0.0,-66.197021484375,0.0,0.0,-4.99011754989624,0.0,0.0,-2.8940549975337753e-06
2026-06-27T14:05:44.095371,1782579836.2040446,0.0,0.0,-66.72093200683594,0.0,0.0,-4.990115642547607,0.0,0.0,-2.941133313484424e-06
2026-06-27T14:05:44.204607,1782579836.3120468,0.0,0.0,-67.25981140136719,0.0,0.0,-4.990115642547607,0.0,0.0,-2.9895567241765194e-06
2026-06-27T14:05:44.313423,1782579836.4200492,0.0,0.0,-67.79869079589844,0.0,0.0,-4.990114688873291,0.0,0.0,-3.0379801348686155e-06
2026-06-27T14:05:44.422214,1782579836.5280514,0.0,0.0,-68.33757019042969,0.0,0.0,-4.990113735198975,0.0,0.0,-3.086403545560711e-06
2026-06-27T14:05:44.530653,1782579836.6360538,0.0,0.0,-68.87644958496094,0.0,0.0,-4.9901123046875,0.0,0.0,-3.1348269562528067e-06
2026-06-27T14:05:44.639903,1782579836.744056,0.0,0.0,-69.41532897949219,0.0,0.0,-4.990110397338867,0.0,0.0,-3.1832503669449023e-06
2026-06-27T14:05:44.749165,1782579836.8520584,0.0,0.0,-69.95420837402344,0.0,0.0,-4.990109920501709,0.0,0.0,-3.2316737776369975e-06
2026-06-27T14:05:44.857341,1782579836.9600606,0.0,0.0,-70.49308776855469,0.0,0.0,-4.990108966827393,0.0,0.0,-3.280097188329094e-06
2026-06-27T14:05:44.966574,1782579837.068063,0.0,0.0,-71.03196716308594,0.0,0.0,-4.990108013153076,0.0,0.0,-3.3285205990211892e-06
2026-06-27T14:05:45.075765,1782579837.1760652,0.0,0.0,-71.57084655761719,0.0,0.0,-4.990106582641602,0.0,0.0,-3.376944009713285e-06
2026-06-27T14:05:45.184307,1782579837.2840676,0.0,0.0,-72.10972595214844,0.0,0.0,-4.990106105804443,0.0,0.0,-3.425367216849881e-06
2026-06-27T14:05:45.292076,1782579837.3860698,0.0,0.0,-72.61866760253906,0.0,0.0,-4.990104675292969,0.0,0.0,-3.471100438059082e-06
2026-06-27T14:05:45.402491,1782579837.4970722,0.0,0.0,-73.17251586914062,0.0,0.0,-4.990103721618652,0.0,0.0,-3.5208689434926248e-06
2026-06-27T14:05:45.510740,1782579837.6020744,0.0,0.0,-73.69642639160156,0.0,0.0,-4.990103244781494,0.0,0.0,-3.5679472594432733e-06
2026-06-27T14:05:45.619951,1782579837.7100766,0.0,0.0,-74.23530578613281,0.0,0.0,-4.990099906921387,0.0,0.0,-3.616370670135369e-06
2026-06-27T14:05:45.727730,1782579837.818079,0.0,0.0,-74.77418518066406,0.0,0.0,-4.990099906921387,0.0,0.0,-3.6647940808274645e-06
2026-06-27T14:05:45.836441,1782579837.9230812,0.0,0.0,-75.298095703125,0.0,0.0,-4.9900994300842285,0.0,0.0,-3.711872396778113e-06
2026-06-27T14:05:45.945593,1782579838.0310836,0.0,0.0,-75.83697509765625,0.0,0.0,-4.990098476409912,0.0,0.0,-3.7602958074702083e-06
2026-06-27T14:05:46.054264,1782579838.1360857,0.0,0.0,-76.36088562011719,0.0,0.0,-4.990097522735596,0.0,0.0,-3.807374123420858e-06
2026-06-27T14:05:46.163531,1782579838.2440882,0.0,0.0,-76.89976501464844,0.0,0.0,-4.990096569061279,0.0,0.0,-3.855797534112954e-06
2026-06-27T14:05:46.271834,1782579838.3490903,0.0,0.0,-77.42367553710938,0.0,0.0,-4.990095615386963,0.0,0.0,-3.902875850063602e-06
2026-06-27T14:05:46.380978,1782579838.4570925,0.0,0.0,-77.96255493164062,0.0,0.0,-4.9900946617126465,0.0,0.0,-3.9512992607556974e-06
2026-06-27T14:05:46.489741,1782579838.565095,0.0,0.0,-78.50143432617188,0.0,0.0,-4.990092754364014,0.0,0.0,-3.999722671447793e-06
2026-06-27T14:05:46.599063,1782579838.670097,0.0,0.0,-79.02534484863281,0.0,0.0,-4.990092754364014,0.0,0.0,-4.046800987398442e-06
2026-06-27T14:05:46.707954,1782579838.7780995,0.0,0.0,-79.56422424316406,0.0,0.0,-4.990089416503906,0.0,0.0,-4.095224398090538e-06
2026-06-27T14:05:46.816724,1782579838.8861017,0.0,0.0,-80.10310363769531,0.0,0.0,-4.990089416503906,0.0,0.0,-4.143647808782633e-06
2026-06-27T14:05:46.925899,1782579838.9941041,0.0,0.0,-80.64198303222656,0.0,0.0,-4.990088939666748,0.0,0.0,-4.192071219474729e-06
2026-06-27T14:05:47.034162,1782579839.0991063,0.0,0.0,-81.1658935546875,0.0,0.0,-4.990087032318115,0.0,0.0,-4.239149535425377e-06
2026-06-27T14:05:47.143721,1782579839.2071085,0.0,0.0,-81.70477294921875,0.0,0.0,-4.990086078643799,0.0,0.0,-4.287572946117473e-06
2026-06-27T14:05:47.251899,1782579839.312111,0.0,0.0,-82.22868347167969,0.0,0.0,-4.990085124969482,0.0,0.0,-4.3346512620681216e-06
2026-06-27T14:05:47.360701,1782579839.423113,0.0,0.0,-82.78253173828125,0.0,0.0,-4.990084171295166,0.0,0.0,-4.384419767501664e-06
2026-06-27T14:05:47.469890,1782579839.5281155,0.0,0.0,-83.30644226074219,0.0,0.0,-4.990083694458008,0.0,0.0,-4.431498083452313e-06
2026-06-27T14:05:47.578880,1782579839.6361177,0.0,0.0,-83.84532165527344,0.0,0.0,-4.990082740783691,0.0,0.0,-4.4799214941444084e-06
2026-06-27T14:05:47.688062,1782579839.74112,0.0,0.0,-84.36923217773438,0.0,0.0,-4.990081787109375,0.0,0.0,-4.5269998100950565e-06
2026-06-27T14:05:47.796758,1782579839.8491223,0.0,0.0,-84.90811157226562,0.0,0.0,-4.990079879760742,0.0,0.0,-4.575423220787154e-06
2026-06-27T14:05:47.904440,1782579839.9571247,0.0,0.0,-85.44699096679688,0.0,0.0,-4.990078449249268,0.0,0.0,-4.623846631479248e-06
2026-06-27T14:05:48.015331,1782579840.065127,0.0,0.0,-85.98587036132812,0.0,0.0,-4.990078449249268,0.0,0.0,-4.672270042171345e-06
2026-06-27T14:05:48.123022,1782579840.170129,0.0,0.0,-86.50978088378906,0.0,0.0,-4.990077495574951,0.0,0.0,-4.719348358121993e-06
2026-06-27T14:05:48.232713,1782579840.2781315,0.0,0.0,-87.04866027832031,0.0,0.0,-4.990076541900635,0.0,0.0,-4.767771768814089e-06
2026-06-27T14:05:48.340897,1782579840.3861337,0.0,0.0,-87.58753967285156,0.0,0.0,-4.990075588226318,0.0,0.0,-4.8161951795061845e-06
2026-06-27T14:05:48.449420,1782579840.494136,0.0,0.0,-88.12641906738281,0.0,0.0,-4.990074634552002,0.0,0.0,-4.86461859019828e-06
2026-06-27T14:05:48.558588,1782579840.6021383,0.0,0.0,-88.66529846191406,0.0,0.0,-4.990072727203369,0.0,0.0,-4.913042000890377e-06
2026-06-27T14:05:48.667869,1782579840.7101407,0.0,0.0,-89.20417785644531,0.0,0.0,-4.990072250366211,0.0,0.0,-4.961465411582472e-06
2026-06-27T14:05:48.777050,1782579840.818143,0.0,0.0,-89.74305725097656,0.0,0.0,-4.9900712966918945,0.0,0.0,-5.009888822274568e-06
2026-06-27T14:05:48.884382,1782579840.9261453,0.0,0.0,-90.28193664550781,0.0,0.0,-4.99006986618042,0.0,0.0,-5.0583122329666635e-06
2026-06-27T14:05:48.994061,1782579841.0311475,0.0,0.0,-90.80584716796875,0.0,0.0,-4.990067958831787,0.0,0.0,-5.1053905489173116e-06
2026-06-27T14:05:49.103691,1782579841.14215,0.0,0.0,-91.3447265625,0.0,0.0,-4.990067958831787,0.0,0.0,-5.153813959609407e-06
2026-06-27T14:05:49.211959,1782579841.250152,0.0,0.0,-91.89857482910156,0.0,0.0,-4.990067005157471,0.0,0.0,-5.2035824650429495e-06
2026-06-27T14:05:49.321241,1782579841.3551545,0.0,0.0,-92.4224853515625,0.0,0.0,-4.990066051483154,0.0,0.0,-5.250660780993599e-06
2026-06-27T14:05:49.429746,1782579841.4631567,0.0,0.0,-92.96136474609375,0.0,0.0,-4.990065097808838,0.0,0.0,-5.299084191685695e-06
2026-06-27T14:05:49.539828,1782579841.5711591,0.0,0.0,-93.500244140625,0.0,0.0,-4.9900641441345215,0.0,0.0,-5.3475076023777906e-06
2026-06-27T14:05:49.648015,1782579841.6761613,0.0,0.0,-94.02415466308594,0.0,0.0,-4.990063190460205,0.0,0.0,-5.39458591832844e-06
2026-06-27T14:05:49.756814,1782579841.7841635,0.0,0.0,-94.56303405761719,0.0,0.0,-4.990062236785889,0.0,0.0,-5.443009329020536e-06
2026-06-27T14:05:49.864519,1782579841.8891659,0.0,0.0,-95.08694458007812,0.0,0.0,-4.990060806274414,0.0,0.0,-5.490087644971184e-06
2026-06-27T14:05:49.973699,1782579841.997168,0.0,0.0,-95.62582397460938,0.0,0.0,-4.990059852600098,0.0,0.0,-5.53851105566328e-06
2026-06-27T14:05:50.083421,1782579842.1051705,0.0,0.0,-96.16470336914062,0.0,0.0,-4.990058898925781,0.0,0.0,-5.586934466355375e-06
2026-06-27T14:05:50.192639,1782579842.2101727,0.0,0.0,-96.68861389160156,0.0,0.0,-4.990057945251465,0.0,0.0,-5.6340127823060234e-06
2026-06-27T14:05:50.301783,1782579842.318175,0.0,0.0,-97.22749328613281,0.0,0.0,-4.990056991577148,0.0,0.0,-5.682436192998119e-06
2026-06-27T14:05:50.409479,1782579842.4231772,0.0,0.0,-97.75140380859375,0.0,0.0,-4.990055561065674,0.0,0.0,-5.729514508948769e-06
2026-06-27T14:05:50.519059,1782579842.5281794,0.0,0.0,-98.27531433105469,0.0,0.0,-4.990054130554199,0.0,0.0,-5.776592824899417e-06
2026-06-27T14:05:50.629266,1782579842.6361818,0.0,0.0,-98.81419372558594,0.0,0.0,-4.990053176879883,0.0,0.0,-5.8250162355915134e-06
2026-06-27T14:05:50.736708,1782579842.741184,0.0,0.0,-99.33810424804688,0.0,0.0,-4.990052223205566,0.0,0.0,-5.8720945515421615e-06
2026-06-27T14:05:50.845516,1782579842.8491864,0.0,0.0,-99.87698364257812,0.0,0.0,-4.99005126953125,0.0,0.0,-5.920517962234258e-06
2026-06-27T14:05:50.954272,1782579842.9571886,2.205282498835004e-06,-6.759934763067577e-07,-100.41252899169922,0.00016945610695984215,-5.114150553708896e-05,-4.88590669631958,-0.02113102854313203,-0.07439986646286798,-0.4738451400654048
2026-06-27T14:05:51.063084,1782579843.065191,0.00020401221991050988,-5.80127707507927e-05,-100.9375,0.0050851344130933285,-0.0014302583876997232,-4.8713765144348145,-0.1144751709387547,-0.5312245739378278,-3.375436004092393
2026-06-27T14:05:51.172097,1782579843.1731932,0.0015507143689319491,-0.00043318409007042646,-101.47052764892578,0.0218688752502203,-0.006065296940505505,-4.986893177032471,-0.15992443192265113,-1.2126658349215973,-7.851544278524641
2026-06-27T14:05:51.280790,1782579843.2811954,0.005339396186172962,-0.00147901417221874,-102.01022338867188,0.050454504787921906,-0.013879513368010521,-4.999781608581543,-0.09476835705786418,-1.9992503618006974,-12.503897849545108
2026-06-27T14:05:51.389981,1782579843.3891978,0.012940517626702785,-0.003561493009328842,-102.54991912841797,0.09263016283512115,-0.02529674768447876,-4.993010997772217,0.05398981179178564,-2.7975264339536365,-16.188767044378036
2026-06-27T14:05:51.498688,1782579843.4942,0.025406314060091972,-0.006953994277864695,-103.0736312866211,0.1469820737838745,-0.0398845337331295,-4.981760025024414,0.20836859321637308,-3.557788217422747,-18.3194083778042
2026-06-27T14:05:51.608446,1782579843.6022024,0.044897276908159256,-0.012226291932165623,-103.61083984375,0.2161479890346527,-0.058313414454460144,-4.965331077575684,0.3108114389622286,-4.31676456512987,-18.99716944579525
2026-06-27T14:05:51.717660,1782579843.7102046,0.07255759835243225,-0.01966906525194645,-104.14595031738281,0.29815709590911865,-0.08005305379629135,-4.9426469802856445,0.3228676453796509,-5.05818196588455,-18.47979711941478
2026-06-27T14:05:51.825349,1782579843.815207,0.10856577008962631,-0.02931782603263855,-104.66346740722656,0.3895570635795593,-0.10421202331781387,-4.913516998291016,0.25305584581269863,-5.754619180428726,-17.315244719864253
2026-06-27T14:05:51.935427,1782579843.9232092,0.1562175750732422,-0.042045798152685165,-105.1921157836914,0.49469688534736633,-0.13196711242198944,-4.874618053436279,0.1286774583069398,-6.441343684623045,-15.931841792259466
2026-06-27T14:05:52.043588,1782579844.0312116,0.21579886972904205,-0.05792255699634552,-105.71603393554688,0.6103338003158569,-0.16249088943004608,-4.825272560119629,-0.005718543265570394,-7.096309838981547,-14.743826528260819
2026-06-27T14:05:52.151802,1782579844.1362138,0.2861948013305664,-0.07665068656206131,-106.21964263916016,0.7320339679718018,-0.19463329017162323,-4.765556812286377,-0.10978140373092439,-7.719259417339047,-13.982948085919093
2026-06-27T14:05:52.260500,1782579844.244216,0.372414231300354,-0.09956333786249161,-106.7304458618164,0.8659937977790833,-0.23004227876663208,-4.691054344177246,-0.16749762791865153,-8.329207890271928,-13.656143711016444
2026-06-27T14:05:52.369706,1782579844.3522184,0.47353821992874146,-0.126417338848114,-107.23235321044922,1.0079323053359985,-0.2675921618938446,-4.600882053375244,-0.17150247186651393,-8.932076260525271,-13.718924193442462
2026-06-27T14:05:52.479416,1782579844.4572206,0.5869283676147461,-0.15651506185531616,-107.71018981933594,1.1529481410980225,-0.30598416924476624,-4.497932434082031,-0.13406837252390488,-9.493884059009277,-14.019747973069629
2026-06-27T14:05:52.587617,1782579844.565223,0.7197611927986145,-0.19176359474658966,-108.1893081665039,1.307881236076355,-0.34702640771865845,-4.371210098266602,-0.07260134601861368,-10.063603401140417,-14.424869521208551
2026-06-27T14:05:52.696317,1782579844.6732252,0.8696315884590149,-0.23152662813663483,-108.6536865234375,1.4681198596954346,-0.3894937038421631,-4.223639965057373,-0.008431303998418878,-10.616907085349537,-14.800558741352619
2026-06-27T14:05:52.806024,1782579844.7812276,1.037023663520813,-0.2759341299533844,-109.10076141357422,1.6321887969970703,-0.4329907298088074,-4.050423622131348,0.04185355164808578,-11.164279300105704,-15.067122073837416
2026-06-27T14:05:52.915222,1782579844.8892298,1.2222628593444824,-0.3250736892223358,-109.52743530273438,1.7983965873718262,-0.4770648181438446,-3.845541000366211,0.06949367769466103,-11.718023789338629,-15.196465880116143
2026-06-27T14:05:53.023922,1782579845.0002322,1.431355595588684,-0.38053953647613525,-109.94059753417969,1.9686344861984253,-0.5222139358520508,-3.5902397632598877,0.07352084882928353,-12.321697448827633,-15.200940612012673
2026-06-27T14:05:53.132848,1782579845.1052344,1.6463360786437988,-0.43756648898124695,-110.30235290527344,2.1246440410614014,-0.5635929107666016,-3.2869741916656494,0.05967217099235733,-12.979531903754474,-15.123005734872104
2026-06-27T14:05:53.242142,1782579845.2132368,1.8837981224060059,-0.5005565285682678,-110.63573455810547,2.2677955627441406,-0.6015629172325134,-2.85851788520813,0.035442199582561014,-13.863153888284499,-15.005311748357986
2026-06-27T14:05:53.351330,1782579845.321239,2.13492751121521,-0.5671719312667847,-110.91307067871094,2.383615016937256,-0.6322847008705139,-2.273580551147461,0.00839115262244893,-15.038094416085531,-14.889626349263605
2026-06-27T14:05:53.460099,1782579845.4262414,2.3957064151763916,-0.6363467574119568,-111.13827514648438,2.5952470302581787,-0.6884282827377319,-2.06097412109375,-0.013676437306937388,-15.099594392277814,-14.805124865281236
2026-06-27T14:05:53.568351,1782579845.5312436,2.6803929805755615,-0.7118645906448364,-111.3486099243164,2.8252766132354736,-0.7494564056396484,-1.9469082355499268,-0.02403866955495307,-14.294099823330052,-14.759927278384906
2026-06-27T14:05:53.676777,1782579845.6392457,2.9975411891937256,-0.7959946393966675,-111.55269622802734,3.044201135635376,-0.8075394630432129,-1.8329757452011108,-0.0236088055012601,-13.062214728494036,-14.7521577686793
2026-06-27T14:05:53.785522,1782579845.7472482,3.337185859680176,-0.886093020439148,-111.74484252929688,3.2418110370635986,-0.8599671721458435,-1.727194905281067,-0.01698171006457255,-11.703594014691667,-14.772333834365359
2026-06-27T14:05:53.894196,1782579845.8522503,3.6867754459381104,-0.9788299202919006,-111.9213638305664,3.413597583770752,-0.9055423140525818,-1.6375762224197388,-0.009153329703330881,-10.402653848813001,-14.805125660413797
2026-06-27T14:05:54.003329,1782579845.9572525,4.053380012512207,-1.0760812759399414,-112.0892333984375,3.5660688877105713,-0.9459906220436096,-1.5619606971740723,-0.0026925244318087983,-9.189043011045486,-14.839087086228252
2026-06-27T14:05:54.112571,1782579846.062255,4.435029983520508,-1.1773236989974976,-112.24983978271484,3.700362205505371,-0.9816138744354248,-1.4990066289901733,0.0013715748767951336,-8.091280362374928,-14.86614322890906
2026-06-27T14:05:54.220763,1782579846.170257,4.829887390136719,-1.2820695638656616,-112.40438842773438,3.8179280757904053,-1.0127975940704346,-1.4466350078582764,0.003140641174322962,-7.117127863287017,-14.88245104821204
2026-06-27T14:05:54.329500,1782579846.2722592,5.236281394958496,-1.3898756504058838,-112.55390167236328,3.9203848838806152,-1.0399730205535889,-1.402754306793213,0.0032591891552841337,-6.263041203233517,-14.887865487969883
2026-06-27T14:05:54.439128,1782579846.3832617,5.676784038543701,-1.506729006767273,-112.70735168457031,4.014085292816162,-1.0648261308670044,-1.363364815711975,0.0024154128866617527,-5.481381471334754,-14.884271107425436
2026-06-27T14:05:54.547892,1782579846.4882638,6.102384567260742,-1.6196292638778687,-112.8487777709961,4.090587615966797,-1.085119605064392,-1.331188678741455,0.0013417747445590446,-4.8449035370602,-14.875780692532807
2026-06-27T14:05:54.656078,1782579846.5932662,6.535466194152832,-1.7345139980316162,-112.98704528808594,4.156828880310059,-1.1026936769485474,-1.3028897047042847,0.00038990264550466,-4.2966176539294025,-14.865877421535606
2026-06-27T14:05:54.764270,1782579846.6982684,6.975024700164795,-1.8511170148849487,-113.12248229980469,4.214148998260498,-1.1179028749465942,-1.2773643732070923,-0.00026710660686248905,-3.8257774489683953,-14.857248684562759
2026-06-27T14:05:54.873576,1782579846.8032706,7.420185565948486,-1.969207525253296,-113.25536346435547,4.263758182525635,-1.1310691833496094,-1.2539567947387695,-0.0006087125958365715,-3.422070586995506,-14.85142044425446
2026-06-27T14:05:54.982823,1782579846.908273,7.870200157165527,-2.088585615158081,-113.3858642578125,4.306726932525635,-1.1424740552902222,-1.2321473360061646,-0.0006946891359463043,-3.0764040014960496,-14.848791297038687
2026-06-27T14:05:55.093085,1782579847.0162752,8.337450981140137,-2.212536334991455,-113.51777648925781,4.344970226287842,-1.1526259183883667,-1.210906982421875,-0.0006152520244310383,-2.7729686737402743,-14.848967334494382
2026-06-27T14:05:55.200751,1782579847.1182773,8.782280921936035,-2.3305411338806152,-113.64031219482422,4.376342296600342,-1.1609532833099365,-1.191870093345642,-0.0004669607574111011,-2.527874278024069,-14.850928714861608
2026-06-27T14:05:55.310095,1782579847.2232797,9.243316650390625,-2.4528450965881348,-113.76445770263672,4.404498100280762,-1.1684273481369019,-1.172926664352417,-0.0003056020914615927,-2.311717234358973,-14.853735551495342
2026-06-27T14:05:55.418321,1782579847.3282819,9.707117080688477,-2.5758824348449707,-113.88664245605469,4.429050445556641,-1.1749438047409058,-1.154484748840332,-0.00017261726244670016,-2.1270710538739217,-14.85648504577213
2026-06-27T14:05:55.528338,1782579847.433284,10.173330307006836,-2.6995606422424316,-114.00691223144531,4.450519561767578,-1.1806412935256958,-1.1365244388580322,-8.61972605887169e-05,-1.9691875835207318,-14.858584279849069
2026-06-27T14:05:55.638052,1782579847.5412865,10.655062675476074,-2.8273558616638184,-114.12866973876953,4.469847202301025,-1.1857703924179077,-1.118382215499878,-4.337554124307945e-05,-1.8306958369322586,-14.859800005443725
2026-06-27T14:05:55.745249,1782579847.6462886,11.125290870666504,-2.952099561691284,-114.24519348144531,4.486349105834961,-1.1901493072509766,-1.1010433435440063,-4.117848468042652e-05,-1.715822998132063,-14.860086941112373
2026-06-27T14:05:55.853573,1782579847.7512908,11.597146987915039,-3.077275514602661,-114.35990905761719,4.500916957855225,-1.194016456604004,-1.0839738845825195,-5.478732343975732e-05,-1.6176077658296448,-14.859719362738366
2026-06-27T14:05:55.963310,1782579847.8562932,12.07044506072998,-3.2028331756591797,-114.47283935546875,4.513829708099365,-1.197443962097168,-1.0671064853668213,-7.212675323873969e-05,-1.5335407423546819,-14.858992759272338
2026-06-27T14:05:56.071586,1782579847.9582953,12.531441688537598,-3.3251287937164307,-114.58086395263672,4.5250115394592285,-1.2004119157791138,-1.0509154796600342,-9.036048514174323e-05,-1.463429600841208,-14.858210056894936
2026-06-27T14:05:56.179795,1782579848.0632975,13.007128715515137,-3.451322317123413,-114.69033813476562,4.53531551361084,-1.203147530555725,-1.034410834312439,-0.00010658081182055852,-1.4013879817468968,-14.857525357791035
2026-06-27T14:05:56.288496,1782579848.1682997,13.483839988708496,-3.577786922454834,-114.79808807373047,4.5445637702941895,-1.205602765083313,-1.0180256366729736,-0.00011711600873524654,-1.348254113718498,-14.857078794621504
2026-06-27T14:05:56.398157,1782579848.276302,13.975132942199707,-3.708120107650757,-114.9071273803711,4.553130149841309,-1.2078777551651,-1.00132155418396,-0.00012084221113116541,-1.3013422089602433,-14.856909980193462
2026-06-27T14:05:56.506821,1782579848.3813043,14.45362377166748,-3.835056781768799,-115.01142120361328,4.560670375823975,-1.209879755973816,-0.9853447675704956,-0.00011973884429375361,-1.2621634806640873,-14.856955582829364
2026-06-27T14:05:56.616048,1782579848.4863067,14.932868957519531,-3.9621942043304443,-115.11402893066406,4.567532539367676,-1.2117023468017578,-0.9694000482559204,-0.00011543242558659293,-1.2284177110652599,-14.857165048713467
2026-06-27T14:05:56.724230,1782579848.5913088,15.412803649902344,-4.089514255523682,-115.21498107910156,4.573808670043945,-1.2133692502975464,-0.9534909725189209,-9.641153261767527e-05,-1.1993007728934857,-14.857435318298709
2026-06-27T14:05:56.834378,1782579848.696311,15.893372535705566,-4.217001914978027,-115.31427764892578,4.579581260681152,-1.2149025201797485,-0.937812089920044,-8.902548757047584e-05,-1.174088752562648,-14.857669621198934
2026-06-27T14:05:56.942618,1782579848.8013132,16.374523162841797,-4.344643592834473,-115.41192626953125,4.584913730621338,-1.216318130493164,-0.9222676157951355,-8.547819175977907e-05,-1.15221069051779,-14.857839620351621
2026-06-27T14:05:57.051348,1782579848.9063156,16.856212615966797,-4.472429275512695,-115.50796508789062,4.589858531951904,-1.217631459236145,-0.9068513512611389,-8.363230572162971e-05,-1.1331766275219382,-14.857931273201315
2026-06-27T14:05:57.159049,1782579849.0143178,17.352188110351562,-4.604005336761475,-115.60505676269531,4.594594478607178,-1.218889594078064,-0.8911172747612,-8.305684696425096e-05,-1.116092351228785,-14.85794817700195
2026-06-27T14:05:57.269316,1782579849.1193202,17.83485984802246,-4.732051849365234,-115.69783782958984,4.598897457122803,-1.2200325727462769,-0.8759578466415405,-8.339669023703056e-05,-1.1016304231012126,-14.857917975462245
2026-06-27T14:05:57.377561,1782579849.2273223,18.33177947998047,-4.86387825012207,-115.79161071777344,4.603052616119385,-1.2211363315582275,-0.8605172634124756,-8.387089745323665e-05,-1.088533615626355,-14.857889855761595
2026-06-27T14:05:57.487232,1782579849.3353248,18.829133987426758,-4.995820045471191,-115.88371276855469,4.606964588165283,-1.2221752405166626,-0.8452306389808655,-8.440802244799687e-05,-1.0770103412243388,-14.857881699696675
2026-06-27T14:05:57.594650,1782579849.440327,19.313066482543945,-5.124201774597168,-115.9716796875,4.610558032989502,-1.223130226135254,-0.8305009603500366,-8.461790474435809e-05,-1.0670846327953245,-14.857891739224268
2026-06-27T14:05:57.703841,1782579849.545329,19.797365188598633,-5.252681732177734,-116.05811309814453,4.613969802856445,-1.2240368127822876,-0.8159730434417725,-8.480735182814838e-05,-1.0581815912291483,-14.857899212074168
2026-06-27T14:05:57.813525,1782579849.6533315,20.29586410522461,-5.3849287033081055,-116.14542388916016,4.617305278778076,-1.2249233722686768,-0.8010726571083069,-8.500499426205725e-05,-1.0500684166527396,-14.857908716994897
2026-06-27T14:05:57.921710,1782579849.7583337,20.780855178833008,-5.51359224319458,-116.22879028320312,4.620394706726074,-1.2257450819015503,-0.7866938710212708,-8.491693360115827e-05,-1.042970331793936,-14.85791553201074
2026-06-27T14:05:58.030912,1782579849.8603358,21.25229263305664,-5.638660430908203,-116.30833435058594,4.623269081115723,-1.2265087366104126,-0.7729712724685669,-8.499544610372922e-05,-1.0366434411028038,-14.85792164247477
2026-06-27T14:05:58.140147,1782579849.9683383,21.751773834228516,-5.771167755126953,-116.39104461669922,4.626183032989502,-1.227283239364624,-0.7585898041725159,-8.502227049511307e-05,-1.0305397478277338,-14.857930961005792
2026-06-27T14:05:58.249361,1782579850.0733404,22.23767852783203,-5.900074005126953,-116.46996307373047,4.628899574279785,-1.228005290031433,-0.7447236776351929,-8.508923467811129e-05,-1.0251063515289263,-14.857934088591263
2026-06-27T14:05:58.358565,1782579850.1813426,22.737756729125977,-6.032740116119385,-116.54962921142578,4.631581783294678,-1.2287180423736572,-0.7305338382720947,-8.501366081584109e-05,-1.0199556621545478,-14.857940531995427
2026-06-27T14:05:58.467590,1782579850.286345,23.22421646118164,-6.1617937088012695,-116.62562561035156,4.634091377258301,-1.2293857336044312,-0.7170625925064087,-8.479344215668862e-05,-1.0153077785736766,-14.857945574244573
2026-06-27T14:05:58.576309,1782579850.3943472,23.710933685302734,-6.2909159660339355,-116.7002182006836,4.6365065574646,-1.2300279140472412,-0.7035576701164246,-8.467632322178773e-05,-1.0110136541066264,-14.857948860330097
2026-06-27T14:05:58.684521,1782579850.4963493,24.197898864746094,-6.420104026794434,-116.77339935302734,4.638838291168213,-1.2306480407714844,-0.6903594136238098,-8.478579580932539e-05,-1.0069688508508075,-14.857952747235132
2026-06-27T14:05:58.793239,1782579850.6043518,24.699031829833984,-6.5530500411987305,-116.84722900390625,4.641149997711182,-1.231263279914856,-0.6769505143165588,-8.460172033295547e-05,-1.0029669591899717,-14.857956769602373
2026-06-27T14:05:58.901988,1782579850.709354,25.186473846435547,-6.682365894317627,-116.9176254272461,4.643320560455322,-1.2318404912948608,-0.6640749573707581,-8.258303684623672e-05,-0.9993585143507138,-14.858011616509918
2026-06-27T14:05:59.010681,1782579850.8143563,25.67414665222168,-6.811741352081299,-116.9866714477539,4.645415306091309,-1.2323975563049316,-0.651239812374115,-7.963550998132688e-05,-0.9959048473981614,-14.858046742816722
2026-06-27T14:05:59.119804,1782579850.9163585,26.148090362548828,-6.937475681304932,-117.0524673461914,4.647383213043213,-1.2329212427139282,-0.6390014886856079,-6.58994526954898e-05,-0.9927049683847652,-14.85805015827506
2026-06-27T14:05:59.230449,1782579851.0243607,26.650129318237305,-7.070662975311279,-117.12078857421875,4.649397373199463,-1.2334567308425903,-0.6261677145957947,-6.600775114391616e-05,-0.989468361971688,-14.858053395026793
2026-06-27T14:05:59.337500,1782579851.129363,27.138427734375,-7.200205326080322,-117.1858901977539,4.651290416717529,-1.2339602708816528,-0.6138411164283752,-6.975546154029132e-05,-0.9864515960656204,-14.858057109005294
2026-06-27T14:05:59.446226,1782579851.2343652,27.626920700073242,-7.329800128936768,-117.24971008300781,4.6531243324279785,-1.234447956085205,-0.6017727851867676,-6.487022752228761e-05,-0.9835199229891725,-14.85806110485945
2026-06-27T14:05:59.555479,1782579851.3393674,28.1156005859375,-7.459444522857666,-117.31226348876953,4.654897212982178,-1.2349194288253784,-0.5898213982582092,-6.517463760349563e-05,-0.9806855857196768,-14.858065288829378
2026-06-27T14:05:59.664226,1782579851.4443696,28.604463577270508,-7.589137554168701,-117.37357330322266,4.65661096572876,-1.2353756427764893,-0.5780313611030579,-6.498264381818179e-05,-0.977945848368837,-14.858068848354572
2026-06-27T14:05:59.773997,1782579851.546372,29.079532623291016,-7.7151713371276855,-117.43195343017578,4.658222198486328,-1.2358042001724243,-0.5667467713356018,-6.421645916882156e-05,-0.9753722659398913,-14.858115685746919
2026-06-27T14:05:59.882102,1782579851.6543741,29.582717895507812,-7.848665237426758,-117.49252319335938,4.659873008728027,-1.236243486404419,-0.554946780204773,-6.393711269640849e-05,-0.9727251132525838,-14.858131729257895
2026-06-27T14:05:59.990815,1782579851.7593763,30.072099685668945,-7.978494644165039,-117.55020141601562,4.66142463684082,-1.2366563081741333,-0.5436517596244812,-6.363182137290753e-05,-0.9702218384873582,-14.858134101800298
2026-06-27T14:06:00.102009,1782579851.8673787,30.575626373291016,-8.112080574035645,-117.60829162597656,4.662967681884766,-1.2370667457580566,-0.5321964025497437,-6.340050883124414e-05,-0.9677246019429836,-14.858136500799127
2026-06-27T14:06:00.209210,1782579851.9723809,31.065324783325195,-8.241997718811035,-117.66358947753906,4.6644182205200195,-1.2374528646469116,-0.5212435722351074,-6.321844606734473e-05,-0.9653603039365217,-14.85813920041868
2026-06-27T14:06:00.319232,1782579852.0773833,31.55517578125,-8.371953010559082,-117.71775817871094,4.665820598602295,-1.2378259897232056,-0.5104572176933289,-6.2831129293625e-05,-0.9630521662115655,-14.858142035261153
2026-06-27T14:06:00.426338,1782579852.1793854,32.03116226196289,-8.498231887817383,-117.76930236816406,4.667139053344727,-1.238176703453064,-0.5001527070999146,-6.285082522980926e-05,-0.9608656519748927,-14.858142536504454
2026-06-27T14:06:00.534527,1782579852.2843876,32.52128982543945,-8.62826156616211,-117.8212661743164,4.668450355529785,-1.2385258674621582,-0.48969367146492004,-6.24936967674144e-05,-0.9586712652599172,-14.858158783721784
2026-06-27T14:06:00.644227,1782579852.3923898,33.02556610107422,-8.762043952941895,-117.87358093261719,4.669753074645996,-1.238872766494751,-0.47908544540405273,-6.177750030865552e-05,-0.9564639898081321,-14.858210014906131
2026-06-27T14:06:00.753557,1782579852.4973922,33.51596450805664,-8.892145156860352,-117.92334747314453,4.67097806930542,-1.2391986846923828,-0.4690336287021637,-6.144083190157102e-05,-0.9543736097535511,-14.858213360101278
2026-06-27T14:06:00.861749,1782579852.6023943,34.006492614746094,-9.0222806930542,-117.9720687866211,4.672159671783447,-1.2395131587982178,-0.45907485485076904,-6.131809210312284e-05,-0.9523414303242488,-14.858214233754689
2026-06-27T14:06:00.970064,1782579852.7073965,34.49714660644531,-9.152448654174805,-118.01974487304688,4.6732988357543945,-1.2398167848587036,-0.44921332597732544,-5.8386146305595094e-05,-0.9503521550610688,-14.858215231162346
2026-06-27T14:06:01.079271,1782579852.809399,34.97389221191406,-9.27892780303955,-118.0650863647461,4.674370288848877,-1.2401021718978882,-0.4398775100708008,-4.7711006256286685e-05,-0.9484736559385842,-14.85821913999753
2026-06-27T14:06:01.187429,1782579852.917401,35.478797912597656,-9.412878036499023,-118.11206817626953,4.675463676452637,-1.2403932809829712,-0.4301285445690155,-3.892352772646926e-05,-0.9465375439992644,-14.858220315239327
2026-06-27T14:06:01.298632,1782579853.0254035,35.98381423950195,-9.546858787536621,-118.15801239013672,4.676519393920898,-1.240674376487732,-0.42058151960372925,-3.856625716604241e-05,-0.9446319165707376,-14.8582214935095
2026-06-27T14:06:01.405258,1782579853.1274056,36.46086502075195,-9.673421859741211,-118.20044708251953,4.677479267120361,-1.2409294843673706,-0.41168665885925293,-3.8888997124718065e-05,-0.9428977968136838,-14.858252784193628
2026-06-27T14:06:01.514032,1782579853.2354078,36.96609878540039,-9.807456016540527,-118.24442291259766,4.678459644317627,-1.2411905527114868,-0.40243402123451233,-3.824027069134794e-05,-0.9411097492372298,-14.858265623508624
2026-06-27T14:06:01.622725,1782579853.3434103,37.4714469909668,-9.941523551940918,-118.28740692138672,4.679405212402344,-1.2414422035217285,-0.39341023564338684,-3.8228674290861395e-05,-0.9393561504455202,-14.858267141559539
2026-06-27T14:06:01.732096,1782579853.4484124,37.96284103393555,-10.071892738342285,-118.32825469970703,4.680289268493652,-1.2416775226593018,-0.38470426201820374,-3.7674864962942585e-05,-0.9377210247430662,-14.858286418360068
2026-06-27T14:06:01.841205,1782579853.5564146,38.46834945678711,-10.206008911132812,-118.36933135986328,4.6811652183532715,-1.2419108152389526,-0.37597107887268066,-4.028252097391958e-05,-0.9360701300390414,-14.858288143394796
2026-06-27T14:06:01.949380,1782579853.664417,38.973995208740234,-10.340145111083984,-118.40948486328125,4.682009696960449,-1.2421355247497559,-0.36741140484809875,-3.9129081115767055e-05,-0.9344643828984213,-14.858289999665917
2026-06-27T14:06:02.060054,1782579853.7694192,39.46565628051758,-10.470588684082031,-118.44761657714844,4.682798862457275,-1.2423455715179443,-0.3592298626899719,-3.8504294593117495e-05,-0.9329461053508051,-14.858292039948351
2026-06-27T14:06:02.168152,1782579853.8774216,39.971439361572266,-10.604776382446289,-118.48596954345703,4.683582305908203,-1.242553949356079,-0.3509809076786041,-3.976993720947509e-05,-0.931422093649636,-14.858316806590377
2026-06-27T14:06:02.276278,1782579853.9854238,40.46328353881836,-10.73525333404541,-118.52240753173828,4.684313774108887,-1.242748498916626,-0.3431236147880554,-3.819003461659209e-05,-0.9299897609894762,-14.858325189681304
2026-06-27T14:06:02.385394,1782579854.0934262,40.983272552490234,-10.873217582702637,-118.56004333496094,4.685056686401367,-1.2429460287094116,-0.33492520451545715,-3.8102881333620195e-05,-0.9285124559374459,-14.858327325888684
2026-06-27T14:06:02.494462,1782579854.1984284,41.47527313232422,-11.003734588623047,-118.59481048583984,4.685731410980225,-1.2431257963180542,-0.3273405134677887,-4.38084757260841e-05,-0.927159630139707,-14.858327074790049
2026-06-27T14:06:02.603168,1782579854.3064308,41.981361389160156,-11.138008117675781,-118.62974548339844,4.686399459838867,-1.243303656578064,-0.31970396637916565,-3.913789083312706e-05,-0.9258200398745232,-14.858329542700977
2026-06-27T14:06:02.711872,1782579854.411433,42.47349548339844,-11.26856517791748,-118.66293334960938,4.687023162841797,-1.2434699535369873,-0.3124406635761261,-4.434438429729338e-05,-0.9245437862097687,-14.85832946231452
2026-06-27T14:06:02.820517,1782579854.5134351,42.95158767700195,-11.395411491394043,-118.69445037841797,4.687605857849121,-1.2436251640319824,-0.3055194616317749,-3.916353747349446e-05,-0.9233477157858706,-14.85833223855813
2026-06-27T14:06:02.929761,1782579854.6214375,43.45792007446289,-11.529732704162598,-118.72706604003906,4.688198566436768,-1.2437832355499268,-0.298318475484848,-4.4799475917966e-05,-0.9221199688657955,-14.858339261508236
2026-06-27T14:06:03.038195,1782579854.7264397,43.95018768310547,-11.660343170166016,-118.7580337524414,4.688751220703125,-1.2439308166503906,-0.2914227843284607,-3.883966899466924e-05,-0.9209784790502411,-14.85839470204589
2026-06-27T14:06:03.147408,1782579854.8314419,44.44257736206055,-11.790961265563965,-118.78827667236328,4.68928337097168,-1.2440727949142456,-0.28474611043930054,-3.8219111734400874e-05,-0.9198523715857341,-14.8583949914606
2026-06-27T14:06:03.256196,1782579854.9394443,44.94904708862305,-11.925337791442871,-118.81866455078125,4.689807891845703,-1.2442127466201782,-0.2779431939125061,-3.683076529020783e-05,-0.9187475329857622,-14.858397937111254
2026-06-27T14:06:03.366030,1782579855.0444465,45.44150924682617,-12.055981636047363,-118.8475112915039,4.690298557281494,-1.2443434000015259,-0.2715369164943695,-3.699289132548525e-05,-0.9176909528546153,-14.858398368604222
2026-06-27T14:06:03.474220,1782579855.1464486,45.91997146606445,-12.182921409606934,-118.8749008178711,4.6907548904418945,-1.2444652318954468,-0.2654114365577698,-3.7123251470801285e-05,-0.9167051929283336,-14.858398948106615
2026-06-27T14:06:03.583538,1782579855.2514508,46.412506103515625,-12.3135986328125,-118.90243530273438,4.6912078857421875,-1.2445858716964722,-0.2592298090457916,-3.687406292081356e-05,-0.9157211058276206,-14.85839953624619
2026-06-27T14:06:03.692281,1782579855.3564532,46.90513229370117,-12.444282531738281,-118.9293441772461,4.6916399002075195,-1.2447013854980469,-0.25313645601272583,-3.568331476003662e-05,-0.9147822106312112,-14.858400226561946
2026-06-27T14:06:03.801032,1782579855.4644554,47.4118766784668,-12.578727722167969,-118.95635223388672,4.692068099975586,-1.244815707206726,-0.24707110226154327,-3.521934502525362e-05,-0.9138360911224604,-14.858400898263152
2026-06-27T14:06:03.909779,1782579855.5694578,47.904544830322266,-12.70943832397461,-118.98198699951172,4.69246768951416,-1.2449222803115845,-0.24127237498760223,-3.482201707003593e-05,-0.9129472424812776,-14.858401688413386
2026-06-27T14:06:04.019087,1782579855.67446,48.39729690551758,-12.840158462524414,-119.00702667236328,4.692850589752197,-1.2450242042541504,-0.23559316992759705,-2.8113097888339277e-05,-0.9120877088594985,-14.858402590387902
2026-06-27T14:06:04.128327,1782579855.779462,48.890098571777344,-12.970902442932129,-119.0314712524414,4.693217754364014,-1.245121955871582,-0.23000845313072205,-2.6984957900525218e-05,-0.9112611351986829,-14.858428015135674
2026-06-27T14:06:04.236454,1782579855.8844645,49.38290023803711,-13.101646423339844,-119.05532836914062,4.693570137023926,-1.245215654373169,-0.22458255290985107,-2.6774289326619217e-05,-0.9104643394061341,-14.858428996373945
2026-06-27T14:06:04.345477,1782579855.9894667,49.875709533691406,-13.232390403747559,-119.07862854003906,4.693907260894775,-1.2453055381774902,-0.21926988661289215,-2.656682279240314e-05,-0.9096880460980427,-14.858427417203389
2026-06-27T14:06:04.454044,1782579856.0974689,50.382728576660156,-13.366901397705078,-119.10202026367188,4.694240093231201,-1.245393991470337,-0.21391792595386505,-2.6219208439806198e-05,-0.9089195407426606,-14.858428459862582
2026-06-27T14:06:04.563230,1782579856.2054713,50.889747619628906,-13.501415252685547,-119.12483978271484,4.6945576667785645,-1.245478868484497,-0.20868948101997375,-2.5816874399547216e-05,-0.9081787982333589,-14.858429560689125
2026-06-27T14:06:04.671029,1782579856.3104734,51.38268280029297,-13.632192611694336,-119.14649200439453,4.694852352142334,-1.2455580234527588,-0.2037084996700287,-2.5316268993216058e-05,-0.907489797800227,-14.85844741378167
2026-06-27T14:06:04.780226,1782579856.4184759,51.88970184326172,-13.766708374023438,-119.16822052001953,4.6951446533203125,-1.2456358671188354,-0.19870349764823914,-2.5209097244339113e-05,-0.9068081856810001,-14.858448634606576
2026-06-27T14:06:04.889148,1782579856.523478,52.38276290893555,-13.8975191116333,-119.18883514404297,4.695413589477539,-1.2457078695297241,-0.1939435750246048,-1.733155941178162e-05,-0.9061688297631741,-14.858450003595657
