time,sim_t,x,y,z,vx,vy,vz,roll_deg,pitch_deg,yaw_deg
2026-06-27T13:10:01.315400,1782576599.4109945,0.0,0.0,2.018218994140625,0.0,0.0,0.0,0.0,0.0,0.0003895640909249624
2026-06-27T13:10:01.421094,1782576599.5159967,0.0,0.0,2.018218994140625,0.0,0.0,0.0,0.0,0.0,0.0003895640909249624
2026-06-27T13:10:01.530982,1782576599.6239989,0.0,0.0,2.018218994140625,0.0,0.0,0.0,0.0,0.0,0.0003895640909249624
2026-06-27T13:10:01.639721,1782576599.7320013,0.0,0.0,2.018218994140625,0.0,0.0,0.0,0.0,0.0,0.0003895640909249624
2026-06-27T13:10:01.748408,1782576599.8400035,0.0,0.0,2.018218994140625,0.0,0.0,0.0,0.0,0.0,0.0003895640909249624
2026-06-27T13:10:01.856388,1782576599.945006,0.0,0.0,2.018218994140625,0.0,0.0,0.0,0.0,0.0,0.0003895640909249624
2026-06-27T13:10:01.965604,1782576600.053008,0.0,0.0,2.018218994140625,0.0,0.0,0.0,0.0,0.0,0.0003895640909249624
2026-06-27T13:10:02.075463,1782576600.1610105,0.0,0.0,2.018218994140625,0.0,0.0,0.0,0.0,0.0,0.0003895640909249624
2026-06-27T13:10:02.183134,1782576600.2690127,0.0,0.0,2.018218994140625,0.0,0.0,0.0,0.0,0.0,0.0003895640909249624
2026-06-27T13:10:02.291329,1782576600.377015,0.0,0.0,2.018218994140625,0.0,0.0,0.0,0.0,0.0,0.0003895640909249624
2026-06-27T13:10:02.401520,1782576600.4850173,0.0,0.0,2.018218994140625,0.0,0.0,0.0,0.0,0.0,0.0003895640909249624
2026-06-27T13:10:02.510149,1782576600.5930197,0.0,0.0,2.018218994140625,0.0,0.0,0.0,0.0,0.0,0.0003895640909249624
2026-06-27T13:10:02.619635,1782576600.701022,0.0,0.0,2.018218994140625,0.0,0.0,0.0,0.0,0.0,0.0003895640909249624
2026-06-27T13:10:02.727660,1782576600.8090243,0.0,0.0,2.018218994140625,0.0,0.0,0.0,0.0,0.0,0.0003895640909249624
2026-06-27T13:10:02.836810,1782576600.9170265,0.0,0.0,2.0168328285217285,0.0,0.0,-0.1308533251285553,0.0,0.0,0.0003895640909249624
2026-06-27T13:10:02.947175,1782576601.025029,0.0,0.0,1.9829258918762207,0.0,0.0,-0.4060625731945038,0.0,0.0,0.0003895640909249624
2026-06-27T13:10:03.054837,1782576601.1330311,0.0,0.0,1.9366029500961304,0.0,0.0,-0.44159793853759766,0.0,0.0,0.0003895640909249624
2026-06-27T13:10:03.163148,1782576601.2380333,0.0,0.0,1.8897169828414917,0.0,0.0,-0.45029962062835693,0.0,0.0,0.0003895640909249624
2026-06-27T13:10:03.271295,1782576601.3460357,0.0,0.0,1.8407745361328125,0.0,0.0,-0.45579788088798523,0.0,0.0,0.0003895640909249624
2026-06-27T13:10:03.380003,1782576601.454038,0.0,0.0,1.791292667388916,0.0,0.0,-0.4604073166847229,0.0,0.0,0.0003895640909249624
2026-06-27T13:10:03.490319,1782576601.5620403,0.0,0.0,1.7413437366485596,0.0,0.0,-0.4644736349582672,0.0,0.0,0.0003895640909249624
2026-06-27T13:10:03.597994,1782576601.6670425,0.0,0.0,1.6923848390579224,0.0,0.0,-0.46798911690711975,0.0,0.0,0.0003895640909249624
2026-06-27T13:10:03.707172,1782576601.775045,0.0,0.0,1.641663670539856,0.0,0.0,-0.47120705246925354,0.0,0.0,0.0003895640909249624
2026-06-27T13:10:03.815376,1782576601.880047,0.0,0.0,1.5920366048812866,0.0,0.0,-0.4739915430545807,0.0,0.0,0.0003895640909249624
2026-06-27T13:10:03.924592,1782576601.9910495,0.0,0.0,1.5392743349075317,0.0,0.0,-0.4766075611114502,0.0,0.0,0.0003895640909249624
2026-06-27T13:10:04.034076,1782576602.0990517,0.0,0.0,1.4876750707626343,0.0,0.0,-0.4788655638694763,0.0,0.0,0.0003895640909249624
2026-06-27T13:10:04.141620,1782576602.204054,0.0,0.0,1.4372886419296265,0.0,0.0,-0.4808195233345032,0.0,0.0,0.0003895640909249624
2026-06-27T13:10:04.251379,1782576602.3090563,0.0,0.0,1.3867082595825195,0.0,0.0,-0.48256152868270874,0.0,0.0,0.0003895640909249624
2026-06-27T13:10:04.360561,1782576602.4170585,0.0,0.0,1.3345025777816772,0.0,0.0,-0.48415642976760864,0.0,0.0,0.0003895640909249624
2026-06-27T13:10:04.469756,1782576602.525061,0.0,0.0,1.2821351289749146,0.0,0.0,-0.4855737090110779,0.0,0.0,0.0003895640909249624
2026-06-27T13:10:04.578501,1782576602.630063,0.0,0.0,1.2310830354690552,0.0,0.0,-0.4868002235889435,0.0,0.0,0.0003895640909249624
2026-06-27T13:10:04.686681,1782576602.7380655,0.0,0.0,1.1784456968307495,0.0,0.0,-0.48792320489883423,0.0,0.0,0.0003895640909249624
2026-06-27T13:10:04.795888,1782576602.8430676,0.0,0.0,1.127160668373108,0.0,0.0,-0.48889490962028503,0.0,0.0,0.0003895640909249624
2026-06-27T13:10:04.904608,1782576602.9480698,0.0,0.0,1.0757791996002197,0.0,0.0,-0.4897612929344177,0.0,0.0,0.0003895640909249624
2026-06-27T13:10:05.013318,1782576603.0530722,0.0,0.0,1.0243116617202759,0.0,0.0,-0.4905337393283844,0.0,0.0,0.0003895640909249624
2026-06-27T13:10:05.122519,1782576603.1640744,0.0,0.0,0.9698202013969421,0.0,0.0,-0.4912594258785248,0.0,0.0,0.0003895640909249624
2026-06-27T13:10:05.231241,1782576603.2660766,0.0,0.0,0.9196798205375671,0.0,0.0,-0.4918529987335205,0.0,0.0,0.0003895640909249624
2026-06-27T13:10:05.340032,1782576603.374079,0.0,0.0,0.8665277361869812,0.0,0.0,-0.4924134314060211,0.0,0.0,0.0003895640909249624
2026-06-27T13:10:05.448221,1782576603.4790812,0.0,0.0,0.8147971630096436,0.0,0.0,-0.4928983449935913,0.0,0.0,0.0003895640909249624
2026-06-27T13:10:05.557423,1782576603.5840836,0.0,0.0,0.7630186080932617,0.0,0.0,-0.493330717086792,0.0,0.0,0.0003895640909249624
2026-06-27T13:10:05.665943,1782576603.6920857,0.0,0.0,0.7097159624099731,0.0,0.0,-0.4937264919281006,0.0,0.0,0.0003895640909249624
2026-06-27T13:10:05.774728,1782576603.797088,0.0,0.0,0.6578555107116699,0.0,0.0,-0.49406909942626953,0.0,0.0,0.0003895640909249624
2026-06-27T13:10:05.883922,1782576603.9050903,0.0,0.0,0.6044777035713196,0.0,0.0,-0.4943827986717224,0.0,0.0,0.0003895640909249624
2026-06-27T13:10:05.991691,1782576604.0100925,0.0,0.0,0.5525519847869873,0.0,0.0,-0.4946541488170624,0.0,0.0,0.0003895640909249624
2026-06-27T13:10:06.100899,1782576604.1120946,0.0,0.0,0.5023687481880188,0.0,0.0,-0.44553548097610474,0.0,0.0,0.0003895640909249624
2026-06-27T13:10:06.211152,1782576604.220097,0.0,0.0,0.48014816641807556,0.0,0.0,-0.03401404991745949,0.0,0.0,0.0003895640909249624
2026-06-27T13:10:06.319029,1782576604.3250992,0.0,0.0,0.4777139723300934,0.0,0.0,-0.18413498997688293,0.0,0.0,0.0003850576465852365
2026-06-27T13:10:06.427714,1782576604.4301014,0.0,0.0,0.42152148485183716,0.0,0.0,-0.8844836950302124,0.0,0.0,0.00031554369750312996
2026-06-27T13:10:06.536251,1782576604.5381038,0.0,0.0,0.2878268361091614,0.0,0.0,-1.587146520614624,0.0,0.0,0.0001940951649481834
2026-06-27T13:10:06.646373,1782576604.646106,0.0,0.0,0.07981191575527191,0.0,0.0,-2.2587151527404785,0.0,0.0,6.694670060591481e-05
2026-06-27T13:10:06.755935,1782576604.7481084,0.0,0.0,-0.1813226044178009,0.0,0.0,-2.8545589447021484,0.0,0.0,-2.981220760067574e-05
2026-06-27T13:10:06.864641,1782576604.8531106,0.0,0.0,-0.5112653970718384,0.0,0.0,-3.4216246604919434,0.0,0.0,-9.11578913636828e-05
2026-06-27T13:10:06.972342,1782576604.9611127,0.0,0.0,-0.9099046587944031,0.0,0.0,-3.951049327850342,0.0,0.0,-0.00011241133277609881
2026-06-27T13:10:07.081398,1782576605.0691152,0.0,0.0,-1.3494127988815308,0.0,0.0,-4.411365985870361,0.0,0.0,-0.00010108740028638724
2026-06-27T13:10:07.190641,1782576605.1771173,0.0,0.0,-1.8634190559387207,0.0,0.0,-4.840009689331055,0.0,0.0,-6.851698309703162e-05
2026-06-27T13:10:07.300697,1782576605.2821198,0.0,0.0,-2.3896918296813965,0.0,0.0,-5.139009952545166,0.0,0.0,-3.192894704383462e-05
2026-06-27T13:10:07.407910,1782576605.390122,0.0,0.0,-2.947504997253418,0.0,0.0,-5.17111349105835,0.0,0.0,7.71441960433854e-07
2026-06-27T13:10:07.518108,1782576605.4951243,0.0,0.0,-3.489814519882202,0.0,0.0,-5.157017230987549,0.0,0.0,2.1824486240335088e-05
2026-06-27T13:10:07.625800,1782576605.6031265,0.0,0.0,-4.045866012573242,0.0,0.0,-5.1401543617248535,0.0,0.0,3.1223446480389494e-05
2026-06-27T13:10:07.735550,1782576605.7081287,0.0,0.0,-4.584788799285889,0.0,0.0,-5.125088691711426,0.0,0.0,3.033201995204124e-05
2026-06-27T13:10:07.843247,1782576605.816131,0.0,0.0,-5.137542724609375,0.0,0.0,-5.111139297485352,0.0,0.0,2.265066101772713e-05
2026-06-27T13:10:07.951476,1782576605.9211333,0.0,0.0,-5.673573017120361,0.0,0.0,-5.098957061767578,0.0,0.0,1.24345711924621e-05
2026-06-27T13:10:08.060917,1782576606.0291357,0.0,0.0,-6.223651885986328,0.0,0.0,-5.087703227996826,0.0,0.0,2.5561823837225347e-06
2026-06-27T13:10:08.170164,1782576606.137138,0.0,0.0,-6.772581100463867,0.0,0.0,-5.077611923217773,0.0,0.0,-4.714294482177585e-06
2026-06-27T13:10:08.279482,1782576606.2451403,0.0,0.0,-7.3204779624938965,0.0,0.0,-5.068562984466553,0.0,0.0,-9.451931080606901e-06
2026-06-27T13:10:08.388624,1782576606.3501425,0.0,0.0,-7.852266788482666,0.0,0.0,-5.060664176940918,0.0,0.0,-1.246773445445916e-05
2026-06-27T13:10:08.496343,1782576606.4581447,0.0,0.0,-8.398429870605469,0.0,0.0,-5.053369045257568,0.0,0.0,-1.4022436807634478e-05
2026-06-27T13:10:08.604326,1782576606.563147,0.0,0.0,-8.928705215454102,0.0,0.0,-5.047000408172607,0.0,0.0,-1.1482564918984926e-05
2026-06-27T13:10:08.713378,1782576606.6711493,0.0,0.0,-9.47347354888916,0.0,0.0,-5.041116714477539,0.0,0.0,-9.466856584060571e-06
2026-06-27T13:10:08.821618,1782576606.7791517,0.0,0.0,-10.017635345458984,0.0,0.0,-5.035844326019287,0.0,0.0,-8.08402509565108e-06
2026-06-27T13:10:08.931292,1782576606.8871539,0.0,0.0,-10.561258316040039,0.0,0.0,-5.031116962432861,0.0,0.0,-7.261958068241301e-06
2026-06-27T13:10:09.039964,1782576606.989156,0.0,0.0,-11.074234962463379,0.0,0.0,-5.027102947235107,0.0,0.0,-6.621521984692802e-06
2026-06-27T13:10:09.149372,1782576607.0971584,0.0,0.0,-11.616965293884277,0.0,0.0,-5.023279190063477,0.0,0.0,-5.9434037070558226e-06
2026-06-27T13:10:09.257927,1782576607.2051606,0.0,0.0,-12.159302711486816,0.0,0.0,-5.019853115081787,0.0,0.0,-5.265285429418842e-06
2026-06-27T13:10:09.367118,1782576607.313163,0.0,0.0,-12.701289176940918,0.0,0.0,-5.016780853271484,0.0,0.0,-4.587167151781865e-06
2026-06-27T13:10:09.475303,1782576607.4181652,0.0,0.0,-13.22791862487793,0.0,0.0,-5.01409912109375,0.0,0.0,-3.927885492968135e-06
2026-06-27T13:10:09.585077,1782576607.5261676,0.0,0.0,-13.769317626953125,0.0,0.0,-5.011623382568359,0.0,0.0,-3.2497672153311577e-06
2026-06-27T13:10:09.692900,1782576607.6311698,0.0,0.0,-14.295433044433594,0.0,0.0,-5.009461879730225,0.0,0.0,-2.5904855565174297e-06
2026-06-27T13:10:09.802614,1782576607.739172,0.0,0.0,-14.836357116699219,0.0,0.0,-5.007465362548828,0.0,0.0,-1.9123672788804533e-06
2026-06-27T13:10:09.910802,1782576607.8441744,0.0,0.0,-15.362058639526367,0.0,0.0,-5.005723476409912,0.0,0.0,-1.2530881645104711e-06
2026-06-27T13:10:10.020335,1782576607.9551766,0.0,0.0,-15.917612075805664,0.0,0.0,-5.004072189331055,0.0,0.0,-5.561370338269886e-07
2026-06-27T13:10:10.129051,1782576608.060179,0.0,0.0,-16.442974090576172,0.0,0.0,-5.00267219543457,0.0,0.0,1.0314125359877594e-07
2026-06-27T13:10:10.239325,1782576608.1621811,0.0,0.0,-16.95319366455078,0.0,0.0,-5.001447677612305,0.0,0.0,5.713726540843224e-07
2026-06-27T13:10:10.346324,1782576608.2671833,0.0,0.0,-17.478294372558594,0.0,0.0,-5.000311851501465,0.0,0.0,8.098118667777804e-07
2026-06-27T13:10:10.455229,1782576608.3721857,0.0,0.0,-18.003286361694336,0.0,0.0,-4.999290943145752,0.0,0.0,9.279727809710188e-07
2026-06-27T13:10:10.564941,1782576608.480188,0.0,0.0,-18.543167114257812,0.0,0.0,-4.998348236083984,0.0,0.0,9.76443823650024e-07
2026-06-27T13:10:10.674119,1782576608.5881903,0.0,0.0,-19.082958221435547,0.0,0.0,-4.99750280380249,0.0,0.0,1.0249148663290292e-06
2026-06-27T13:10:10.782301,1782576608.6931925,0.0,0.0,-19.607667922973633,0.0,0.0,-4.996765613555908,0.0,0.0,1.0381358978066864e-06
2026-06-27T13:10:10.890751,1782576608.7981946,0.0,0.0,-20.13230323791504,0.0,0.0,-4.9961018562316895,0.0,0.0,1.0475900329862432e-06
2026-06-27T13:10:10.999945,1782576608.906197,0.0,0.0,-20.67186164855957,0.0,0.0,-4.995489120483398,0.0,0.0,1.0573142863137873e-06
2026-06-27T13:10:11.109440,1782576609.0141993,0.0,0.0,-21.21135902404785,0.0,0.0,-4.994939804077148,0.0,0.0,1.0670385396413313e-06
2026-06-27T13:10:11.217708,1782576609.1192014,0.0,0.0,-21.73580551147461,0.0,0.0,-4.994460582733154,0.0,0.0,1.0764926748208879e-06
2026-06-27T13:10:11.326856,1782576609.2272038,0.0,0.0,-22.275192260742188,0.0,0.0,-4.994017124176025,0.0,0.0,1.0114125211509057e-06
2026-06-27T13:10:11.435459,1782576609.335206,0.0,0.0,-22.814546585083008,0.0,0.0,-4.993620872497559,0.0,0.0,8.855211797488392e-07
2026-06-27T13:10:11.546147,1782576609.4462085,0.0,0.0,-23.368818283081055,0.0,0.0,-4.993255138397217,0.0,0.0,7.561314317526624e-07
2026-06-27T13:10:11.653324,1782576609.5512106,0.0,0.0,-23.89311408996582,0.0,0.0,-4.992945194244385,0.0,0.0,6.337352909455872e-07
2026-06-27T13:10:11.761501,1782576609.659213,0.0,0.0,-24.432336807250977,0.0,0.0,-4.992659568786621,0.0,0.0,5.078421175440241e-07
2026-06-27T13:10:11.871274,1782576609.7672153,0.0,0.0,-24.971559524536133,0.0,0.0,-4.992403030395508,0.0,0.0,3.819489441424611e-07
2026-06-27T13:10:11.980452,1782576609.8752177,0.0,0.0,-25.51072120666504,0.0,0.0,-4.992172718048096,0.0,0.0,2.56055770740898e-07
2026-06-27T13:10:12.088848,1782576609.9802198,0.0,0.0,-26.03489875793457,0.0,0.0,-4.991971492767334,0.0,0.0,1.3365962993382283e-07
2026-06-27T13:10:12.197050,1782576610.0882223,0.0,0.0,-26.574052810668945,0.0,0.0,-4.991786479949951,0.0,0.0,7.766596476665762e-09
2026-06-27T13:10:12.306703,1782576610.1992245,0.0,0.0,-27.128129959106445,0.0,0.0,-4.9916157722473145,0.0,0.0,-1.2162345685276044e-07
2026-06-27T13:10:12.414940,1782576610.3042269,0.0,0.0,-27.652240753173828,0.0,0.0,-4.991470813751221,0.0,0.0,-2.440195849376169e-07
2026-06-27T13:10:12.523942,1782576610.409229,0.0,0.0,-28.17635154724121,0.0,0.0,-4.991339683532715,0.0,0.0,-3.6641572574469207e-07
2026-06-27T13:10:12.632147,1782576610.5172315,0.0,0.0,-28.715436935424805,0.0,0.0,-4.991219520568848,0.0,0.0,-4.923088991462552e-07
2026-06-27T13:10:12.741370,1782576610.6252337,0.0,0.0,-29.2545223236084,0.0,0.0,-4.991112232208252,0.0,0.0,-6.182020725478182e-07
2026-06-27T13:10:12.850049,1782576610.7302358,0.0,0.0,-29.7785701751709,0.0,0.0,-4.991016864776611,0.0,0.0,-7.405982133548934e-07
2026-06-27T13:10:12.958744,1782576610.8352382,0.0,0.0,-30.302614212036133,0.0,0.0,-4.990933418273926,0.0,0.0,-8.629942014953439e-07
2026-06-27T13:10:13.067461,1782576610.9432404,0.0,0.0,-30.841630935668945,0.0,0.0,-4.990854263305664,0.0,0.0,-9.888855428974105e-07
2026-06-27T13:10:13.176269,1782576611.0482426,0.0,0.0,-31.36567497253418,0.0,0.0,-4.990786552429199,0.0,0.0,-1.1112799025938641e-06
2026-06-27T13:10:13.285963,1782576611.159245,0.0,0.0,-31.91966438293457,0.0,0.0,-4.990716934204102,0.0,0.0,-1.2406682257015435e-06
2026-06-27T13:10:13.394553,1782576611.2672474,0.0,0.0,-32.45867919921875,0.0,0.0,-4.990663051605225,0.0,0.0,-1.3665595671036103e-06
2026-06-27T13:10:13.503766,1782576611.3752496,0.0,0.0,-32.99769592285156,0.0,0.0,-4.990611553192139,0.0,0.0,-1.4924509085056769e-06
2026-06-27T13:10:13.611123,1782576611.4772518,0.0,0.0,-33.50676727294922,0.0,0.0,-4.990566253662109,0.0,0.0,-1.6113482864965173e-06
2026-06-27T13:10:13.721213,1782576611.5852542,0.0,0.0,-34.04578399658203,0.0,0.0,-4.990527153015137,0.0,0.0,-1.737240543898332e-06
2026-06-27T13:10:13.829997,1782576611.6902564,0.0,0.0,-34.569828033447266,0.0,0.0,-4.990492343902588,0.0,0.0,-1.859638465816029e-06
2026-06-27T13:10:13.938824,1782576611.7982588,0.0,0.0,-35.10884475708008,0.0,0.0,-4.990458011627197,0.0,0.0,-1.9855334712170885e-06
2026-06-27T13:10:14.047388,1782576611.903261,0.0,0.0,-35.63288879394531,0.0,0.0,-4.990424633026123,0.0,0.0,-2.1079313931347854e-06
2026-06-27T13:10:14.156587,1782576612.0142634,0.0,0.0,-36.1868782043457,0.0,0.0,-4.990397930145264,0.0,0.0,-2.237323482019208e-06
2026-06-27T13:10:14.265736,1782576612.1192656,0.0,0.0,-36.71092224121094,0.0,0.0,-4.990375518798828,0.0,0.0,-2.359721403936905e-06
2026-06-27T13:10:14.374050,1782576612.2272677,0.0,0.0,-37.24993896484375,0.0,0.0,-4.990354537963867,0.0,0.0,-2.4856164093379645e-06
2026-06-27T13:10:14.482809,1782576612.3352702,0.0,0.0,-37.773983001708984,0.0,0.0,-4.990336894989014,0.0,0.0,-2.608014331255661e-06
2026-06-27T13:10:14.591084,1782576612.4342723,0.0,0.0,-38.28305435180664,0.0,0.0,-4.990320205688477,0.0,0.0,-2.726915169689996e-06
2026-06-27T13:10:14.700810,1782576612.5392745,0.0,0.0,-38.7921257019043,0.0,0.0,-4.990303993225098,0.0,0.0,-2.84581600812433e-06
2026-06-27T13:10:14.809026,1782576612.6442766,0.0,0.0,-39.33114242553711,0.0,0.0,-4.990286827087402,0.0,0.0,-2.9717110135253894e-06
2026-06-27T13:10:14.917696,1782576612.749279,0.0,0.0,-39.855186462402344,0.0,0.0,-4.990270137786865,0.0,0.0,-3.094108935443087e-06
2026-06-27T13:10:15.026918,1782576612.8572812,0.0,0.0,-40.394203186035156,0.0,0.0,-4.990258693695068,0.0,0.0,-3.2200039408441462e-06
2026-06-27T13:10:15.136182,1782576612.9532833,0.0,0.0,-40.873329162597656,0.0,0.0,-4.9902496337890625,0.0,0.0,-3.3319106123117553e-06
2026-06-27T13:10:15.244884,1782576613.0582855,0.0,0.0,-41.39737319946289,0.0,0.0,-4.99023962020874,0.0,0.0,-3.4543083306739524e-06
2026-06-27T13:10:15.353771,1782576613.166288,0.0,0.0,-41.9363899230957,0.0,0.0,-4.990230083465576,0.0,0.0,-3.5802033360750123e-06
2026-06-27T13:10:15.462290,1782576613.27429,0.0,0.0,-42.475406646728516,0.0,0.0,-4.990222930908203,0.0,0.0,-3.7060983414760717e-06
2026-06-27T13:10:15.571067,1782576613.3792925,0.0,0.0,-42.99945068359375,0.0,0.0,-4.990216255187988,0.0,0.0,-3.82849626339377e-06
2026-06-27T13:10:15.680272,1782576613.4872947,0.0,0.0,-43.53846740722656,0.0,0.0,-4.990208625793457,0.0,0.0,-3.954391268794829e-06
2026-06-27T13:10:15.788966,1782576613.595297,0.0,0.0,-44.077484130859375,0.0,0.0,-4.990202903747559,0.0,0.0,-4.08028627419589e-06
2026-06-27T13:10:15.899233,1782576613.7032993,0.0,0.0,-44.61650085449219,0.0,0.0,-4.990198135375977,0.0,0.0,-4.206181279596949e-06
2026-06-27T13:10:16.007130,1782576613.8113017,0.0,0.0,-45.155517578125,0.0,0.0,-4.990192890167236,0.0,0.0,-4.332076284998009e-06
2026-06-27T13:10:16.116640,1782576613.919304,0.0,0.0,-45.69453430175781,0.0,0.0,-4.990188121795654,0.0,0.0,-4.457971290399069e-06
2026-06-27T13:10:16.225800,1782576614.0273063,0.0,0.0,-46.233551025390625,0.0,0.0,-4.990184307098389,0.0,0.0,-4.583866295800129e-06
2026-06-27T13:10:16.335531,1782576614.1353085,0.0,0.0,-46.77256774902344,0.0,0.0,-4.990179538726807,0.0,0.0,-4.7097613012011884e-06
2026-06-27T13:10:16.442716,1782576614.2403107,0.0,0.0,-47.29661178588867,0.0,0.0,-4.990174770355225,0.0,0.0,-4.832159223118886e-06
2026-06-27T13:10:16.551478,1782576614.348313,0.0,0.0,-47.835628509521484,0.0,0.0,-4.990172386169434,0.0,0.0,-4.9580542285199465e-06
2026-06-27T13:10:16.662231,1782576614.4563153,0.0,0.0,-48.3746452331543,0.0,0.0,-4.990168571472168,0.0,0.0,-5.083949233921006e-06
2026-06-27T13:10:16.770456,1782576614.5643177,0.0,0.0,-48.91366195678711,0.0,0.0,-4.990164756774902,0.0,0.0,-5.209844239322065e-06
2026-06-27T13:10:16.877526,1782576614.6693199,0.0,0.0,-49.437705993652344,0.0,0.0,-4.9901628494262695,0.0,0.0,-5.332242161239763e-06
2026-06-27T13:10:16.987219,1782576614.7773223,0.0,0.0,-49.976722717285156,0.0,0.0,-4.9901604652404785,0.0,0.0,-5.458137166640824e-06
2026-06-27T13:10:17.095456,1782576614.8853245,0.0,0.0,-50.51573944091797,0.0,0.0,-4.9901580810546875,0.0,0.0,-5.584032172041884e-06
2026-06-27T13:10:17.205477,1782576614.993327,0.0,0.0,-51.05475616455078,0.0,0.0,-4.990155220031738,0.0,0.0,-5.709927177442944e-06
2026-06-27T13:10:17.313757,1782576615.101329,0.0,0.0,-51.593772888183594,0.0,0.0,-4.990154266357422,0.0,0.0,-5.835822182844005e-06
2026-06-27T13:10:17.422492,1782576615.2063315,0.0,0.0,-52.11772918701172,0.0,0.0,-4.990151882171631,0.0,0.0,-5.958220104761701e-06
2026-06-27T13:10:17.531167,1782576615.3143337,0.0,0.0,-52.65660858154297,0.0,0.0,-4.990149021148682,0.0,0.0,-6.084115110162762e-06
2026-06-27T13:10:17.639606,1782576615.422336,0.0,0.0,-53.19548797607422,0.0,0.0,-4.990147590637207,0.0,0.0,-6.210010115563822e-06
2026-06-27T13:10:17.747764,1782576615.5273383,0.0,0.0,-53.719398498535156,0.0,0.0,-4.990144729614258,0.0,0.0,-6.3324080374815196e-06
2026-06-27T13:10:17.857042,1782576615.6353405,0.0,0.0,-54.258277893066406,0.0,0.0,-4.990142822265625,0.0,0.0,-6.458303042882581e-06
2026-06-27T13:10:17.966120,1782576615.7403429,0.0,0.0,-54.782188415527344,0.0,0.0,-4.990140914916992,0.0,0.0,-6.580700964800277e-06
2026-06-27T13:10:18.074044,1782576615.848345,0.0,0.0,-55.321067810058594,0.0,0.0,-4.990139484405518,0.0,0.0,-6.706595970201338e-06
2026-06-27T13:10:18.183273,1782576615.9533474,0.0,0.0,-55.84497833251953,0.0,0.0,-4.990139484405518,0.0,0.0,-6.828993892119036e-06
2026-06-27T13:10:18.291445,1782576616.0613496,0.0,0.0,-56.38385772705078,0.0,0.0,-4.990138530731201,0.0,0.0,-6.954888897520095e-06
2026-06-27T13:10:18.401005,1782576616.169352,0.0,0.0,-56.92273712158203,0.0,0.0,-4.990137100219727,0.0,0.0,-7.080783902921157e-06
2026-06-27T13:10:18.509249,1782576616.2743542,0.0,0.0,-57.44664764404297,0.0,0.0,-4.990136623382568,0.0,0.0,-7.203181824838854e-06
2026-06-27T13:10:18.617866,1782576616.3823564,0.0,0.0,-57.98552703857422,0.0,0.0,-4.9901347160339355,0.0,0.0,-7.329076830239914e-06
2026-06-27T13:10:18.727032,1782576616.4873588,0.0,0.0,-58.509437561035156,0.0,0.0,-4.9901323318481445,0.0,0.0,-7.451474752157614e-06
2026-06-27T13:10:18.835729,1782576616.595361,0.0,0.0,-59.048316955566406,0.0,0.0,-4.99013090133667,0.0,0.0,-7.577369757558674e-06
2026-06-27T13:10:18.945096,1782576616.7033634,0.0,0.0,-59.587196350097656,0.0,0.0,-4.9901299476623535,0.0,0.0,-7.703264762959734e-06
2026-06-27T13:10:19.053643,1782576616.8083656,0.0,0.0,-60.111106872558594,0.0,0.0,-4.990128993988037,0.0,0.0,-7.825662684877432e-06
2026-06-27T13:10:19.161357,1782576616.9133677,0.0,0.0,-60.63501739501953,0.0,0.0,-4.990128040313721,0.0,0.0,-7.94806060679513e-06
2026-06-27T13:10:19.270570,1782576617.0183702,0.0,0.0,-61.15892791748047,0.0,0.0,-4.990127086639404,0.0,0.0,-8.070458528712828e-06
2026-06-27T13:10:19.379603,1782576617.1263723,0.0,0.0,-61.69780731201172,0.0,0.0,-4.990126132965088,0.0,0.0,-8.196353534113887e-06
2026-06-27T13:10:19.488782,1782576617.2313745,0.0,0.0,-62.221717834472656,0.0,0.0,-4.99012565612793,0.0,0.0,-8.318751456031587e-06
2026-06-27T13:10:19.598466,1782576617.342377,0.0,0.0,-62.77556610107422,0.0,0.0,-4.990124702453613,0.0,0.0,-8.448143544916011e-06
2026-06-27T13:10:19.706759,1782576617.447379,0.0,0.0,-63.299476623535156,0.0,0.0,-4.990122318267822,0.0,0.0,-8.570541466833709e-06
2026-06-27T13:10:19.815889,1782576617.5553815,0.0,0.0,-63.838356018066406,0.0,0.0,-4.9901204109191895,0.0,0.0,-8.69643647223477e-06
2026-06-27T13:10:19.925094,1782576617.6633837,0.0,0.0,-64.37723541259766,0.0,0.0,-4.9901204109191895,0.0,0.0,-8.822331477635831e-06
2026-06-27T13:10:20.034042,1782576617.7713861,0.0,0.0,-64.9161148071289,0.0,0.0,-4.990119457244873,0.0,0.0,-8.948226483036892e-06
2026-06-27T13:10:20.142721,1782576617.8763883,0.0,0.0,-65.44002532958984,0.0,0.0,-4.99011754989624,0.0,0.0,-9.07062440495459e-06
2026-06-27T13:10:20.250901,1782576617.9843907,0.0,0.0,-65.9789047241211,0.0,0.0,-4.99011754989624,0.0,0.0,-9.196519410355651e-06
2026-06-27T13:10:20.360133,1782576618.092393,0.0,0.0,-66.51778411865234,0.0,0.0,-4.990116119384766,0.0,0.0,-9.322414415756712e-06
2026-06-27T13:10:20.469349,1782576618.197395,0.0,0.0,-67.04169464111328,0.0,0.0,-4.990115642547607,0.0,0.0,-9.44481233767441e-06
2026-06-27T13:10:20.577759,1782576618.3053975,0.0,0.0,-67.58057403564453,0.0,0.0,-4.990114688873291,0.0,0.0,-9.570707343075473e-06
2026-06-27T13:10:20.686340,1782576618.4133997,0.0,0.0,-68.11945343017578,0.0,0.0,-4.990113258361816,0.0,0.0,-9.696602348476536e-06
2026-06-27T13:10:20.795319,1782576618.518402,0.0,0.0,-68.64336395263672,0.0,0.0,-4.990111351013184,0.0,0.0,-9.819000270394232e-06
2026-06-27T13:10:20.903665,1782576618.6264043,0.0,0.0,-69.18224334716797,0.0,0.0,-4.990109443664551,0.0,0.0,-9.944895275795293e-06
2026-06-27T13:10:21.012859,1782576618.7344067,0.0,0.0,-69.72112274169922,0.0,0.0,-4.990109443664551,0.0,0.0,-1.0070790281196356e-05
2026-06-27T13:10:21.120508,1782576618.8394089,0.0,0.0,-70.23006439208984,0.0,0.0,-4.990108489990234,0.0,0.0,-1.0189691119630692e-05
2026-06-27T13:10:21.230083,1782576618.944411,0.0,0.0,-70.7689437866211,0.0,0.0,-4.990107536315918,0.0,0.0,-1.0315586125031753e-05
2026-06-27T13:10:21.339000,1782576619.0524135,0.0,0.0,-71.29285430908203,0.0,0.0,-4.990106582641602,0.0,0.0,-1.0437984046949453e-05
2026-06-27T13:10:21.447764,1782576619.1574156,0.0,0.0,-71.83173370361328,0.0,0.0,-4.990105628967285,0.0,0.0,-1.0563879052350512e-05
2026-06-27T13:10:21.556953,1782576619.265418,0.0,0.0,-72.37061309814453,0.0,0.0,-4.990104675292969,0.0,0.0,-1.0689774057751577e-05
2026-06-27T13:10:21.666447,1782576619.3734202,0.0,0.0,-72.90949249267578,0.0,0.0,-4.990103721618652,0.0,0.0,-1.0815669063152638e-05
2026-06-27T13:10:21.774697,1782576619.4814227,0.0,0.0,-73.44837188720703,0.0,0.0,-4.990102767944336,0.0,0.0,-1.0941564068553699e-05
2026-06-27T13:10:21.882983,1782576619.5864248,0.0,0.0,-73.97228240966797,0.0,0.0,-4.990101337432861,0.0,0.0,-1.1063961990471398e-05
2026-06-27T13:10:21.990998,1782576619.691427,0.0,0.0,-74.4961929321289,0.0,0.0,-4.990100383758545,0.0,0.0,-1.1186359912389098e-05
2026-06-27T13:10:22.100102,1782576619.7994294,0.0,0.0,-75.03507232666016,0.0,0.0,-4.99009895324707,0.0,0.0,-1.1312254917790159e-05
2026-06-27T13:10:22.208632,1782576619.9074316,0.0,0.0,-75.5739517211914,0.0,0.0,-4.990098476409912,0.0,0.0,-1.143814992319122e-05
2026-06-27T13:10:22.317843,1782576620.015434,0.0,0.0,-76.11283111572266,0.0,0.0,-4.990097522735596,0.0,0.0,-1.1564044928592283e-05
2026-06-27T13:10:22.426538,1782576620.1204362,0.0,0.0,-76.6367416381836,0.0,0.0,-4.990096569061279,0.0,0.0,-1.168644285050998e-05
2026-06-27T13:10:22.535221,1782576620.2284386,0.0,0.0,-77.17562103271484,0.0,0.0,-4.990095138549805,0.0,0.0,-1.1812337855911045e-05
2026-06-27T13:10:22.645688,1782576620.3364408,0.0,0.0,-77.7145004272461,0.0,0.0,-4.990093231201172,0.0,0.0,-1.1938232861312106e-05
2026-06-27T13:10:22.753584,1782576620.4444432,0.0,0.0,-78.25337982177734,0.0,0.0,-4.990093231201172,0.0,0.0,-1.2064127866713169e-05
2026-06-27T13:10:22.862335,1782576620.5524454,0.0,0.0,-78.77729034423828,0.0,0.0,-4.9900922775268555,0.0,0.0,-1.218652578863087e-05
2026-06-27T13:10:22.971034,1782576620.6574476,0.0,0.0,-79.31616973876953,0.0,0.0,-4.990090370178223,0.0,0.0,-1.2312420794031931e-05
2026-06-27T13:10:23.080738,1782576620.76845,0.0,0.0,-79.8700180053711,0.0,0.0,-4.990090370178223,0.0,0.0,-1.2441812882916356e-05
2026-06-27T13:10:23.189402,1782576620.8764524,0.0,0.0,-80.40889739990234,0.0,0.0,-4.990089416503906,0.0,0.0,-1.256770788831742e-05
2026-06-27T13:10:23.297628,1782576620.9814546,0.0,0.0,-80.93280792236328,0.0,0.0,-4.990087985992432,0.0,0.0,-1.2690105810235118e-05
2026-06-27T13:10:23.406557,1782576621.0894568,0.0,0.0,-81.47168731689453,0.0,0.0,-4.990087032318115,0.0,0.0,-1.2816000815636181e-05
2026-06-27T13:10:23.515277,1782576621.1944592,0.0,0.0,-81.99559783935547,0.0,0.0,-4.990086555480957,0.0,0.0,-1.2938398737553882e-05
2026-06-27T13:10:23.624309,1782576621.2964613,0.0,0.0,-82.5045394897461,0.0,0.0,-4.990085601806641,0.0,0.0,-1.305729957598822e-05
2026-06-27T13:10:23.733001,1782576621.4044635,0.0,0.0,-83.04341888427734,0.0,0.0,-4.990083694458008,0.0,0.0,-1.318319458138928e-05
2026-06-27T13:10:23.840947,1782576621.509466,0.0,0.0,-83.56732940673828,0.0,0.0,-4.990083694458008,0.0,0.0,-1.3305592503306982e-05
2026-06-27T13:10:23.950768,1782576621.617468,0.0,0.0,-84.10620880126953,0.0,0.0,-4.990082740783691,0.0,0.0,-1.3431487508708045e-05
2026-06-27T13:10:24.059743,1782576621.7254705,0.0,0.0,-84.64508819580078,0.0,0.0,-4.990080833435059,0.0,0.0,-1.3557382514109106e-05
2026-06-27T13:10:24.168753,1782576621.8364727,0.0,0.0,-85.19893646240234,0.0,0.0,-4.990078926086426,0.0,0.0,-1.3648024963865077e-05
2026-06-27T13:10:24.277483,1782576621.9444752,0.0,0.0,-85.7378158569336,0.0,0.0,-4.990078926086426,0.0,0.0,-1.2393817752995447e-05
2026-06-27T13:10:24.386763,1782576622.0494773,0.0,0.0,-86.26172637939453,0.0,0.0,-4.990077495574951,0.0,0.0,-1.1350835198742936e-05
2026-06-27T13:10:24.495251,1782576622.1574798,0.0,0.0,-86.80060577392578,0.0,0.0,-4.990076065063477,0.0,0.0,-1.0744022412620615e-05
2026-06-27T13:10:24.604442,1782576622.265482,0.0,0.0,-87.33948516845703,0.0,0.0,-4.990075588226318,0.0,0.0,-1.0201516065714248e-05
2026-06-27T13:10:24.712610,1782576622.3734844,0.0,0.0,-87.87836456298828,0.0,0.0,-4.990074634552002,0.0,0.0,-9.659009718807881e-06
2026-06-27T13:10:24.821312,1782576622.4814866,0.0,0.0,-88.41724395751953,0.0,0.0,-4.990073204040527,0.0,0.0,-9.116503371901514e-06
2026-06-27T13:10:24.930465,1782576622.5864887,0.0,0.0,-88.94115447998047,0.0,0.0,-4.990072250366211,0.0,0.0,-8.58906664574255e-06
2026-06-27T13:10:25.040030,1782576622.6944911,0.0,0.0,-89.48003387451172,0.0,0.0,-4.990071773529053,0.0,0.0,-8.046560298836186e-06
2026-06-27T13:10:25.148518,1782576622.8024933,0.0,0.0,-90.01891326904297,0.0,0.0,-4.990070343017578,0.0,0.0,-7.504053951929821e-06
2026-06-27T13:10:25.258111,1782576622.9104958,0.0,0.0,-90.55779266357422,0.0,0.0,-4.990069389343262,0.0,0.0,-6.961547605023458e-06
2026-06-27T13:10:25.366286,1782576623.018498,0.0,0.0,-91.09667205810547,0.0,0.0,-4.990068435668945,0.0,0.0,-6.419041258117097e-06
2026-06-27T13:10:25.475409,1782576623.1265004,0.0,0.0,-91.63555145263672,0.0,0.0,-4.990067481994629,0.0,0.0,-5.876534911210734e-06
2026-06-27T13:10:25.584620,1782576623.2345026,0.0,0.0,-92.17443084716797,0.0,0.0,-4.9900665283203125,0.0,0.0,-5.334028564304373e-06
2026-06-27T13:10:25.694391,1782576623.339505,0.0,0.0,-92.6983413696289,0.0,0.0,-4.99006462097168,0.0,0.0,-4.806591838145411e-06
2026-06-27T13:10:25.802586,1782576623.4445071,0.0,0.0,-93.22225189208984,0.0,0.0,-4.99006462097168,0.0,0.0,-4.2791551119864494e-06
2026-06-27T13:10:25.911301,1782576623.5555096,0.0,0.0,-93.7761001586914,0.0,0.0,-4.990063190460205,0.0,0.0,-3.72157914433269e-06
2026-06-27T13:10:26.021070,1782576623.6605117,0.0,0.0,-94.30001068115234,0.0,0.0,-4.990061283111572,0.0,0.0,-3.194145471506224e-06
2026-06-27T13:10:26.129193,1782576623.765514,0.0,0.0,-94.82392120361328,0.0,0.0,-4.990061283111572,0.0,0.0,-2.66671586978975e-06
2026-06-27T13:10:26.237431,1782576623.8735163,0.0,0.0,-95.36280059814453,0.0,0.0,-4.990059852600098,0.0,0.0,-2.1242168508813766e-06
2026-06-27T13:10:26.346135,1782576623.9785185,0.0,0.0,-95.88671112060547,0.0,0.0,-4.990058898925781,0.0,0.0,-1.5967872491649033e-06
2026-06-27T13:10:26.455341,1782576624.086521,0.0,0.0,-96.42559051513672,0.0,0.0,-4.990058422088623,0.0,0.0,-1.0542882302565306e-06
2026-06-27T13:10:26.564548,1782576624.194523,0.0,0.0,-96.96446990966797,0.0,0.0,-4.990056991577148,0.0,0.0,-5.117892113481578e-07
2026-06-27T13:10:26.673139,1782576624.3025255,0.0,0.0,-97.50334930419922,0.0,0.0,-4.990056037902832,0.0,0.0,3.0710386421166836e-08
2026-06-27T13:10:26.782623,1782576624.4075277,0.0,0.0,-98.02725982666016,0.0,0.0,-4.990054607391357,0.0,0.0,5.339234292651485e-07
2026-06-27T13:10:26.890853,1782576624.5155299,0.0,0.0,-98.5661392211914,0.0,0.0,-4.990053653717041,0.0,0.0,7.55142660913289e-07
2026-06-27T13:10:27.000082,1782576624.6235323,0.0,0.0,-99.10501861572266,0.0,0.0,-4.990053176879883,0.0,0.0,8.229870982680247e-07
2026-06-27T13:10:27.109286,1782576624.7315345,0.0,0.0,-99.6438980102539,0.0,0.0,-4.990051746368408,0.0,0.0,8.908305178452624e-07
2026-06-27T13:10:27.218153,1782576624.839537,2.647146390977184e-10,-8.404541645967711e-11,-100.18270874023438,2.4175625412681256e-07,-7.676218416463598e-08,-4.973539352416992,-0.0005364890482899272,-0.0016901385197040746,-0.009435516606870618
2026-06-27T13:10:27.326311,1782576624.947539,5.000362216378562e-05,-1.447361137252301e-05,-100.71114349365234,0.0017894277116283774,-0.0005094841471873224,-4.851554870605469,-0.07314818372307674,-0.2953195220311944,-1.7317883893717385
2026-06-27T13:10:27.435241,1782576625.0555415,0.0007318290299735963,-0.00020540437253657728,-101.23844146728516,0.013096990063786507,-0.0036467541940510273,-4.9445390701293945,-0.15534589859319695,-0.899512952594723,-5.6258997612729225
2026-06-27T13:10:27.544419,1782576625.1575437,0.00309534533880651,-0.0008600149885751307,-101.74659729003906,0.03490320220589638,-0.00963498279452324,-4.998380661010742,-0.1457321637101004,-1.6065566613608635,-10.109735947018063
2026-06-27T13:10:27.654584,1782576625.265546,0.008652842603623867,-0.002387983724474907,-102.2865219116211,0.0702928900718689,-0.019266126677393913,-4.997135162353516,-0.031248032881326455,-2.4067377068048845,-14.412066732477193
2026-06-27T13:10:27.761197,1782576625.3735483,0.018780412152409554,-0.005153556354343891,-102.82575988769531,0.11957217752933502,-0.03255271166563034,-4.987769603729248,0.13333730313880743,-3.1950257675666496,-17.413987855965697
2026-06-27T13:10:27.870472,1782576625.4815507,0.03497305512428284,-0.009547026827931404,-103.36373138427734,0.18254737555980682,-0.04938983544707298,-4.973692417144775,0.27164956257526574,-3.967782924019622,-18.83559116580173
2026-06-27T13:10:27.979645,1782576625.5865529,0.057914189994335175,-0.01573643833398819,-103.88501739501953,0.25647100806236267,-0.06903012096881866,-4.954728603363037,0.3306628151484424,-4.6998426288457615,-18.87257866385756
2026-06-27T13:10:28.088850,1782576625.694555,0.09027405828237534,-0.024425795301795006,-104.41876983642578,0.3448234796524048,-0.09241236746311188,-4.92830753326416,0.2993821042821306,-5.429796376277541,-17.964754634511422
2026-06-27T13:10:28.197453,1782576625.7995574,0.13148704171180725,-0.03545163571834564,-104.93455505371094,0.4419799745082855,-0.11807171255350113,-4.8947343826293945,0.19939509519808382,-6.113780581341602,-16.658478792631442
2026-06-27T13:10:28.306129,1782576625.9075596,0.18510456383228302,-0.049756333231925964,-105.46090698242188,0.5526556968688965,-0.14728307723999023,-4.8506760597229,0.06413856114028119,-6.784231183160825,-15.32882391597235
2026-06-27T13:10:28.415966,1782576626.018562,0.2532505989074707,-0.06790021061897278,-105.99629974365234,0.6769007444381714,-0.18008574843406677,-4.793850898742676,-0.06441392985479318,-7.4441713236395595,-14.297305313040061
2026-06-27T13:10:28.524290,1782576626.1235642,0.3308897018432617,-0.08854340761899948,-106.49626922607422,0.8033000826835632,-0.21348151564598083,-4.726938247680664,-0.14598050502583296,-8.050601595354959,-13.763665831410437
2026-06-27T13:10:28.633770,1782576626.2315667,0.4250483810901642,-0.11355651170015335,-107.00245666503906,0.9416324496269226,-0.2500607967376709,-4.64378023147583,-0.1764517985645352,-8.664302099700274,-13.646447952452899
2026-06-27T13:10:28.742456,1782576626.3365688,0.5313180088996887,-0.14177042245864868,-107.4852294921875,1.0835825204849243,-0.28762638568878174,-4.548462390899658,-0.15776123210748222,-9.233878941549781,-13.84452196698589
2026-06-27T13:10:28.850851,1782576626.444571,0.6565275192260742,-0.17500074207782745,-107.97039031982422,1.2361494302749634,-0.32802873849868774,-4.432840824127197,-0.10503164205242492,-9.79915483492706,-14.218921094996507
2026-06-27T13:10:28.959327,1782576626.5495734,0.7943264842033386,-0.21156418323516846,-108.42893981933594,1.3894920349121094,-0.36865830421447754,-4.2986860275268555,-0.04147231747077526,-10.348488469562902,-14.612089860461527
2026-06-27T13:10:29.068490,1782576626.6575756,0.9531280398368835,-0.2536948621273041,-108.88479614257812,1.5519160032272339,-0.4117112159729004,-4.138789176940918,0.017882926476836963,-10.896646416198328,-14.942944420358447
2026-06-27T13:10:29.176853,1782576626.765578,1.1244961023330688,-0.299156129360199,-109.31002807617188,1.7126573324203491,-0.454330176115036,-3.9557535648345947,0.05731654348937955,-11.429464862419,-15.141578374461425
2026-06-27T13:10:29.286022,1782576626.8705802,1.3184398412704468,-0.35060417652130127,-109.72547149658203,1.8788074254989624,-0.49839141964912415,-3.7309091091156006,0.07425859593798738,-11.99861082208221,-15.212364440726446
2026-06-27T13:10:29.395018,1782576626.9785826,1.530261754989624,-0.4067935645580292,-110.11414337158203,2.0430145263671875,-0.5419424176216125,-3.4569449424743652,0.06945368711380337,-12.618690658858117,-15.174702601432493
2026-06-27T13:10:29.504722,1782576627.0895848,1.7660094499588013,-0.46932902932167053,-110.47852325439453,2.201547145843506,-0.5839909911155701,-3.0874481201171875,0.049137711500185664,-13.396670727620032,-15.069419308096654
2026-06-27T13:10:29.612902,1782576627.1945872,2.0039479732513428,-0.5324453115463257,-110.77787017822266,2.323011875152588,-0.6162084937095642,-2.5762295722961426,0.023515295592064785,-14.422663282067935,-14.9516088878029
2026-06-27T13:10:29.721075,1782576627.3025894,2.261969804763794,-0.6008888483047485,-111.02722930908203,2.480527400970459,-0.657992959022522,-2.1344521045684814,-0.0029176250895998307,-15.217786832628056,-14.846404624879435
2026-06-27T13:10:29.830758,1782576627.4105918,2.542628049850464,-0.6753377318382263,-111.24988555908203,2.7181460857391357,-0.7210326790809631,-1.999839186668396,-0.020230454534402455,-14.7462947153415,-14.77807409223198
2026-06-27T13:10:29.939299,1782576627.515594,2.839857816696167,-0.7541835308074951,-111.4540023803711,2.9402401447296143,-0.7799564599990845,-1.888142466545105,-0.02487002032858764,-13.691376409189857,-14.751901089517656
2026-06-27T13:10:30.048529,1782576627.6205962,3.1594009399414062,-0.8389490246772766,-111.64653015136719,3.1427857875823975,-0.8336944580078125,-1.7802537679672241,-0.021012900462581585,-12.407078352621461,-14.758510377915789
2026-06-27T13:10:30.157834,1782576627.7255986,3.4991493225097656,-0.9290751814842224,-111.82825469970703,3.3251168727874756,-0.8820679783821106,-1.6833550930023193,-0.01351875412106623,-11.083409892736272,-14.78555522701301
2026-06-27T13:10:30.266601,1782576627.8336008,3.867469549179077,-1.0267813205718994,-112.00533294677734,3.4920873641967773,-0.9263641238212585,-1.598408579826355,-0.0058999932909643065,-9.783071808217391,-14.821069108707876
2026-06-27T13:10:30.375810,1782576627.938603,4.241822719573975,-1.1260886192321777,-112.1694107055664,3.6352920532226562,-0.9643526077270508,-1.5292130708694458,-0.0005165047635145391,-8.625516456965357,-14.852611419785315
2026-06-27T13:10:30.484556,1782576628.0466053,4.641570091247559,-1.2321323156356812,-112.33126831054688,3.7643842697143555,-0.9985944628715515,-1.4702959060668945,0.002476463308104169,-7.561627063601474,-14.875445276959063
2026-06-27T13:10:30.593637,1782576628.1486075,5.031096458435059,-1.335463523864746,-112.47881317138672,3.870849847793579,-1.026833176612854,-1.4239252805709839,0.0033410892679599613,-6.676013701567453,-14.886144235955772
2026-06-27T13:10:30.701313,1782576628.2506096,5.430782318115234,-1.4414892196655273,-112.62198638916016,3.9638233184814453,-1.0514932870864868,-1.3844976425170898,0.002982670644841033,-5.900397741718891,-14.88729661717005
2026-06-27T13:10:30.811023,1782576628.3556118,5.851466178894043,-1.553085207939148,-112.76548767089844,4.0470428466796875,-1.0735664367675781,-1.3496570587158203,0.002016587161965889,-5.206679010099118,-14.88144506236516
2026-06-27T13:10:30.920228,1782576628.4606142,6.280290603637695,-1.6668401956558228,-112.90559387207031,4.1191301345825195,-1.0926891565322876,-1.3192347288131714,0.0009594272739795548,-4.608012521619623,-14.872059521259562
2026-06-27T13:10:31.028575,1782576628.5656164,6.7161641120910645,-1.7824649810791016,-113.04267120361328,4.181521415710449,-1.10924232006073,-1.2921388149261475,0.00010809000495878484,-4.093111019865103,-14.86238618118113
2026-06-27T13:10:31.137827,1782576628.6676185,7.145430564880371,-1.8963377475738525,-113.1732406616211,4.234072685241699,-1.1231881380081177,-1.2682061195373535,-0.00041646016200916423,-3.6629054221219874,-14.854866454756285
2026-06-27T13:10:31.246091,1782576628.7696207,7.579700469970703,-2.01153826713562,-113.30146026611328,4.279752254486084,-1.1353113651275635,-1.2459895610809326,-0.0006572257301754356,-3.2926903946348247,-14.850225429174715
2026-06-27T13:10:31.357317,1782576628.874623,8.031278610229492,-2.131331443786621,-113.43116760253906,4.320589065551758,-1.146151065826416,-1.2246999740600586,-0.0006813009400592249,-2.9657193869509615,-14.848548727426104
2026-06-27T13:10:31.464510,1782576628.9796252,8.486857414245605,-2.252185344696045,-113.5586929321289,4.356015682220459,-1.155555009841919,-1.2044814825057983,-0.0005724339286039929,-2.6860387247222337,-14.849382952439685
2026-06-27T13:10:31.572214,1782576629.0876274,8.959064483642578,-2.3774526119232178,-113.68770599365234,4.387620449066162,-1.1639440059661865,-1.1845492124557495,-0.00040971913104324105,-2.440625267024837,-14.851823371662723
2026-06-27T13:10:31.681923,1782576629.1926298,9.421209335327148,-2.5000500679016113,-113.81110382080078,4.414322853088379,-1.1710314750671387,-1.165814995765686,-0.00025763156913399435,-2.2371879351529675,-14.854699911267717
2026-06-27T13:10:31.790474,1782576629.297632,9.88597583770752,-2.6233432292938232,-113.93254852294922,4.437630653381348,-1.1772170066833496,-1.1474859714508057,-0.00014310396763319796,-2.0633653240057317,-14.85727925586047
2026-06-27T13:10:31.898682,1782576629.4026341,10.353032112121582,-2.747243881225586,-114.05211639404297,4.458036422729492,-1.182632565498352,-1.129730224609375,-7.307819568774997e-05,-1.914788220869707,-14.859079605260463
2026-06-27T13:10:32.008484,1782576629.5106366,10.835525512695312,-2.8752405643463135,-114.17315673828125,4.4764299392700195,-1.187513828277588,-1.1117838621139526,-4.554900427865325e-05,-1.7843851055647875,-14.859962230273446
2026-06-27T13:10:32.116207,1782576629.6156387,11.306404113769531,-3.0001559257507324,-114.28898620605469,4.492150783538818,-1.1916859149932861,-1.0944726467132568,-4.439524624883217e-05,-1.6763162593398924,-14.859998112418287
2026-06-27T13:10:32.224941,1782576629.7236412,11.792354583740234,-3.1290690898895264,-114.40625,4.506429195404053,-1.1954752206802368,-1.0770856142044067,-6.604423482638111e-05,-1.5813093917384835,-14.85945637844759
2026-06-27T13:10:32.335656,1782576629.8286433,12.266197204589844,-3.2547712326049805,-114.51844024658203,4.518730163574219,-1.1987398862838745,-1.0602749586105347,-9.002799686689898e-05,-1.502491977147973,-14.858670410090587
2026-06-27T13:10:32.442861,1782576629.9336455,12.741266250610352,-3.3807976245880127,-114.62889862060547,4.529695510864258,-1.201650857925415,-1.0436903238296509,-0.00011476467596957957,-1.4348853747208534,-14.857896326375364
2026-06-27T13:10:32.551042,1782576630.038648,13.217418670654297,-3.507112979888916,-114.73761749267578,4.539514064788818,-1.204257845878601,-1.0272403955459595,-0.0001314553907428145,-1.3769281425075406,-14.857303671731446
2026-06-27T13:10:32.661266,1782576630.14065,13.680904388427734,-3.630068302154541,-114.84159088134766,4.548104286193848,-1.2065387964248657,-1.011383295059204,-0.0001397293781418439,-1.3285032144733238,-14.856975779942708
2026-06-27T13:10:32.769876,1782576630.2456522,14.158892631530762,-3.756870746612549,-114.94694519042969,4.556103706359863,-1.2086632251739502,-0.9951037168502808,-0.00014153721696257487,-1.2856057391445832,-14.856897764366947
2026-06-27T13:10:32.879089,1782576630.3476543,14.623991966247559,-3.880254030227661,-115.04765319824219,4.563172340393066,-1.2105408906936646,-0.9795936942100525,-0.00013915931615742354,-1.2496221623951875,-14.857001105328095
2026-06-27T13:10:32.988320,1782576630.4556568,15.11719799041748,-4.011094570159912,-115.15257263183594,4.569999694824219,-1.2123547792434692,-0.9632983207702637,-0.00011964568440879525,-1.216738123258706,-14.857256966082808
2026-06-27T13:10:33.096497,1782576630.560659,15.597381591796875,-4.1384806632995605,-115.25289154052734,4.576074123382568,-1.2139681577682495,-0.9474225044250488,-0.00011510717677791393,-1.1892789872121339,-14.857524441719377
2026-06-27T13:10:33.205583,1782576630.665661,16.078174591064453,-4.266028881072998,-115.35155487060547,4.581672191619873,-1.215455174446106,-0.931896984577179,-0.00011045735559802972,-1.1653265841031957,-14.857739860797414
2026-06-27T13:10:33.314775,1782576630.7736635,16.57329750061035,-4.397378921508789,-115.45133209228516,4.58699369430542,-1.2168689966201782,-0.9159916043281555,-9.232300987679543e-05,-1.1440173155212061,-14.857883852100175
2026-06-27T13:10:33.423293,1782576630.8756657,17.041419982910156,-4.521566390991211,-115.54399871826172,4.591662883758545,-1.2181087732315063,-0.9010509252548218,-9.207766490267387e-05,-1.1265053523901483,-14.857943863081186
2026-06-27T13:10:33.532852,1782576630.9806678,17.523794174194336,-4.649533748626709,-115.6378173828125,4.596152305603027,-1.219301462173462,-0.8857943415641785,-9.190910778604324e-05,-1.1107349237750752,-14.85793807587583
2026-06-27T13:10:33.640871,1782576631.0856702,18.006624221801758,-4.777622699737549,-115.73004150390625,4.6003594398498535,-1.2204195261001587,-0.8707102537155151,-9.252426085403496e-05,-1.096869477366985,-14.85790950945225
2026-06-27T13:10:33.749492,1782576631.1906724,18.489883422851562,-4.905825138092041,-115.8206787109375,4.604314804077148,-1.2214707136154175,-0.8557427525520325,-9.324197462560757e-05,-1.084679191591353,-14.857864520456754
2026-06-27T13:10:33.858787,1782576631.2986746,18.987369537353516,-5.037802219390869,-115.91227722167969,4.608153820037842,-1.2224911451339722,-0.8405095934867859,-9.340984346691486e-05,-1.0736076502622147,-14.857868094979763
2026-06-27T13:10:33.967465,1782576631.403677,19.47142219543457,-5.1662163734436035,-115.99974822998047,4.611685752868652,-1.2234296798706055,-0.8258165121078491,-9.350735953197088e-05,-1.064054902582378,-14.857879099521593
2026-06-27T13:10:34.076109,1782576631.5086792,19.95583724975586,-5.294726848602295,-116.08567810058594,4.6150407791137695,-1.2243212461471558,-0.8112443685531616,-9.382339673413925e-05,-1.0555571423947556,-14.857887589066152
2026-06-27T13:10:34.186863,1782576631.6166816,20.454452514648438,-5.427003383636475,-116.17249298095703,4.6183247566223145,-1.2251938581466675,-0.7964419722557068,-9.412033640257516e-05,-1.0476435887909876,-14.857895005625293
2026-06-27T13:10:34.295020,1782576631.7246838,20.953413009643555,-5.559372425079346,-116.2577133178711,4.621455192565918,-1.226025938987732,-0.781758725643158,-9.405066321986544e-05,-1.040530612120298,-14.85790442842261
2026-06-27T13:10:34.403785,1782576631.826686,21.424955368041992,-5.6844682693481445,-116.33675384521484,4.624282360076904,-1.2267777919769287,-0.7680707573890686,-9.40812647614185e-05,-1.0344310930877094,-14.857908496923612
2026-06-27T13:10:34.512161,1782576631.9316883,21.910661697387695,-5.813322067260742,-116.41667175292969,4.627074718475342,-1.22752046585083,-0.754176139831543,-9.412650004339032e-05,-1.0286545604848418,-14.857915995169082
2026-06-27T13:10:34.620860,1782576632.0366905,22.396656036376953,-5.942251682281494,-116.49512481689453,4.629753589630127,-1.228232741355896,-0.7402787208557129,-9.410943733678392e-05,-1.0234028039501442,-14.857922166185155
2026-06-27T13:10:34.729877,1782576632.1386926,22.869029998779297,-6.067568302154541,-116.56995391845703,4.632258892059326,-1.2288992404937744,-0.7270418405532837,-9.386079505329798e-05,-1.018662776257055,-14.857926963237944
2026-06-27T13:10:34.839119,1782576632.2466948,23.369461059570312,-6.200329303741455,-116.6477279663086,4.634810924530029,-1.2295782566070557,-0.7130990028381348,-8.933373163551187e-05,-1.0139931274287746,-14.857932008034833
2026-06-27T13:10:34.947277,1782576632.3516972,23.856252670288086,-6.329471111297607,-116.7219009399414,4.637200832366943,-1.2302136421203613,-0.6997367143630981,-7.095520378056285e-05,-1.0097547471159254,-14.85793559375504
2026-06-27T13:10:35.056030,1782576632.4566994,24.34328842163086,-6.458678722381592,-116.79466247558594,4.639505863189697,-1.230826497077942,-0.6864970326423645,-6.577801404288669e-05,-1.005798756427455,-14.857964236336603
2026-06-27T13:10:35.165733,1782576632.5617015,24.830568313598633,-6.587949275970459,-116.86605834960938,4.641732215881348,-1.2314189672470093,-0.6734867095947266,-6.522202654499132e-05,-1.002017304374853,-14.858015159397473
2026-06-27T13:10:35.275874,1782576632.669704,25.33200454711914,-6.720977783203125,-116.93807983398438,4.643942356109619,-1.232006549835205,-0.6602188348770142,-6.496284972431208e-05,-0.9983331967854338,-14.858017332176928
2026-06-27T13:10:35.383089,1782576632.7747061,25.819738388061523,-6.85037088394165,-117.00674438476562,4.646018028259277,-1.2325584888458252,-0.647569477558136,-6.455289606333508e-05,-0.9948896411939292,-14.858020071971131
2026-06-27T13:10:35.491286,1782576632.8797085,26.30768585205078,-6.979820251464844,-117.0740737915039,4.648022174835205,-1.2330912351608276,-0.6349266171455383,-6.427012588247024e-05,-0.9916766629943317,-14.858023348672779
2026-06-27T13:10:35.600508,1782576632.9817107,26.781890869140625,-7.105623722076416,-117.13821411132812,4.649907112121582,-1.2335925102233887,-0.6229015588760376,-6.418373404274903e-05,-0.9886437888741367,-14.858027045083542
2026-06-27T13:10:35.709873,1782576633.0867128,27.270238876342773,-7.235179424285889,-117.20297241210938,4.651784420013428,-1.2340917587280273,-0.6106618046760559,-6.37277529138101e-05,-0.985640683300272,-14.858030830891897
2026-06-27T13:10:35.817524,1782576633.191715,27.75878143310547,-7.3647871017456055,-117.26646423339844,4.653601169586182,-1.234574794769287,-0.5985843539237976,-6.339774916949032e-05,-0.9827404000825587,-14.858040111506945
2026-06-27T13:10:35.926719,1782576633.2967174,28.247512817382812,-7.494445323944092,-117.32869720458984,4.655356407165527,-1.235041856765747,-0.5866984128952026,-6.287860342291823e-05,-0.9799188338003062,-14.85807762600563
2026-06-27T13:10:36.035536,1782576633.4017196,28.73642921447754,-7.624151706695557,-117.3896713256836,4.657054901123047,-1.2354938983917236,-0.5749373435974121,-6.261606012355953e-05,-0.9772047089905925,-14.858082996660091
2026-06-27T13:10:36.144747,1782576633.5037217,29.211538314819336,-7.75019645690918,-117.44773864746094,4.658652305603027,-1.2359188795089722,-0.5636801719665527,-6.230622029124099e-05,-0.9746883608656371,-14.858087919158157
2026-06-27T13:10:36.253480,1782576633.6087239,29.70079231262207,-7.879992485046387,-117.50631713867188,4.660244941711426,-1.236342191696167,-0.5522603988647461,-6.204336893995026e-05,-0.9721367657892179,-14.85809192511787
2026-06-27T13:10:36.362004,1782576633.7137263,30.19020652770996,-8.009834289550781,-117.56371307373047,4.661785125732422,-1.236751675605774,-0.5410086512565613,-6.129865263388017e-05,-0.969655098588706,-14.858133745370573
2026-06-27T13:10:36.471097,1782576633.8217285,30.693775177001953,-8.143430709838867,-117.62152862548828,4.6633172035217285,-1.2371593713760376,-0.5296552181243896,-6.108647421344525e-05,-0.967161739625657,-14.858136155713176
2026-06-27T13:10:36.581073,1782576633.9237306,31.16951560974121,-8.26964282989502,-117.67500305175781,4.664714336395264,-1.237531304359436,-0.5190185904502869,-6.08423655599876e-05,-0.9648577580251031,-14.858136385454227
2026-06-27T13:10:36.690495,1782576634.031733,31.673391342163086,-8.403319358825684,-117.73046112060547,4.666146755218506,-1.2379120588302612,-0.5079327821731567,-6.077656320766816e-05,-0.962521461706833,-14.858139159504814
2026-06-27T13:10:36.797488,1782576634.1307352,32.13541793823242,-8.525891304016113,-117.7802505493164,4.667416572570801,-1.2382498979568481,-0.49798184633255005,-6.0804431666879104e-05,-0.9603920556599362,-14.858142389464492
2026-06-27T13:10:36.906703,1782576634.2387373,32.639583587646484,-8.659643173217773,-117.83345794677734,4.668756008148193,-1.2386062145233154,-0.4872400462627411,-6.072604070061499e-05,-0.9581654405868908,-14.858145422066919
2026-06-27T13:10:37.015430,1782576634.3437397,33.129878997802734,-8.789716720581055,-117.88407897949219,4.670012950897217,-1.2389408349990845,-0.4769870340824127,-6.0409271684390606e-05,-0.9560345395720187,-14.85814956871278
2026-06-27T13:10:37.124544,1782576634.451742,33.63431930541992,-8.923542022705078,-117.9350357055664,4.671260833740234,-1.2392730712890625,-0.466614305973053,-5.82388028873602e-05,-0.9538820438934382,-14.858210587560801
2026-06-27T13:10:37.233315,1782576634.556744,34.12487030029297,-9.053685188293457,-117.98351287841797,4.672430992126465,-1.2395849227905273,-0.456683874130249,-5.7778695176427154e-05,-0.9518794573830475,-14.858229028108047
2026-06-27T13:10:37.341266,1782576634.6617465,34.61553955078125,-9.183860778808594,-118.03095245361328,4.673563480377197,-1.2398858070373535,-0.44692933559417725,-5.393383141905105e-05,-0.9499100835620241,-14.858230077359117
2026-06-27T13:10:37.451026,1782576634.7637486,35.092315673828125,-9.310347557067871,-118.07605743408203,4.674625396728516,-1.2401680946350098,-0.43761971592903137,-5.399378280970816e-05,-0.9480443937613796,-14.858233926292684
2026-06-27T13:10:37.559693,1782576634.8717508,35.597251892089844,-9.444305419921875,-118.12279510498047,4.675709247589111,-1.2404570579528809,-0.42791205644607544,-5.393818961925525e-05,-0.9461118961590461,-14.858235039021515
2026-06-27T13:10:37.668372,1782576634.9767532,36.0882682800293,-9.57457160949707,-118.16724395751953,4.676726818084717,-1.2407280206680298,-0.4186474084854126,-5.335429803097978e-05,-0.9442864282041376,-14.858236390563388
2026-06-27T13:10:37.777612,1782576635.0817554,36.579383850097656,-9.704864501953125,-118.2107162475586,4.677707672119141,-1.240989089012146,-0.4095423221588135,-5.0679683253048744e-05,-0.9425056800173618,-14.85823786103722
2026-06-27T13:10:37.887389,1782576635.1897576,37.084625244140625,-9.838907241821289,-118.25444793701172,4.6786789894104,-1.2412480115890503,-0.4003324806690216,-5.015260100682726e-05,-0.9407226798268843,-14.858263814586023
2026-06-27T13:10:37.995106,1782576635.29176,37.561920166015625,-9.965526580810547,-118.29483795166016,4.679564476013184,-1.2414838075637817,-0.3918144106864929,-4.230865709444674e-05,-0.9390846513024579,-14.858276140658267
2026-06-27T13:10:38.104636,1782576635.3967621,38.05333709716797,-10.095901489257812,-118.33553314208984,4.680443286895752,-1.2417175769805908,-0.3831859529018402,-3.751035676197539e-05,-0.9374447381614267,-14.858277944312341
2026-06-27T13:10:38.212271,1782576635.5017643,38.544822692871094,-10.226297378540039,-118.37532043457031,4.681291103363037,-1.2419430017471313,-0.3747130334377289,-3.9047776121287674e-05,-0.9358457997277237,-14.85827978790134
2026-06-27T13:10:38.321901,1782576635.6037664,39.022377014160156,-10.352984428405762,-118.41313171386719,4.6820831298828125,-1.2421541213989258,-0.36665505170822144,-4.164800865001205e-05,-0.9343221798147269,-14.85827918250495
2026-06-27T13:10:38.430614,1782576635.7087688,39.5140495300293,-10.483428001403809,-118.4511947631836,4.682868957519531,-1.2423635721206665,-0.35843026638031006,-3.928891060988353e-05,-0.9328338142426257,-14.85828129985223
2026-06-27T13:10:38.540245,1782576635.816771,40.019832611083984,-10.617618560791016,-118.48946380615234,4.683649063110352,-1.242571234703064,-0.35025930404663086,-3.8956698929849866e-05,-0.9313127766621387,-14.85828333753925
2026-06-27T13:10:38.648834,1782576635.9217732,40.511688232421875,-10.748095512390137,-118.52583312988281,4.6843767166137695,-1.242764949798584,-0.34235894680023193,-3.890032325895914e-05,-0.9298843456982372,-14.85828732070803
2026-06-27T13:10:38.757014,1782576636.0237756,40.98951721191406,-10.874876022338867,-118.56036376953125,4.685056686401367,-1.2429465055465698,-0.334810346364975,-3.8983850230330194e-05,-0.9285212711466927,-14.858343982289863
2026-06-27T13:10:38.866319,1782576636.1287777,41.48151779174805,-11.005393981933594,-118.59512329101562,4.685733795166016,-1.243126392364502,-0.3272939920425415,-4.0877396690535436e-05,-0.9271843771034188,-14.858351648259259
2026-06-27T13:10:38.975097,1782576636.23678,41.987606048583984,-11.139667510986328,-118.63005065917969,4.686400413513184,-1.2433042526245117,-0.31963348388671875,-3.8386033148389146e-05,-0.9258419997530748,-14.85835148914844
2026-06-27T13:10:39.084762,1782576636.3447824,42.49380111694336,-11.273955345153809,-118.66416931152344,4.687042236328125,-1.2434749603271484,-0.31217658519744873,-4.422514975209838e-05,-0.9245327340791971,-14.858353938826328
2026-06-27T13:10:39.192785,1782576636.4497845,42.9859619140625,-11.404532432556152,-118.69657135009766,4.6876420974731445,-1.2436344623565674,-0.3050966262817383,-3.748026341291433e-05,-0.9232933481769346,-14.858354034682609
2026-06-27T13:10:39.301973,1782576636.554787,43.47822952270508,-11.535123825073242,-118.72823333740234,4.688216209411621,-1.2437875270843506,-0.2980310916900635,-4.461028207839784e-05,-0.9221050183872542,-14.858356731049048
2026-06-27T13:10:39.410682,1782576636.662789,43.984561920166016,-11.669466018676758,-118.76004791259766,4.688784122467041,-1.2439392805099487,-0.29100295901298523,-3.899435504379897e-05,-0.9209198132321743,-14.858356936064068
2026-06-27T13:10:39.519398,1782576636.7677913,44.476959228515625,-11.80008602142334,-118.79024505615234,4.6893157958984375,-1.244080901145935,-0.28431278467178345,-3.927483919868559e-05,-0.9197959760157925,-14.858357223071053
2026-06-27T13:10:39.628571,1782576636.8727937,44.9693603515625,-11.930729866027832,-118.81975555419922,4.689826488494873,-1.2442169189453125,-0.27774399518966675,-3.9793086791415556e-05,-0.9187109757380723,-14.858360194364913
2026-06-27T13:10:39.738318,1782576636.9747958,45.447757720947266,-12.05764102935791,-118.84777069091797,4.69030237197876,-1.2443439960479736,-0.2714960277080536,-3.973644652629906e-05,-0.9176880570388046,-14.858360696841817
2026-06-27T13:10:39.846506,1782576637.079798,45.94029235839844,-12.188314437866211,-118.8759536743164,4.6907734870910645,-1.2444697618484497,-0.26518920063972473,-3.9772523537320936e-05,-0.9166676262118647,-14.85836120602007
2026-06-27T13:10:39.955220,1782576637.1878004,46.4468994140625,-12.322725296020508,-118.90425109863281,4.69123649597168,-1.244593620300293,-0.25882333517074585,-3.947244317679449e-05,-0.9156630852969777,-14.858363502654898
2026-06-27T13:10:40.064402,1782576637.2928026,46.939537048339844,-12.453412055969238,-118.93112182617188,4.691669940948486,-1.2447090148925781,-0.2527749836444855,-3.446535258166423e-05,-0.9147151890354863,-14.858389599794725
2026-06-27T13:10:40.172568,1782576637.4008048,47.44628143310547,-12.587857246398926,-118.95807647705078,4.69209623336792,-1.2448229789733887,-0.24668309092521667,-3.358342250361128e-05,-0.9137695160453858,-14.858425273585803
2026-06-27T13:10:40.282773,1782576637.5088072,47.953025817871094,-12.722302436828613,-118.98440551757812,4.692504405975342,-1.244931936264038,-0.24072879552841187,-3.347894809086458e-05,-0.9128629457095573,-14.858426025323363
2026-06-27T13:10:40.391059,1782576637.6138093,48.4457893371582,-12.853025436401367,-119.00939178466797,4.692885398864746,-1.2450333833694458,-0.23506028950214386,-2.6099119984111397e-05,-0.9120076299875619,-14.85842694139074
2026-06-27T13:10:40.499788,1782576637.7188118,48.93859100341797,-12.983769416809082,-119.03377532958984,4.693251132965088,-1.2451307773590088,-0.2295379489660263,-2.6188059420001462e-05,-0.9111793360232321,-14.858427854689966
2026-06-27T13:10:40.608521,1782576637.823814,49.431392669677734,-13.114513397216797,-119.05758666992188,4.693601608276367,-1.2452237606048584,-0.22408273816108704,-2.596739670554494e-05,-0.9103919032180815,-14.858428855220856
2026-06-27T13:10:40.716249,1782576637.922816,49.89604949951172,-13.237786293029785,-119.07952117919922,4.6939191818237305,-1.245308518409729,-0.21906830370426178,-2.5999957272557165e-05,-0.9096651534861987,-14.858427375106105
2026-06-27T13:10:40.825233,1782576638.0278182,50.38898468017578,-13.368561744689941,-119.10224914550781,4.694241046905518,-1.2453944683074951,-0.21386289596557617,-2.5706780133961972e-05,-0.9089213037248778,-14.858428467512658
2026-06-27T13:10:40.934486,1782576638.1328204,50.881919860839844,-13.49933910369873,-119.12443542480469,4.694550514221191,-1.2454768419265747,-0.20877046883106232,-2.5511165245767824e-05,-0.9082014694232055,-14.85842960918342
2026-06-27T13:10:41.043220,1782576638.2378228,51.374855041503906,-13.63011646270752,-119.1460952758789,4.6948466300964355,-1.2455557584762573,-0.20378746092319489,-2.5282773507959547e-05,-0.9075100676102079,-14.858441309315966
2026-06-27T13:10:41.150950,1782576638.339825,51.85370635986328,-13.757157325744629,-119.1666488647461,4.695123195648193,-1.2456291913986206,-0.19905710220336914,-2.4859289210933732e-05,-0.9068616313129199,-14.858446995938072
