time,sim_t,x,y,z,vx,vy,vz,roll_deg,pitch_deg,yaw_deg
2026-06-27T13:34:51.756360,1782578029.7905085,0.0,0.0,2.0396859645843506,0.0,0.0,0.0,0.0,0.0,0.0003895640909249624
2026-06-27T13:34:51.864052,1782578029.898511,0.0,0.0,2.0396859645843506,0.0,0.0,0.0,0.0,0.0,0.0003895640909249624
2026-06-27T13:34:51.973281,1782578030.006513,0.0,0.0,2.0396859645843506,0.0,0.0,0.0,0.0,0.0,0.0003895640909249624
2026-06-27T13:34:52.082466,1782578030.1145155,0.0,0.0,2.0396859645843506,0.0,0.0,0.0,0.0,0.0,0.0003895640909249624
2026-06-27T13:34:52.191684,1782578030.2225177,0.0,0.0,2.0396859645843506,0.0,0.0,0.0,0.0,0.0,0.0003895640909249624
2026-06-27T13:34:52.300293,1782578030.3305202,0.0,0.0,2.0396859645843506,0.0,0.0,0.0,0.0,0.0,0.0003895640909249624
2026-06-27T13:34:52.409107,1782578030.4415224,0.0,0.0,2.0396859645843506,0.0,0.0,0.0,0.0,0.0,0.0003895640909249624
2026-06-27T13:34:52.517370,1782578030.5465248,0.0,0.0,2.0396859645843506,0.0,0.0,0.0,0.0,0.0,0.0003895640909249624
2026-06-27T13:34:52.626127,1782578030.654527,0.0,0.0,2.0396859645843506,0.0,0.0,0.0,0.0,0.0,0.0003895640909249624
2026-06-27T13:34:52.734806,1782578030.7625294,0.0,0.0,2.0396859645843506,0.0,0.0,0.0,0.0,0.0,0.0003895640909249624
2026-06-27T13:34:52.843281,1782578030.8705316,0.0,0.0,2.0396859645843506,0.0,0.0,0.0,0.0,0.0,0.0003895640909249624
2026-06-27T13:34:52.952500,1782578030.978534,0.0,0.0,2.0396859645843506,0.0,0.0,0.0,0.0,0.0,0.0003895640909249624
2026-06-27T13:34:53.061587,1782578031.0835361,0.0,0.0,2.0396859645843506,0.0,0.0,0.0,0.0,0.0,0.0003895640909249624
2026-06-27T13:34:53.169800,1782578031.1915383,0.0,0.0,2.0396859645843506,0.0,0.0,0.0,0.0,0.0,0.0003895640909249624
2026-06-27T13:34:53.279058,1782578031.2995408,0.0,0.0,2.0328822135925293,0.0,0.0,-0.25960665941238403,0.0,0.0,0.0003895640909249624
2026-06-27T13:34:53.388712,1782578031.407543,0.0,0.0,1.9931999444961548,0.0,0.0,-0.42168140411376953,0.0,0.0,0.0003895640909249624
2026-06-27T13:34:53.497236,1782578031.5125453,0.0,0.0,1.9474369287490845,0.0,0.0,-0.4443025588989258,0.0,0.0,0.0003895640909249624
2026-06-27T13:34:53.605955,1782578031.6175475,0.0,0.0,1.9003596305847168,0.0,0.0,-0.4516517221927643,0.0,0.0,0.0003895640909249624
2026-06-27T13:34:53.715681,1782578031.72555,0.0,0.0,1.8512884378433228,0.0,0.0,-0.45687827467918396,0.0,0.0,0.0003895640909249624
2026-06-27T13:34:53.823703,1782578031.830552,0.0,0.0,1.803081750869751,0.0,0.0,-0.46123751997947693,0.0,0.0,0.0003895640909249624
2026-06-27T13:34:53.933140,1782578031.9415545,0.0,0.0,1.751652479171753,0.0,0.0,-0.46531379222869873,0.0,0.0,0.0003895640909249624
2026-06-27T13:34:54.041657,1782578032.0465567,0.0,0.0,1.7026101350784302,0.0,0.0,-0.46873798966407776,0.0,0.0,0.0003895640909249624
2026-06-27T13:34:54.150898,1782578032.1515589,0.0,0.0,1.6532281637191772,0.0,0.0,-0.4717903733253479,0.0,0.0,0.0003895640909249624
2026-06-27T13:34:54.259170,1782578032.256561,0.0,0.0,1.6035432815551758,0.0,0.0,-0.47451159358024597,0.0,0.0,0.0003895640909249624
2026-06-27T13:34:54.367192,1782578032.3645635,0.0,0.0,1.5521577596664429,0.0,0.0,-0.4770030081272125,0.0,0.0,0.0003895640909249624
2026-06-27T13:34:54.476425,1782578032.4725657,0.0,0.0,1.5005183219909668,0.0,0.0,-0.47921690344810486,0.0,0.0,0.0003895640909249624
2026-06-27T13:34:54.585907,1782578032.580568,0.0,0.0,1.4486535787582397,0.0,0.0,-0.4811844229698181,0.0,0.0,0.0003895640909249624
2026-06-27T13:34:54.693922,1782578032.6885703,0.0,0.0,1.3965882062911987,0.0,0.0,-0.4829326868057251,0.0,0.0,0.0003895640909249624
2026-06-27T13:34:54.803520,1782578032.7935727,0.0,0.0,1.3457982540130615,0.0,0.0,-0.4844455420970917,0.0,0.0,0.0003895640909249624
2026-06-27T13:34:54.912187,1782578032.8955748,0.0,0.0,1.296316146850586,0.0,0.0,-0.48575788736343384,0.0,0.0,0.0003895640909249624
2026-06-27T13:34:55.020878,1782578033.000577,0.0,0.0,1.2452458143234253,0.0,0.0,-0.4869644045829773,0.0,0.0,0.0003895640909249624
2026-06-27T13:34:55.129081,1782578033.1055794,0.0,0.0,1.1940559148788452,0.0,0.0,-0.48804011940956116,0.0,0.0,0.0003895640909249624
2026-06-27T13:34:55.238768,1782578033.2135816,0.0,0.0,1.1412922143936157,0.0,0.0,-0.4890249967575073,0.0,0.0,0.0003895640909249624
2026-06-27T13:34:55.347796,1782578033.3155837,0.0,0.0,1.091367483139038,0.0,0.0,-0.4898543059825897,0.0,0.0,0.0003895640909249624
2026-06-27T13:34:55.456512,1782578033.4235861,0.0,0.0,1.0384188890457153,0.0,0.0,-0.4906371831893921,0.0,0.0,0.0003895640909249624
2026-06-27T13:34:55.565731,1782578033.5315883,0.0,0.0,0.985390841960907,0.0,0.0,-0.4913329482078552,0.0,0.0,0.0003895640909249624
2026-06-27T13:34:55.673592,1782578033.6365905,0.0,0.0,0.9337676167488098,0.0,0.0,-0.4919349253177643,0.0,0.0,0.0003895640909249624
2026-06-27T13:34:55.783281,1782578033.744593,0.0,0.0,0.8806071877479553,0.0,0.0,-0.4924861788749695,0.0,0.0,0.0003895640909249624
2026-06-27T13:34:55.891581,1782578033.849595,0.0,0.0,0.8288694024085999,0.0,0.0,-0.4929632842540741,0.0,0.0,0.0003895640909249624
2026-06-27T13:34:55.999829,1782578033.9545975,0.0,0.0,0.7770844101905823,0.0,0.0,-0.4933886229991913,0.0,0.0,0.0003895640909249624
2026-06-27T13:34:56.108506,1782578034.0595996,0.0,0.0,0.7252572774887085,0.0,0.0,-0.4937678575515747,0.0,0.0,0.0003895640909249624
2026-06-27T13:34:56.218164,1782578034.1676018,0.0,0.0,0.6719103455543518,0.0,0.0,-0.49411487579345703,0.0,0.0,0.0003895640909249624
2026-06-27T13:34:56.326854,1782578034.2756042,0.0,0.0,0.618527889251709,0.0,0.0,-0.4944235384464264,0.0,0.0,0.0003895640909249624
2026-06-27T13:34:56.434957,1782578034.3836064,0.0,0.0,0.5651139616966248,0.0,0.0,-0.4946976900100708,0.0,0.0,0.0003895640909249624
2026-06-27T13:34:56.544412,1782578034.4916089,0.0,0.0,0.5145214796066284,0.0,0.0,-0.32985085248947144,0.0,0.0,0.0003895640909249624
2026-06-27T13:34:56.653021,1782578034.596611,0.0,0.0,0.5011934638023376,0.0,0.0,-0.008058451116085052,0.0,0.0,0.0003895640909249624
2026-06-27T13:34:56.762595,1782578034.7046134,0.0,0.0,0.4928300380706787,0.0,0.0,-0.34499308466911316,0.0,0.0,0.00037588664082100024
2026-06-27T13:34:56.871291,1782578034.8126156,0.0,0.0,0.4167012572288513,0.0,0.0,-1.0623770952224731,0.0,0.0,0.00028801426549515685
2026-06-27T13:34:56.981124,1782578034.917618,0.0,0.0,0.26936790347099304,0.0,0.0,-1.7395060062408447,0.0,0.0,0.00016503283300972675
2026-06-27T13:34:57.087705,1782578035.0226202,0.0,0.0,0.05251578241586685,0.0,0.0,-2.3847243785858154,0.0,0.0,4.45809505214328e-05
2026-06-27T13:34:57.196913,1782578035.1276224,0.0,0.0,-0.22998370230197906,0.0,0.0,-2.9885363578796387,0.0,0.0,-4.740021698929891e-05
2026-06-27T13:34:57.306268,1782578035.2326245,0.0,0.0,-0.5734005570411682,0.0,0.0,-3.5441267490386963,0.0,0.0,-9.937044058757927e-05
2026-06-27T13:34:57.413793,1782578035.337627,0.0,0.0,-0.9724349975585938,0.0,0.0,-4.0474419593811035,0.0,0.0,-0.00011237421728052118
2026-06-27T13:34:57.522509,1782578035.442629,0.0,0.0,-1.4214991331100464,0.0,0.0,-4.496999740600586,0.0,0.0,-9.627306845391736e-05
2026-06-27T13:34:57.631596,1782578035.5506315,0.0,0.0,-1.9296640157699585,0.0,0.0,-4.9040656089782715,0.0,0.0,-6.257387250989135e-05
2026-06-27T13:34:57.739856,1782578035.6556337,0.0,0.0,-2.460897922515869,0.0,0.0,-5.15488338470459,0.0,0.0,-2.627402707616255e-05
2026-06-27T13:34:57.850040,1782578035.7606359,0.0,0.0,-3.0036110877990723,0.0,0.0,-5.169783592224121,0.0,0.0,4.2250073135342185e-06
2026-06-27T13:34:57.958819,1782578035.8656383,0.0,0.0,-3.545701026916504,0.0,0.0,-5.154637336730957,0.0,0.0,2.373243636487408e-05
2026-06-27T13:34:58.069069,1782578035.9706404,0.0,0.0,-4.086085319519043,0.0,0.0,-5.138355731964111,0.0,0.0,3.158793784332978e-05
2026-06-27T13:34:58.177756,1782578036.0726426,0.0,0.0,-4.609457492828369,0.0,0.0,-5.123867511749268,0.0,0.0,2.994440794123285e-05
2026-06-27T13:34:58.287041,1782578036.1806448,0.0,0.0,-5.162086009979248,0.0,0.0,-5.110043525695801,0.0,0.0,2.1823623165016728e-05
2026-06-27T13:34:58.395425,1782578036.2826471,0.0,0.0,-5.682712554931641,0.0,0.0,-5.098299026489258,0.0,0.0,1.1831389836452886e-05
2026-06-27T13:34:58.503175,1782578036.3876493,0.0,0.0,-6.217462062835693,0.0,0.0,-5.08740758895874,0.0,0.0,2.2382008062225433e-06
2026-06-27T13:34:58.613271,1782578036.4956515,0.0,0.0,-6.766360759735107,0.0,0.0,-5.0773468017578125,0.0,0.0,-5.02960927907714e-06
2026-06-27T13:34:58.721451,1782578036.600654,0.0,0.0,-7.299025058746338,0.0,0.0,-5.068562984466553,0.0,0.0,-9.61093642357512e-06
2026-06-27T13:34:58.828995,1782578036.708656,0.0,0.0,-7.845995903015137,0.0,0.0,-5.060451030731201,0.0,0.0,-1.2643446004391673e-05
2026-06-27T13:34:58.938729,1782578036.8166585,0.0,0.0,-8.39213752746582,0.0,0.0,-5.053177356719971,0.0,0.0,-1.3916714966467127e-05
2026-06-27T13:34:59.047468,1782578036.9216607,0.0,0.0,-8.922393798828125,0.0,0.0,-5.046828269958496,0.0,0.0,-1.1317132107560902e-05
2026-06-27T13:34:59.157165,1782578037.029663,0.0,0.0,-9.467144012451172,0.0,0.0,-5.040962219238281,0.0,0.0,-9.402891303861973e-06
2026-06-27T13:34:59.265382,1782578037.1376653,0.0,0.0,-10.011290550231934,0.0,0.0,-5.035706043243408,0.0,0.0,-8.142244411206583e-06
2026-06-27T13:34:59.374070,1782578037.2426674,0.0,0.0,-10.53980541229248,0.0,0.0,-5.0311174392700195,0.0,0.0,-7.419217719244835e-06
2026-06-27T13:34:59.483262,1782578037.3476698,0.0,0.0,-11.067863464355469,0.0,0.0,-5.02699089050293,0.0,0.0,-6.750546045233924e-06
2026-06-27T13:34:59.593481,1782578037.446672,0.0,0.0,-11.5653715133667,0.0,0.0,-5.0234808921813965,0.0,0.0,-6.1200841811664955e-06
2026-06-27T13:34:59.701368,1782578037.5426738,0.0,0.0,-12.0474853515625,0.0,0.0,-5.0203986167907715,0.0,0.0,-5.508727222070807e-06
2026-06-27T13:34:59.809906,1782578037.6476762,0.0,0.0,-12.574475288391113,0.0,0.0,-5.01735258102417,0.0,0.0,-4.8400555480598985e-06
2026-06-27T13:34:59.918572,1782578037.7556784,0.0,0.0,-13.116205215454102,0.0,0.0,-5.014537811279297,0.0,0.0,-4.152278969077252e-06
2026-06-27T13:35:00.029901,1782578037.8636808,0.0,0.0,-13.657649040222168,0.0,0.0,-5.012017250061035,0.0,0.0,-3.4645023900946047e-06
2026-06-27T13:35:00.136583,1782578037.968683,0.0,0.0,-14.18380355834961,0.0,0.0,-5.0098161697387695,0.0,0.0,-2.7958307160836987e-06
2026-06-27T13:35:00.245861,1782578038.0766854,0.0,0.0,-14.724763870239258,0.0,0.0,-5.00778341293335,0.0,0.0,-2.1080541371010525e-06
2026-06-27T13:35:00.354658,1782578038.1846876,0.0,0.0,-15.265515327453613,0.0,0.0,-5.005960941314697,0.0,0.0,-1.420277558118407e-06
2026-06-27T13:35:00.463332,1782578038.2896898,0.0,0.0,-15.791067123413086,0.0,0.0,-5.00437068939209,0.0,0.0,-7.516058841075016e-07
2026-06-27T13:35:00.572512,1782578038.3976922,0.0,0.0,-16.331466674804688,0.0,0.0,-5.002902030944824,0.0,0.0,-6.382879623610715e-08
2026-06-27T13:35:00.682190,1782578038.5056944,0.0,0.0,-16.871719360351562,0.0,0.0,-5.001585006713867,0.0,0.0,5.050158003207633e-07
2026-06-27T13:35:00.790140,1782578038.6136968,0.0,0.0,-17.411836624145508,0.0,0.0,-5.0004048347473145,0.0,0.0,7.816406507421225e-07
2026-06-27T13:35:00.898242,1782578038.721699,0.0,0.0,-17.95183753967285,0.0,0.0,-4.999346733093262,0.0,0.0,9.25339790583516e-07
2026-06-27T13:35:01.007060,1782578038.8297014,0.0,0.0,-18.491722106933594,0.0,0.0,-4.9983978271484375,0.0,0.0,9.756687860852449e-07
2026-06-27T13:35:01.116233,1782578038.9377036,0.0,0.0,-19.031517028808594,0.0,0.0,-4.997547626495361,0.0,0.0,1.0241141807712987e-06
2026-06-27T13:35:01.224985,1782578039.045706,0.0,0.0,-19.571224212646484,0.0,0.0,-4.996785640716553,0.0,0.0,1.037041786996263e-06
2026-06-27T13:35:01.334224,1782578039.1537082,0.0,0.0,-20.110849380493164,0.0,0.0,-4.9961018562316895,0.0,0.0,1.0467403923308558e-06
2026-06-27T13:35:01.443419,1782578039.2617106,0.0,0.0,-20.650407791137695,0.0,0.0,-4.995489597320557,0.0,0.0,1.0564389976654484e-06
2026-06-27T13:35:01.551935,1782578039.3667128,0.0,0.0,-21.17491912841797,0.0,0.0,-4.9949541091918945,0.0,0.0,1.0658681972963025e-06
2026-06-27T13:35:01.660689,1782578039.4747152,0.0,0.0,-21.714351654052734,0.0,0.0,-4.994460582733154,0.0,0.0,1.0755668026308951e-06
2026-06-27T13:35:01.768850,1782578039.5797174,0.0,0.0,-22.23875617980957,0.0,0.0,-4.9940290451049805,0.0,0.0,1.055127794914687e-06
2026-06-27T13:35:01.879032,1782578039.6877196,0.0,0.0,-22.778112411499023,0.0,0.0,-4.993631362915039,0.0,0.0,1.0067043842225914e-06
2026-06-27T13:35:01.987717,1782578039.795722,0.0,0.0,-23.31740379333496,0.0,0.0,-4.993274211883545,0.0,0.0,9.582809735304958e-07
2026-06-27T13:35:02.096978,1782578039.9037242,0.0,0.0,-23.85668182373047,0.0,0.0,-4.992953777313232,0.0,0.0,9.098575628384003e-07
2026-06-27T13:35:02.205066,1782578040.0087266,0.0,0.0,-24.38092613220215,0.0,0.0,-4.992674827575684,0.0,0.0,8.627792468877519e-07
2026-06-27T13:35:02.314342,1782578040.1137288,0.0,0.0,-24.905170440673828,0.0,0.0,-4.992423057556152,0.0,0.0,8.157009309371034e-07
2026-06-27T13:35:02.424477,1782578040.2217312,0.0,0.0,-25.444337844848633,0.0,0.0,-4.992191314697266,0.0,0.0,7.672775202450078e-07
2026-06-27T13:35:02.533190,1782578040.3267334,0.0,0.0,-25.968515396118164,0.0,0.0,-4.991987228393555,0.0,0.0,7.201992042943594e-07
2026-06-27T13:35:02.642419,1782578040.4347355,0.0,0.0,-26.50766944885254,0.0,0.0,-4.991800785064697,0.0,0.0,6.717757936022638e-07
2026-06-27T13:35:02.751927,1782578040.542738,0.0,0.0,-27.046777725219727,0.0,0.0,-4.991633415222168,0.0,0.0,6.233523829101682e-07
2026-06-27T13:35:02.858836,1782578040.6507401,0.0,0.0,-27.58586311340332,0.0,0.0,-4.991482257843018,0.0,0.0,5.749289722180727e-07
2026-06-27T13:35:02.969064,1782578040.7557425,0.0,0.0,-28.109973907470703,0.0,0.0,-4.991349220275879,0.0,0.0,5.278506562674242e-07
2026-06-27T13:35:03.077756,1782578040.8607447,0.0,0.0,-28.634084701538086,0.0,0.0,-4.991232395172119,0.0,0.0,4.807723403167758e-07
2026-06-27T13:35:03.186483,1782578040.968747,0.0,0.0,-29.17317008972168,0.0,0.0,-4.991124153137207,0.0,0.0,4.3234892962468024e-07
2026-06-27T13:35:03.295037,1782578041.0737493,0.0,0.0,-29.69722557067871,0.0,0.0,-4.991026878356934,0.0,0.0,3.8527140245159277e-07
2026-06-27T13:35:03.405244,1782578041.1787515,0.0,0.0,-30.221269607543945,0.0,0.0,-4.990943431854248,0.0,0.0,3.381939770562551e-07
2026-06-27T13:35:03.513474,1782578041.2837536,0.0,0.0,-30.74531364440918,0.0,0.0,-4.99086332321167,0.0,0.0,2.911165516609175e-07
2026-06-27T13:35:03.622704,1782578041.391756,0.0,0.0,-31.284330368041992,0.0,0.0,-4.990794658660889,0.0,0.0,2.4269405696857017e-07
2026-06-27T13:35:03.731494,1782578041.4967582,0.0,0.0,-31.808374404907227,0.0,0.0,-4.99072790145874,0.0,0.0,1.9561663157323252e-07
2026-06-27T13:35:03.839726,1782578041.5987604,0.0,0.0,-32.31744384765625,0.0,0.0,-4.9906744956970215,0.0,0.0,1.4988427547490452e-07
2026-06-27T13:35:03.948991,1782578041.7037628,0.0,0.0,-32.841487884521484,0.0,0.0,-4.99062442779541,0.0,0.0,1.0280683099623879e-07
2026-06-27T13:35:04.058019,1782578041.805765,0.0,0.0,-33.35055923461914,0.0,0.0,-4.990575790405273,0.0,0.0,5.7074258620192443e-08
2026-06-27T13:35:04.167201,1782578041.913767,0.0,0.0,-33.88957595825195,0.0,0.0,-4.990536212921143,0.0,0.0,8.65163988621257e-09
2026-06-27T13:35:04.275388,1782578042.0217695,0.0,0.0,-34.428592681884766,0.0,0.0,-4.990499973297119,0.0,0.0,-3.977098202832198e-08
2026-06-27T13:35:04.384600,1782578042.1297717,0.0,0.0,-34.96760940551758,0.0,0.0,-4.9904656410217285,0.0,0.0,-8.819367073450485e-08
2026-06-27T13:35:04.493791,1782578042.2377741,0.0,0.0,-35.50662612915039,0.0,0.0,-4.990431308746338,0.0,0.0,-1.3661624812127387e-07
2026-06-27T13:35:04.604494,1782578042.3457763,0.0,0.0,-36.0456428527832,0.0,0.0,-4.9904046058654785,0.0,0.0,-1.8503874281362116e-07
2026-06-27T13:35:04.712181,1782578042.4477785,0.0,0.0,-36.55471420288086,0.0,0.0,-4.990382194519043,0.0,0.0,-2.3077109891194916e-07
2026-06-27T13:35:04.819873,1782578042.5527809,0.0,0.0,-37.078758239746094,0.0,0.0,-4.990360736846924,0.0,0.0,-2.7784852430728683e-07
2026-06-27T13:35:04.929081,1782578042.660783,0.0,0.0,-37.617774963378906,0.0,0.0,-4.990341663360596,0.0,0.0,-3.262710189996341e-07
2026-06-27T13:35:05.038279,1782578042.7657855,0.0,0.0,-38.14181900024414,0.0,0.0,-4.990323543548584,0.0,0.0,-3.7334844439497174e-07
2026-06-27T13:35:05.146527,1782578042.8737876,0.0,0.0,-38.68083572387695,0.0,0.0,-4.990306377410889,0.0,0.0,-4.2177093908731905e-07
2026-06-27T13:35:05.255052,1782578042.9787898,0.0,0.0,-39.20487976074219,0.0,0.0,-4.990289688110352,0.0,0.0,-4.6884917870465513e-07
2026-06-27T13:35:05.364853,1782578043.0867922,0.0,0.0,-39.743896484375,0.0,0.0,-4.990272521972656,0.0,0.0,-5.172725893967508e-07
2026-06-27T13:35:05.473006,1782578043.1917944,0.0,0.0,-40.267940521240234,0.0,0.0,-4.990260124206543,0.0,0.0,-5.643509053473992e-07
2026-06-27T13:35:05.582736,1782578043.2997968,0.0,0.0,-40.80695724487305,0.0,0.0,-4.990249156951904,0.0,0.0,-6.127743160394947e-07
2026-06-27T13:35:05.691407,1782578043.407799,0.0,0.0,-41.34597396850586,0.0,0.0,-4.990241050720215,0.0,0.0,-6.611977267315903e-07
2026-06-27T13:35:05.800656,1782578043.5128012,0.0,0.0,-41.870018005371094,0.0,0.0,-4.990231990814209,0.0,0.0,-7.082760426822387e-07
2026-06-27T13:35:05.908321,1782578043.6178036,0.0,0.0,-42.39406204223633,0.0,0.0,-4.990223407745361,0.0,0.0,-7.553543586328872e-07
2026-06-27T13:35:06.018535,1782578043.7288058,0.0,0.0,-42.94805145263672,0.0,0.0,-4.990215301513672,0.0,0.0,-8.051228640664299e-07
2026-06-27T13:35:06.126742,1782578043.8338082,0.0,0.0,-43.47209548950195,0.0,0.0,-4.990209579467773,0.0,0.0,-8.522011800170783e-07
2026-06-27T13:35:06.234922,1782578043.9418104,0.0,0.0,-44.011112213134766,0.0,0.0,-4.990203857421875,0.0,0.0,-9.006245907091738e-07
2026-06-27T13:35:06.344224,1782578044.0468128,0.0,0.0,-44.53515625,0.0,0.0,-4.990197658538818,0.0,0.0,-9.477029066598224e-07
2026-06-27T13:35:06.453148,1782578044.154815,0.0,0.0,-45.07417297363281,0.0,0.0,-4.9901933670043945,0.0,0.0,-9.961263173519178e-07
2026-06-27T13:35:06.562341,1782578044.2628174,0.0,0.0,-45.613189697265625,0.0,0.0,-4.9901885986328125,0.0,0.0,-1.0445497280440134e-06
2026-06-27T13:35:06.671724,1782578044.3678195,0.0,0.0,-46.13723373413086,0.0,0.0,-4.990184307098389,0.0,0.0,-1.091628043994662e-06
2026-06-27T13:35:06.780422,1782578044.4758217,0.0,0.0,-46.67625045776367,0.0,0.0,-4.990179538726807,0.0,0.0,-1.1400514546867576e-06
2026-06-27T13:35:06.888616,1782578044.5838242,0.0,0.0,-47.215267181396484,0.0,0.0,-4.990176677703857,0.0,0.0,-1.188474865378853e-06
2026-06-27T13:35:06.997810,1782578044.6918263,0.0,0.0,-47.7542839050293,0.0,0.0,-4.990172386169434,0.0,0.0,-1.2368982760709486e-06
2026-06-27T13:35:07.107341,1782578044.7998288,0.0,0.0,-48.29330062866211,0.0,0.0,-4.990169048309326,0.0,0.0,-1.2853216867630442e-06
2026-06-27T13:35:07.215662,1782578044.904831,0.0,0.0,-48.817344665527344,0.0,0.0,-4.990166664123535,0.0,0.0,-1.3324000027136925e-06
2026-06-27T13:35:07.325020,1782578045.009833,0.0,0.0,-49.34138870239258,0.0,0.0,-4.990163803100586,0.0,0.0,-1.3794783186643413e-06
2026-06-27T13:35:07.433462,1782578045.1148355,0.0,0.0,-49.86543273925781,0.0,0.0,-4.99015998840332,0.0,0.0,-1.4265566346149898e-06
2026-06-27T13:35:07.544633,1782578045.2258377,0.0,0.0,-50.4194221496582,0.0,0.0,-4.990159511566162,0.0,0.0,-1.4763251400485323e-06
2026-06-27T13:35:07.651624,1782578045.33084,0.0,0.0,-50.94346618652344,0.0,0.0,-4.990156173706055,0.0,0.0,-1.5234034559991809e-06
2026-06-27T13:35:07.759774,1782578045.4328423,0.0,0.0,-51.452537536621094,0.0,0.0,-4.990155220031738,0.0,0.0,-1.5691366772083823e-06
2026-06-27T13:35:07.869089,1782578045.5408444,0.0,0.0,-51.991554260253906,0.0,0.0,-4.990153789520264,0.0,0.0,-1.617560087900478e-06
2026-06-27T13:35:07.977252,1782578045.6458468,0.0,0.0,-52.515472412109375,0.0,0.0,-4.990150451660156,0.0,0.0,-1.6646384038511262e-06
2026-06-27T13:35:08.086988,1782578045.750849,0.0,0.0,-53.03938293457031,0.0,0.0,-4.990148544311523,0.0,0.0,-1.7117167198017747e-06
2026-06-27T13:35:08.195196,1782578045.8528512,0.0,0.0,-53.54832458496094,0.0,0.0,-4.990147113800049,0.0,0.0,-1.7574499410109762e-06
2026-06-27T13:35:08.304941,1782578045.9608536,0.0,0.0,-54.08720397949219,0.0,0.0,-4.990145206451416,0.0,0.0,-1.8058733517030716e-06
2026-06-27T13:35:08.413667,1782578046.0688558,0.0,0.0,-54.62608337402344,0.0,0.0,-4.990141868591309,0.0,0.0,-1.8542967623951672e-06
2026-06-27T13:35:08.522889,1782578046.1768582,0.0,0.0,-55.16496276855469,0.0,0.0,-4.990139961242676,0.0,0.0,-1.9027201730872628e-06
2026-06-27T13:35:08.632080,1782578046.2788603,0.0,0.0,-55.67390441894531,0.0,0.0,-4.990139961242676,0.0,0.0,-1.9484533942964643e-06
2026-06-27T13:35:08.739766,1782578046.3868625,0.0,0.0,-56.19781494140625,0.0,0.0,-4.990139484405518,0.0,0.0,-1.9955317102471124e-06
2026-06-27T13:35:08.848968,1782578046.491865,0.0,0.0,-56.7366943359375,0.0,0.0,-4.990138530731201,0.0,0.0,-2.043955120939208e-06
2026-06-27T13:35:08.957684,1782578046.596867,0.0,0.0,-57.26060485839844,0.0,0.0,-4.990137100219727,0.0,0.0,-2.0910334368898565e-06
2026-06-27T13:35:09.066377,1782578046.7048693,0.0,0.0,-57.79948425292969,0.0,0.0,-4.990135669708252,0.0,0.0,-2.139456847581952e-06
2026-06-27T13:35:09.174908,1782578046.8098717,0.0,0.0,-58.323394775390625,0.0,0.0,-4.990134239196777,0.0,0.0,-2.186535163532601e-06
2026-06-27T13:35:09.283109,1782578046.9178739,0.0,0.0,-58.862274169921875,0.0,0.0,-4.9901323318481445,0.0,0.0,-2.2349585742246967e-06
2026-06-27T13:35:09.393328,1782578047.0228763,0.0,0.0,-59.38618469238281,0.0,0.0,-4.990130424499512,0.0,0.0,-2.2820368901753444e-06
2026-06-27T13:35:09.501086,1782578047.1308784,0.0,0.0,-59.92506408691406,0.0,0.0,-4.990129470825195,0.0,0.0,-2.33046030086744e-06
2026-06-27T13:35:09.610771,1782578047.2388809,0.0,0.0,-60.46394348144531,0.0,0.0,-4.990128517150879,0.0,0.0,-2.378883711559536e-06
2026-06-27T13:35:09.718465,1782578047.346883,0.0,0.0,-61.00282287597656,0.0,0.0,-4.990128040313721,0.0,0.0,-2.4273071222516317e-06
2026-06-27T13:35:09.828149,1782578047.4548855,0.0,0.0,-61.54170227050781,0.0,0.0,-4.990126609802246,0.0,0.0,-2.475730532943727e-06
2026-06-27T13:35:09.936169,1782578047.5598876,0.0,0.0,-62.06561279296875,0.0,0.0,-4.990126132965088,0.0,0.0,-2.5228088488943754e-06
2026-06-27T13:35:10.045321,1782578047.6678898,0.0,0.0,-62.6044921875,0.0,0.0,-4.9901251792907715,0.0,0.0,-2.571232259586471e-06
2026-06-27T13:35:10.154499,1782578047.7788923,0.0,0.0,-63.15834045410156,0.0,0.0,-4.990123271942139,0.0,0.0,-2.621000765020014e-06
2026-06-27T13:35:10.263743,1782578047.8838944,0.0,0.0,-63.6822509765625,0.0,0.0,-4.990121841430664,0.0,0.0,-2.6680790809706628e-06
2026-06-27T13:35:10.372119,1782578047.9918969,0.0,0.0,-64.22113037109375,0.0,0.0,-4.9901204109191895,0.0,0.0,-2.7165024916627584e-06
2026-06-27T13:35:10.482621,1782578048.099899,0.0,0.0,-64.760009765625,0.0,0.0,-4.990119457244873,0.0,0.0,-2.764925902354853e-06
2026-06-27T13:35:10.592104,1782578048.2079015,0.0,0.0,-65.29888916015625,0.0,0.0,-4.990118503570557,0.0,0.0,-2.8133493130469496e-06
2026-06-27T13:35:10.698330,1782578048.3099036,0.0,0.0,-65.80783081054688,0.0,0.0,-4.990117073059082,0.0,0.0,-2.8590825342561506e-06
2026-06-27T13:35:10.808564,1782578048.4149058,0.0,0.0,-66.33174133300781,0.0,0.0,-4.990117073059082,0.0,0.0,-2.9061608502068e-06
2026-06-27T13:35:10.916746,1782578048.5199082,0.0,0.0,-66.85565185546875,0.0,0.0,-4.990115642547607,0.0,0.0,-2.9532391661574477e-06
2026-06-27T13:35:11.025477,1782578048.6249104,0.0,0.0,-67.37956237792969,0.0,0.0,-4.990114688873291,0.0,0.0,-3.0003174821080962e-06
2026-06-27T13:35:11.134198,1782578048.7329125,0.0,0.0,-67.91844177246094,0.0,0.0,-4.990113735198975,0.0,0.0,-3.0487408928001923e-06
2026-06-27T13:35:11.243378,1782578048.837915,0.0,0.0,-68.44235229492188,0.0,0.0,-4.990111827850342,0.0,0.0,-3.095819208750841e-06
2026-06-27T13:35:11.352658,1782578048.9459171,0.0,0.0,-68.98123168945312,0.0,0.0,-4.990109920501709,0.0,0.0,-3.144242619442937e-06
2026-06-27T13:35:11.461353,1782578049.0539196,0.0,0.0,-69.52011108398438,0.0,0.0,-4.990109920501709,0.0,0.0,-3.192666030135032e-06
2026-06-27T13:35:11.570046,1782578049.1589217,0.0,0.0,-70.04402160644531,0.0,0.0,-4.990108966827393,0.0,0.0,-3.23974434608568e-06
2026-06-27T13:35:11.678740,1782578049.2699242,0.0,0.0,-70.59786987304688,0.0,0.0,-4.99010705947876,0.0,0.0,-3.2895128515192233e-06
2026-06-27T13:35:11.787409,1782578049.3719263,0.0,0.0,-71.1068115234375,0.0,0.0,-4.99010705947876,0.0,0.0,-3.3352460727284247e-06
2026-06-27T13:35:11.896610,1782578049.4799285,0.0,0.0,-71.64569091796875,0.0,0.0,-4.990106105804443,0.0,0.0,-3.3836694834205204e-06
2026-06-27T13:35:12.006307,1782578049.587931,0.0,0.0,-72.1845703125,0.0,0.0,-4.990105152130127,0.0,0.0,-3.4320926905571165e-06
2026-06-27T13:35:12.114533,1782578049.689933,0.0,0.0,-72.69351196289062,0.0,0.0,-4.9901041984558105,0.0,0.0,-3.4778259117663175e-06
2026-06-27T13:35:12.222910,1782578049.7949352,0.0,0.0,-73.21742248535156,0.0,0.0,-4.990103721618652,0.0,0.0,-3.524904227716966e-06
2026-06-27T13:35:12.331108,1782578049.9029377,0.0,0.0,-73.75630187988281,0.0,0.0,-4.9901018142700195,0.0,0.0,-3.5733276384090617e-06
2026-06-27T13:35:12.440335,1782578050.0079398,0.0,0.0,-74.28021240234375,0.0,0.0,-4.990099906921387,0.0,0.0,-3.6204059543597102e-06
2026-06-27T13:35:12.549025,1782578050.1159422,0.0,0.0,-74.819091796875,0.0,0.0,-4.99009895324707,0.0,0.0,-3.668829365051806e-06
2026-06-27T13:35:12.658250,1782578050.2209444,0.0,0.0,-75.34300231933594,0.0,0.0,-4.990097999572754,0.0,0.0,-3.7159076810024544e-06
2026-06-27T13:35:12.766876,1782578050.3229465,0.0,0.0,-75.85194396972656,0.0,0.0,-4.990097522735596,0.0,0.0,-3.7616409022116554e-06
2026-06-27T13:35:12.875489,1782578050.430949,0.0,0.0,-76.39082336425781,0.0,0.0,-4.990096569061279,0.0,0.0,-3.8100643129037523e-06
2026-06-27T13:35:12.984826,1782578050.5359511,0.0,0.0,-76.91473388671875,0.0,0.0,-4.990095138549805,0.0,0.0,-3.8571426288544e-06
2026-06-27T13:35:13.093074,1782578050.6379533,0.0,0.0,-77.42367553710938,0.0,0.0,-4.9900946617126465,0.0,0.0,-3.902875850063602e-06
2026-06-27T13:35:13.201783,1782578050.7459555,0.0,0.0,-77.96255493164062,0.0,0.0,-4.99009370803833,0.0,0.0,-3.9512992607556974e-06
2026-06-27T13:35:13.311647,1782578050.8509579,0.0,0.0,-78.48646545410156,0.0,0.0,-4.990092754364014,0.0,0.0,-3.998377576706346e-06
2026-06-27T13:35:13.420864,1782578050.95896,0.0,0.0,-79.02534484863281,0.0,0.0,-4.990091800689697,0.0,0.0,-4.046800987398442e-06
2026-06-27T13:35:13.528521,1782578051.0639625,0.0,0.0,-79.54925537109375,0.0,0.0,-4.990089416503906,0.0,0.0,-4.093879303349091e-06
2026-06-27T13:35:13.638197,1782578051.1719646,0.0,0.0,-80.088134765625,0.0,0.0,-4.990088939666748,0.0,0.0,-4.142302714041187e-06
2026-06-27T13:35:13.746862,1782578051.279967,0.0,0.0,-80.62701416015625,0.0,0.0,-4.990087985992432,0.0,0.0,-4.190726124733281e-06
2026-06-27T13:35:13.855508,1782578051.3849692,0.0,0.0,-81.15092468261719,0.0,0.0,-4.990086078643799,0.0,0.0,-4.23780444068393e-06
2026-06-27T13:35:13.964220,1782578051.4929714,0.0,0.0,-81.68980407714844,0.0,0.0,-4.990086078643799,0.0,0.0,-4.286227851376026e-06
2026-06-27T13:35:14.073296,1782578051.6009738,0.0,0.0,-82.22868347167969,0.0,0.0,-4.990084171295166,0.0,0.0,-4.3346512620681216e-06
2026-06-27T13:35:14.183782,1782578051.708976,0.0,0.0,-82.76756286621094,0.0,0.0,-4.990084171295166,0.0,0.0,-4.383074672760217e-06
2026-06-27T13:35:14.291469,1782578051.8139784,0.0,0.0,-83.29147338867188,0.0,0.0,-4.99008321762085,0.0,0.0,-4.430152988710866e-06
2026-06-27T13:35:14.400140,1782578051.9219806,0.0,0.0,-83.83035278320312,0.0,0.0,-4.990082263946533,0.0,0.0,-4.478576399402962e-06
2026-06-27T13:35:14.508784,1782578052.026983,0.0,0.0,-84.35426330566406,0.0,0.0,-4.990081310272217,0.0,0.0,-4.52565471535361e-06
2026-06-27T13:35:14.617131,1782578052.1349852,0.0,0.0,-84.89314270019531,0.0,0.0,-4.990079879760742,0.0,0.0,-4.574078126045706e-06
2026-06-27T13:35:14.726155,1782578052.2459877,0.0,0.0,-85.43202209472656,0.0,0.0,-4.990078926086426,0.0,0.0,-4.622501536737801e-06
2026-06-27T13:35:14.835140,1782578052.3509898,0.0,0.0,-85.97090148925781,0.0,0.0,-4.990077972412109,0.0,0.0,-4.670924947429898e-06
2026-06-27T13:35:14.943823,1782578052.4589922,0.0,0.0,-86.50978088378906,0.0,0.0,-4.990077018737793,0.0,0.0,-4.719348358121993e-06
2026-06-27T13:35:15.053055,1782578052.5669944,0.0,0.0,-87.04866027832031,0.0,0.0,-4.990076065063477,0.0,0.0,-4.767771768814089e-06
2026-06-27T13:35:15.161730,1782578052.6749969,0.0,0.0,-87.58753967285156,0.0,0.0,-4.99007511138916,0.0,0.0,-4.8161951795061845e-06
2026-06-27T13:35:15.271417,1782578052.779999,0.0,0.0,-88.1114501953125,0.0,0.0,-4.990074157714844,0.0,0.0,-4.863273495456833e-06
2026-06-27T13:35:15.380441,1782578052.8880012,0.0,0.0,-88.65032958984375,0.0,0.0,-4.99007511138916,0.0,0.0,-4.911696906148929e-06
2026-06-27T13:35:15.488498,1782578052.9930036,0.0,0.0,-89.17424011230469,0.0,0.0,-4.99007511138916,0.0,0.0,-4.958775222099578e-06
2026-06-27T13:35:15.598058,1782578053.0980058,0.0,0.0,-89.69815063476562,0.0,0.0,-4.99007511138916,0.0,0.0,-5.005853538050226e-06
2026-06-27T13:35:15.706238,1782578053.206008,0.0,0.0,-90.23703002929688,0.0,0.0,-4.99007511138916,0.0,0.0,-5.054276948742322e-06
2026-06-27T13:35:15.815960,1782578053.3110104,0.0,0.0,-90.76094055175781,0.0,0.0,-4.99007511138916,0.0,0.0,-5.101355264692971e-06
2026-06-27T13:35:15.924176,1782578053.4190125,0.0,0.0,-91.29981994628906,0.0,0.0,-4.9900736808776855,0.0,0.0,-5.1497786753850655e-06
2026-06-27T13:35:16.033985,1782578053.530015,0.0,0.0,-91.85366821289062,0.0,0.0,-4.9900712966918945,0.0,0.0,-5.199547180818609e-06
2026-06-27T13:35:16.143050,1782578053.6350172,0.0,0.0,-92.37757873535156,0.0,0.0,-4.99006986618042,0.0,0.0,-5.246625496769258e-06
2026-06-27T13:35:16.251736,1782578053.7430196,0.0,0.0,-92.91645812988281,0.0,0.0,-4.9900689125061035,0.0,0.0,-5.295048907461353e-06
2026-06-27T13:35:16.360017,1782578053.8480217,0.0,0.0,-93.44036865234375,0.0,0.0,-4.990068435668945,0.0,0.0,-5.342127223412002e-06
2026-06-27T13:35:16.468737,1782578053.953024,0.0,0.0,-93.96427917480469,0.0,0.0,-4.990067481994629,0.0,0.0,-5.389205539362652e-06
2026-06-27T13:35:16.577467,1782578054.0550263,0.0,0.0,-94.47322082519531,0.0,0.0,-4.990066051483154,0.0,0.0,-5.434938760571853e-06
2026-06-27T13:35:16.686663,1782578054.1570284,0.0,0.0,-94.98216247558594,0.0,0.0,-4.99006462097168,0.0,0.0,-5.480671981781054e-06
2026-06-27T13:35:16.795712,1782578054.2650306,0.0,0.0,-95.52104187011719,0.0,0.0,-4.990063190460205,0.0,0.0,-5.52909539247315e-06
2026-06-27T13:35:16.904412,1782578054.373033,0.0,0.0,-96.05992126464844,0.0,0.0,-4.990060329437256,0.0,0.0,-5.577518803165245e-06
2026-06-27T13:35:17.013465,1782578054.4810352,0.0,0.0,-96.59880065917969,0.0,0.0,-4.990060329437256,0.0,0.0,-5.625942213857341e-06
2026-06-27T13:35:17.123110,1782578054.5890377,0.0,0.0,-97.13768005371094,0.0,0.0,-4.990058898925781,0.0,0.0,-5.6743656245494365e-06
2026-06-27T13:35:17.230856,1782578054.6940398,0.0,0.0,-97.66159057617188,0.0,0.0,-4.990057945251465,0.0,0.0,-5.721443940500086e-06
2026-06-27T13:35:17.338761,1782578054.802042,0.0,0.0,-98.20046997070312,0.0,0.0,-4.990056991577148,0.0,0.0,-5.769867351192182e-06
2026-06-27T13:35:17.448996,1782578054.9070444,0.0,0.0,-98.72438049316406,0.0,0.0,-4.990055561065674,0.0,0.0,-5.81694566714283e-06
2026-06-27T13:35:17.557695,1782578055.0120466,0.0,0.0,-99.248291015625,0.0,0.0,-4.990054607391357,0.0,0.0,-5.864023983093479e-06
2026-06-27T13:35:17.668401,1782578055.1170487,0.0,0.0,-99.77220153808594,0.0,0.0,-4.990053653717041,0.0,0.0,-5.911102299044128e-06
2026-06-27T13:35:17.776145,1782578055.2220511,2.2714407066359854e-07,-7.127697188025195e-08,-100.29466247558594,2.7683414373314008e-05,-8.6181826191023e-06,-4.915555477142334,-0.0070419923845964835,-0.023280990684248028,-0.19867846462476996
2026-06-27T13:35:17.884839,1782578055.3300533,0.0001067026678356342,-3.062063115066849e-05,-100.82039642333984,0.003143475390970707,-0.0008900720858946443,-4.857860565185547,-0.09286186707335627,-0.40364202374470953,-2.648828012252401
2026-06-27T13:35:17.992910,1782578055.4380558,0.0010849031386896968,-0.0003041017916984856,-101.35096740722656,0.017150046303868294,-0.004769642371684313,-4.975317478179932,-0.15627861740298107,-1.0488557312594895,-6.923182827552702
2026-06-27T13:35:18.102612,1782578055.543058,0.004088708199560642,-0.0011352183064445853,-101.87529754638672,0.04200024902820587,-0.011580935679376125,-5.000216007232666,-0.11731039693280501,-1.7956604690747289,-11.523333632700675
2026-06-27T13:35:18.211341,1782578055.6510603,0.01058623194694519,-0.002919415244832635,-102.41514587402344,0.08062532544136047,-0.022067241370677948,-4.99525785446167,0.016849986513431444,-2.5942381690822547,-15.491452157007007
2026-06-27T13:35:18.320541,1782578055.7560625,0.021609820425510406,-0.005925586912781,-102.93915557861328,0.13153107464313507,-0.03576042130589485,-4.985027313232422,0.17443636060503281,-3.359655987426319,-17.966660995434562
2026-06-27T13:35:18.428680,1782578055.8640647,0.039249323308467865,-0.01070527732372284,-103.47677612304688,0.19737020134925842,-0.053330644965171814,-4.9698710441589355,0.2938070484247618,-4.129480943315327,-18.965880694581017
2026-06-27T13:35:18.537877,1782578055.969067,0.06388619542121887,-0.01734406314790249,-103.99761199951172,0.2738857865333557,-0.07363279908895493,-4.949614524841309,0.3274890207349773,-4.854394968630266,-18.69420341820851
2026-06-27T13:35:18.647055,1782578056.0800693,0.09936388581991196,-0.02686011791229248,-104.54552459716797,0.36743298172950745,-0.09836731106042862,-4.920820236206055,0.27153062720443205,-5.597066047926961,-17.57629330051469
2026-06-27T13:35:18.755432,1782578056.1880717,0.14449293911457062,-0.038921717554330826,-105.0750961303711,0.4701274037361145,-0.12547729909420013,-4.884066104888916,0.15467955122917573,-6.291858945129428,-16.195158742508355
2026-06-27T13:35:18.864113,1782578056.296074,0.20129668712615967,-0.05406469479203224,-105.60014343261719,0.5835015773773193,-0.15540029108524323,-4.837100982666016,0.019233386665024922,-6.957543075823165,-14.946690310372494
2026-06-27T13:35:18.972875,1782578056.4040763,0.2708863914012909,-0.07258303463459015,-106.1195068359375,0.7067729234695435,-0.18795230984687805,-4.778487205505371,-0.09469387414671449,-7.598443199184384,-14.0819073842834
2026-06-27T13:35:19.082068,1782578056.5120785,0.35428616404533386,-0.09474965929985046,-106.6318359375,0.8390806913375854,-0.22291924059391022,-4.706552028656006,-0.16150156822656378,-8.217331963037363,-13.680421396244194
2026-06-27T13:35:19.190793,1782578056.620081,0.4524272680282593,-0.12081389129161835,-107.1355972290039,0.9795407652854919,-0.2600727677345276,-4.6195454597473145,-0.17397630519304888,-8.819158749835466,-13.686968320049006
2026-06-27T13:35:19.298656,1782578056.725083,0.5627688765525818,-0.15010394155979156,-107.61558532714844,1.1231917142868042,-0.29809918999671936,-4.519320964813232,-0.14245842819085283,-9.386140797286286,-13.957789582237577
2026-06-27T13:35:19.408779,1782578056.8330855,0.6923427581787109,-0.1844887137413025,-108.09728240966797,1.277190089225769,-0.3388902544975281,-4.397470474243164,-0.08345185870760817,-9.954869293733214,-14.35645960023466
2026-06-27T13:35:19.517484,1782578056.9410877,0.8388466238975525,-0.2233591377735138,-108.56471252441406,1.4365181922912598,-0.38111352920532227,-4.254322052001953,-0.018514286875716223,-10.510428100825505,-14.743992613541767
2026-06-27T13:35:19.626184,1782578057.0490901,1.002794861793518,-0.26685333251953125,-109.01541137695312,1.5999637842178345,-0.42444348335266113,-4.086626052856445,0.034838838742397,-11.054245926743672,-15.032007277819185
2026-06-27T13:35:19.735404,1782578057.1540923,1.1792360544204712,-0.3136592507362366,-109.43463897705078,1.761189341545105,-0.4671952426433563,-3.8939130306243896,0.06593129858654018,-11.594932372214533,-15.181841249206764
2026-06-27T13:35:19.843983,1782578057.2620945,1.378432035446167,-0.3664999008178711,-109.84281921386719,1.927484393119812,-0.511297881603241,-3.657975673675537,0.07442086451743575,-12.170264765588934,-15.209119382119495
2026-06-27T13:35:19.952868,1782578057.370097,1.5954433679580688,-0.424065500497818,-110.22269439697266,2.0899760723114014,-0.5543957352638245,-3.364856719970703,0.06333889834788654,-12.812490497527396,-15.14282639527639
2026-06-27T13:35:20.062255,1782578057.475099,1.8226850032806396,-0.4843444526195526,-110.55709075927734,2.234816789627075,-0.5928139686584473,-2.9825477600097656,0.04120932073355868,-13.61226467040113,-15.032533336813037
2026-06-27T13:35:20.171515,1782578057.5831015,2.070629596710205,-0.5501148700714111,-110.84989166259766,2.3505256175994873,-0.6235057711601257,-2.4080045223236084,0.014364681379879092,-14.766445805558313,-14.913575988980416
2026-06-27T13:35:20.279712,1782578057.6881037,2.3259944915771484,-0.6178538799285889,-111.08203125,2.535480260848999,-0.6725711822509766,-2.0951597690582275,-0.009547572329309306,-15.194822351596793,-14.82116779132216
2026-06-27T13:35:20.389855,1782578057.796106,2.612751007080078,-0.6939201354980469,-111.30143737792969,2.7738890647888184,-0.7358213067054749,-1.9727023839950562,-0.0229826277450196,-14.526767720243152,-14.765767787189436
2026-06-27T13:35:20.498548,1782578057.9011083,2.9156084060668945,-0.7742588520050049,-111.50272369384766,2.9914937019348145,-0.7935539484024048,-1.8613793849945068,-0.02450506959511015,-13.390748804748636,-14.750977066495032
2026-06-27T13:35:20.607475,1782578058.0091105,3.2498483657836914,-0.8629230856895447,-111.69778442382812,3.1944267749786377,-0.8473942875862122,-1.7526140213012695,-0.01878965630577436,-12.045728400762831,-14.766163663643036
2026-06-27T13:35:20.715678,1782578058.1141129,3.594731092453003,-0.9544112086296082,-111.87678527832031,3.371309995651245,-0.8943220376968384,-1.6593397855758667,-0.010943050385866309,-10.73102186111389,-14.79714510494181
2026-06-27T13:35:20.827233,1782578058.219115,3.957155227661133,-1.0505534410476685,-112.04673767089844,3.5286641120910645,-0.9360663890838623,-1.5802135467529297,-0.004002046315275125,-9.490899009635648,-14.831706685841874
2026-06-27T13:35:20.933432,1782578058.3241172,4.335119247436523,-1.1508179903030396,-112.20909881591797,3.6675050258636475,-0.9728966951370239,-1.5141808986663818,0.000650037031055427,-8.361906072955978,-14.860844288752304
2026-06-27T13:35:21.044829,1782578058.4291196,4.72675085067749,-1.2547074556350708,-112.36512756347656,3.7892215251922607,-1.0051820278167725,-1.4592806100845337,0.0029081823101474885,-7.35583496806281,-14.879735953360301
2026-06-27T13:35:21.152075,1782578058.5311217,5.118649959564209,-1.3586678504943848,-112.51161193847656,3.8925678730010986,-1.0325932502746582,-1.414569616317749,0.0033468197829986477,-6.495219372830623,-14.887446325372386
2026-06-27T13:35:21.259805,1782578058.636124,5.532357692718506,-1.4684138298034668,-112.65804290771484,3.9852373600006104,-1.0571731328964233,-1.3754833936691284,0.002723836410653696,-5.721999638641728,-14.886115132448534
2026-06-27T13:35:21.368529,1782578058.741126,5.955136775970459,-1.5805655717849731,-112.80066680908203,4.0656023025512695,-1.0784912109375,-1.3418225049972534,0.0016772610197716348,-5.052509782208946,-14.878765600253585
2026-06-27T13:35:21.479396,1782578058.8491285,6.398183822631836,-1.6980938911437988,-112.94390869140625,4.137042999267578,-1.0974438190460205,-1.3114910125732422,0.0006319538709492307,-4.459985362533528,-14.868687405781973
2026-06-27T13:35:21.586467,1782578058.9541306,6.835808277130127,-1.8141834735870361,-113.08021545410156,4.197025775909424,-1.1133594512939453,-1.2851473093032837,-0.00011853661316788636,-3.965988904985427,-14.859487326979806
2026-06-27T13:35:21.695164,1782578059.0591328,7.279295921325684,-1.931829571723938,-113.21388244628906,4.248927116394043,-1.1271330118179321,-1.2609859704971313,-0.0005473173042727469,-3.542394632238707,-14.85276077931007
2026-06-27T13:35:21.803860,1782578059.1641352,7.727859973907471,-2.0508227348327637,-113.34510040283203,4.293881893157959,-1.139064908027649,-1.238816738128662,-0.0006966595867799913,-3.179340732612994,-14.849229345587778
2026-06-27T13:35:21.913117,1782578059.2721374,8.19382095336914,-2.174431562423706,-113.47772979736328,4.333876609802246,-1.1496814489364624,-1.2173305749893188,-0.0006523248520295345,-2.8605203464064552,-14.848674478092628
2026-06-27T13:35:22.022045,1782578059.3741395,8.637593269348145,-2.2921555042266846,-113.60090637207031,4.366658687591553,-1.1583834886550903,-1.1979564428329468,-0.0005155373956453052,-2.6030544393670643,-14.850230501550648
2026-06-27T13:35:22.131246,1782578059.482142,9.110870361328125,-2.4177069664001465,-113.72923278808594,4.396847724914551,-1.1663964986801147,-1.1782602071762085,-0.0003473316470172346,-2.370036053601548,-14.853002026013895
2026-06-27T13:35:22.240449,1782578059.584144,9.560654640197754,-2.5370256900787354,-113.84849548339844,4.421690464019775,-1.1729904413223267,-1.1602107286453247,-0.0002080870837474839,-2.1819630754942887,-14.855763023133608
2026-06-27T13:35:22.353041,1782578059.6861463,10.012812614440918,-2.6569747924804688,-113.96593475341797,4.443478107452393,-1.1787726879119873,-1.142611026763916,-0.00011004547235114502,-2.020540052630326,-14.858030701251604
2026-06-27T13:35:22.458681,1782578059.7881484,10.467055320739746,-2.777477264404297,-114.08160400390625,4.462636947631836,-1.1838569641113281,-1.1254063844680786,-5.496628294587472e-05,-1.881897049298949,-14.859483817854791
2026-06-27T13:35:22.566921,1782578059.8961508,10.950014114379883,-2.905597686767578,-114.20217895507812,4.480461120605469,-1.1885874271392822,-1.1074548959732056,-4.338011510434029e-05,-1.7564363335453994,-14.86008561393076
2026-06-27T13:35:22.675693,1782578059.998153,11.407801628112793,-3.0270416736602783,-114.31428527832031,4.495303630828857,-1.1925264596939087,-1.090795874595642,-4.8748353934402194e-05,-1.6550699155403732,-14.859921373145655
2026-06-27T13:35:22.783880,1782578060.1031551,11.88054370880127,-3.152451992034912,-114.42793273925781,4.508847713470459,-1.1961215734481812,-1.0738393068313599,-6.70839045089067e-05,-1.5656001020187034,-14.859290934362708
2026-06-27T13:35:22.893070,1782578060.2081575,12.354626655578613,-3.2782185077667236,-114.53981018066406,4.520882606506348,-1.1993160247802734,-1.057082176208496,-8.808834162592704e-05,-1.4890181556020194,-14.85848210282407
2026-06-27T13:35:23.002001,1782578060.3131597,12.829898834228516,-3.4043030738830566,-114.64993286132812,4.531620025634766,-1.2021665573120117,-1.0404963493347168,-0.00010346936786674441,-1.4233796133024421,-14.857741068268073
2026-06-27T13:35:23.111160,1782578060.421162,13.319868087768555,-3.5342841148376465,-114.76139831542969,4.541501045227051,-1.2047903537750244,-1.0235824584960938,-0.00011645596102478496,-1.365594951828675,-14.857204766000018
2026-06-27T13:35:23.219046,1782578060.5261643,13.797195434570312,-3.66091251373291,-114.86801147460938,4.550139427185059,-1.2070837020874023,-1.0073120594024658,-0.00012250085303259042,-1.317458838858568,-14.856950764470161
2026-06-27T13:35:23.328256,1782578060.6311665,14.275386810302734,-3.7877700328826904,-114.97293090820312,4.557955265045166,-1.209159255027771,-0.9912832975387573,-0.00012010143171018261,-1.2760220943389509,-14.856933246269342
2026-06-27T13:35:23.437837,1782578060.739169,14.76805591583252,-3.918468475341797,-115.0791015625,4.565247535705566,-1.211095929145813,-0.9747282266616821,-0.00011648955101369118,-1.2394665345302702,-14.85709787984874
2026-06-27T13:35:23.546926,1782578060.847171,15.261476516723633,-4.049365997314453,-115.1834945678711,4.571894645690918,-1.2128612995147705,-0.9584341049194336,-0.00010409072255406611,-1.2080207911540042,-14.857363623793692
2026-06-27T13:35:23.655137,1782578060.9521732,15.741851806640625,-4.176803112030029,-115.28330993652344,4.577818393707275,-1.2144349813461304,-0.9427139163017273,-9.082329378284597e-05,-1.1816418099753205,-14.857614471769189
2026-06-27T13:35:23.763839,1782578061.0571756,16.22282600402832,-4.304398059844971,-115.38147735595703,4.583282947540283,-1.215885877609253,-0.9271249771118164,-8.705458559251505e-05,-1.1587700879874354,-14.857803337175325
2026-06-27T13:35:23.873038,1782578061.1651778,16.718114852905273,-4.435791015625,-115.48074340820312,4.588483810424805,-1.2172669172286987,-0.9112578630447388,-8.476116903948565e-05,-1.1383622995622549,-14.857919213656482
2026-06-27T13:35:23.982256,1782578061.27018,17.200164794921875,-4.563673496246338,-115.57562255859375,4.5931830406188965,-1.2185156345367432,-0.8959313035011292,-8.389011410325046e-05,-1.121092195424952,-14.857959058703099
2026-06-27T13:35:24.091942,1782578061.3781824,17.696487426757812,-4.695342063903809,-115.6715316772461,4.597697734832764,-1.2197151184082031,-0.8803285360336304,-8.435226108139349e-05,-1.105579611073174,-14.857933094039884
2026-06-27T13:35:24.201807,1782578061.4861846,18.193281173706055,-4.82713508605957,-115.76577758789062,4.601924896240234,-1.2208384275436401,-0.8648338913917542,-8.498433661962188e-05,-1.0920051293321305,-14.857905397249983
2026-06-27T13:35:24.308985,1782578061.591187,18.676698684692383,-4.955379486083984,-115.85578918457031,4.605793476104736,-1.221866488456726,-0.849919855594635,-8.56404334023005e-05,-1.080385851901376,-14.857878565905152
2026-06-27T13:35:24.417656,1782578061.6991892,19.174341201782227,-5.087398529052734,-115.94674682617188,4.609549522399902,-1.2228647470474243,-0.8347004055976868,-8.566655676759739e-05,-1.069799491225025,-14.85788955424008
2026-06-27T13:35:24.526707,1782578061.8041916,19.658536911010742,-5.215850830078125,-116.03362274169922,4.61301326751709,-1.2237850427627563,-0.8201628923416138,-8.58593335842522e-05,-1.0606473278398056,-14.857898985414014
2026-06-27T13:35:24.634881,1782578061.9121938,20.156936645507812,-5.348071575164795,-116.12137603759766,4.616393566131592,-1.2246836423873901,-0.8051468729972839,-8.605034052106794e-05,-1.052250843969658,-14.857907778717452
2026-06-27T13:35:24.745319,1782578062.0201962,20.655691146850586,-5.480386734008789,-116.20755004882812,4.619614124298096,-1.2255395650863647,-0.7904534935951233,-7.837469556336541e-05,-1.0446575558792905,-14.857916074294799
2026-06-27T13:35:24.857527,1782578062.1251984,21.140918731689453,-5.609113693237305,-116.289794921875,4.622601509094238,-1.2263336181640625,-0.776192843914032,-7.525592495057041e-05,-1.0380299354494855,-14.857921491019246
2026-06-27T13:35:24.963201,1782578062.2242005,21.59870147705078,-5.7305588722229,-116.3659896850586,4.625302791595459,-1.2270514965057373,-0.7629528045654297,-6.696729214621987e-05,-1.0323171111939324,-14.857929163995209
2026-06-27T13:35:25.070920,1782578062.3292027,22.08451271057129,-5.859440803527832,-116.44537353515625,4.628054141998291,-1.2277826070785522,-0.7490398287773132,-6.993241147789984e-05,-1.0267653225909852,-14.85793457470053
2026-06-27T13:35:25.180114,1782578062.437205,22.584503173828125,-5.992083549499512,-116.52550506591797,4.630771160125732,-1.2285044193267822,-0.7348703742027283,-6.787191674755965e-05,-1.0214971553379901,-14.857940747514233
2026-06-27T13:35:25.288753,1782578062.5392072,23.056978225708008,-6.117427349090576,-116.59979248046875,4.633239269256592,-1.2291605472564697,-0.7216644883155823,-7.398563562113005e-05,-1.016885617040784,-14.857945799514233
2026-06-27T13:35:25.398041,1782578062.6472094,23.55751609802246,-6.250215530395508,-116.67698669433594,4.635756015777588,-1.2298293113708496,-0.7078076004981995,-7.175358830581222e-05,-1.0123300416821435,-14.857951100053867
2026-06-27T13:35:25.506470,1782578062.7552118,24.058319091796875,-6.383074760437012,-116.75269317626953,4.638176918029785,-1.2304729223251343,-0.6940129399299622,-7.126862094843324e-05,-1.0081302693786363,-14.857954630281133
2026-06-27T13:35:25.614596,1782578062.857214,24.531538009643555,-6.508615970611572,-116.82284545898438,4.640385627746582,-1.23106050491333,-0.6813514232635498,-6.848127964248472e-05,-1.004307146282576,-14.857959066213631
2026-06-27T13:35:25.724182,1782578062.9652162,25.0328311920166,-6.641605854034424,-116.89571380615234,4.642645359039307,-1.2316606044769287,-0.6680068969726562,-7.064300386837118e-05,-1.0005008197955396,-14.85799067372877
2026-06-27T13:35:25.833390,1782578063.0732186,25.53436851501465,-6.774658679962158,-116.96714782714844,4.644822597503662,-1.2322396039962769,-0.6548244953155518,-6.990934194047994e-05,-0.9968861348687221,-14.858044661324245
2026-06-27T13:35:25.943090,1782578063.1782207,26.022193908691406,-6.9040751457214355,-117.03524017333984,4.646867275238037,-1.2327831983566284,-0.6421025395393372,-6.990059595447776e-05,-0.9935667380896334,-14.858047684887257
2026-06-27T13:35:26.051399,1782578063.2772229,26.482337951660156,-7.026147842407227,-117.09822082519531,4.6487345695495605,-1.2332799434661865,-0.6303696036338806,-6.969141937179168e-05,-0.9905546210535203,-14.858051415675916
2026-06-27T13:35:26.160140,1782578063.382225,26.97056770324707,-7.1556715965271,-117.16376495361328,4.650651454925537,-1.2337896823883057,-0.6180492043495178,-6.947787630043747e-05,-0.987461023388229,-14.858054986784152
2026-06-27T13:35:26.268308,1782578063.4872274,27.458993911743164,-7.285248756408691,-117.22802734375,4.652505874633789,-1.2342827320098877,-0.6059510707855225,-6.92149778534891e-05,-0.9844753195982469,-14.85805621381053
2026-06-27T13:35:26.377544,1782578063.5952296,27.96157455444336,-7.418581008911133,-117.29280090332031,4.654346942901611,-1.2347724437713623,-0.5934848189353943,-7.092545049987565e-05,-0.9815818106630275,-14.85806285336509
2026-06-27T13:35:26.486245,1782578063.6972318,28.436410903930664,-7.544552803039551,-117.35275268554688,4.656031608581543,-1.2352205514907837,-0.5819951295852661,-6.867125506512039e-05,-0.9788757209851617,-14.85807174851118
2026-06-27T13:35:26.595512,1782578063.8052342,28.939367294311523,-7.677984714508057,-117.41496276855469,4.657755374908447,-1.2356793880462646,-0.5699933767318726,-6.530458830126695e-05,-0.9761200817489561,-14.858105955943646
2026-06-27T13:35:26.703954,1782578063.9102364,29.42852783203125,-7.807757377624512,-117.47421264648438,4.6593756675720215,-1.2361106872558594,-0.5584841370582581,-6.388755866259731e-05,-0.9735246689465884,-14.858125617188001
2026-06-27T13:35:26.813226,1782578064.0152388,29.917856216430664,-7.9375739097595215,-117.53225708007812,4.660944938659668,-1.2365280389785767,-0.5471405386924744,-6.357778493586859e-05,-0.9709997583527161,-14.858127938290792
2026-06-27T13:35:26.921607,1782578064.120241,30.407344818115234,-8.067437171936035,-117.58911895751953,4.662463188171387,-1.2369320392608643,-0.5360618233680725,-6.332400186416643e-05,-0.96851920231797,-14.858130369276967
2026-06-27T13:35:27.030293,1782578064.225243,30.89699363708496,-8.19733715057373,-117.64484405517578,4.663926601409912,-1.237322211265564,-0.5249970555305481,-6.309139595193176e-05,-0.9661319708884478,-14.858133015549297
2026-06-27T13:35:27.138977,1782578064.3272452,31.37279510498047,-8.323563575744629,-117.6978530883789,4.665303707122803,-1.237688660621643,-0.5143844485282898,-6.276644375616655e-05,-0.9638893917567081,-14.85813598725112
2026-06-27T13:35:27.247609,1782578064.4352477,31.87673568725586,-8.457259178161621,-117.75281524658203,4.666716575622559,-1.2380646467208862,-0.5034101009368896,-6.225474219398747e-05,-0.9615835948873055,-14.858158980801907
2026-06-27T13:35:27.356573,1782578064.5372498,32.35282516479492,-8.583562850952148,-117.80364227294922,4.668005466461182,-1.238407850265503,-0.49321579933166504,-6.184587228215128e-05,-0.9594294978512427,-14.858194560185863
2026-06-27T13:35:27.465258,1782578064.645252,32.857051849365234,-8.717333793640137,-117.85633850097656,4.669323444366455,-1.23875892162323,-0.48257210850715637,-6.17186569249457e-05,-0.9572072896862331,-14.858197607441717
2026-06-27T13:35:27.573716,1782578064.7502544,33.347408294677734,-8.847423553466797,-117.90646362304688,4.67056131362915,-1.2390884160995483,-0.47236916422843933,-5.996843931391785e-05,-0.9551200026116343,-14.85819836402546
2026-06-27T13:35:27.683363,1782578064.8552566,33.837890625,-8.977547645568848,-117.95553588867188,4.671757698059082,-1.239406943321228,-0.46238070726394653,-5.779661933852075e-05,-0.9530560774457257,-14.858201787141828
2026-06-27T13:35:27.793611,1782578064.9602587,34.32849884033203,-9.107704162597656,-118.00357055664062,4.672913551330566,-1.2397143840789795,-0.45253536105155945,-5.4332164253074454e-05,-0.9510473579548236,-14.858202744373616
2026-06-27T13:35:27.901142,1782578065.0652611,34.81922149658203,-9.237892150878906,-118.05057525634766,4.674028396606445,-1.2400115728378296,-0.4428519606590271,-4.513037754081432e-05,-0.9490918204300463,-14.85820562084649
2026-06-27T13:35:28.009031,1782578065.1702633,35.31005859375,-9.368110656738281,-118.0965805053711,4.675103664398193,-1.2402979135513306,-0.43333157896995544,-3.8629498458347534e-05,-0.9471808395443535,-14.858243575437447
2026-06-27T13:35:28.118221,1782578065.2782657,35.81502914428711,-9.502079963684082,-118.14286041259766,4.676171779632568,-1.2405821084976196,-0.4237140715122223,-3.84935061895474e-05,-0.9452759941638856,-14.858244750786818
2026-06-27T13:35:28.227941,1782578065.389268,36.33415603637695,-9.639801025390625,-118.18934631347656,4.677229881286621,-1.24086332321167,-0.4140506982803345,-3.808421537841672e-05,-0.9433677770005581,-14.85824592938384
2026-06-27T13:35:28.336824,1782578065.4942703,36.825340270996094,-9.770111083984375,-118.23235321044922,4.67819356918335,-1.2411192655563354,-0.40502309799194336,-4.1120568425146815e-05,-0.941593586048396,-14.85824737014582
2026-06-27T13:35:28.445172,1782578065.5992725,37.316612243652344,-9.900445938110352,-118.2744140625,4.679121494293213,-1.2413665056228638,-0.39613863825798035,-3.703909730647403e-05,-0.9398958577333374,-14.85824903721603
2026-06-27T13:35:28.553756,1782578065.7042747,37.80796432495117,-10.030804634094238,-118.3155517578125,4.68001651763916,-1.2416045665740967,-0.3873690664768219,-4.147951008750017e-05,-0.9382547205725047,-14.858273508180652
2026-06-27T13:35:28.662946,1782578065.812277,38.313472747802734,-10.164910316467285,-118.3569107055664,4.680901527404785,-1.2418407201766968,-0.37855517864227295,-4.1491483863846044e-05,-0.9365887300464653,-14.858295365879725
2026-06-27T13:35:28.772170,1782578065.9172792,38.805030822753906,-10.295320510864258,-118.39622497558594,4.681733131408691,-1.242061972618103,-0.3702373802661896,-3.766941022104797e-05,-0.9350019016540161,-14.858297281661457
2026-06-27T13:35:28.882345,1782578066.0222814,39.29664611816406,-10.425752639770508,-118.43466186523438,4.68253231048584,-1.2422748804092407,-0.3620046079158783,-3.610635220371313e-05,-0.9334633737504525,-14.858299285448577
2026-06-27T13:35:28.990066,1782578066.1302838,39.80242919921875,-10.559928894042969,-118.47329711914062,4.683322906494141,-1.2424854040145874,-0.3536795675754547,-4.262032266666965e-05,-0.9319420447171657,-14.85830126466428
2026-06-27T13:35:29.098257,1782578066.235286,40.294227600097656,-10.69040584564209,-118.51001739501953,4.6840643882751465,-1.2426828145980835,-0.34576886892318726,-3.831291997017936e-05,-0.9304865772981923,-14.858303474210478
2026-06-27T13:35:29.207449,1782578066.3432884,40.800148010253906,-10.824629783630371,-118.54693603515625,4.6847968101501465,-1.2428778409957886,-0.3377630114555359,-3.93896053577827e-05,-0.9290368710571406,-14.858305656711856
2026-06-27T13:35:29.316041,1782578066.4452906,41.27805709838867,-10.951411247253418,-118.58100891113281,4.6854634284973145,-1.2430553436279297,-0.3303622901439667,-3.75828752107762e-05,-0.9277125577857253,-14.858305524017899
2026-06-27T13:35:29.425255,1782578066.5502927,41.770057678222656,-11.081949234008789,-118.61531066894531,4.686122894287109,-1.243231177330017,-0.3228802978992462,-3.6798059474161634e-05,-0.9263827805269906,-14.858357872221655
2026-06-27T13:35:29.534668,1782578066.6582952,42.27622604370117,-11.216222763061523,-118.6497802734375,4.686775207519531,-1.2434046268463135,-0.31532877683639526,-3.8107335075732785e-05,-0.9250568646560084,-14.858375217710918
2026-06-27T13:35:29.643696,1782578066.7632973,42.76836013793945,-11.346799850463867,-118.6825180053711,4.687384128570557,-1.243566870689392,-0.30813947319984436,-3.806737290662012e-05,-0.9238088809688515,-14.85837524024974
2026-06-27T13:35:29.751389,1782578066.8652995,43.24653244018555,-11.47364616394043,-118.71360778808594,4.687953472137451,-1.2437186241149902,-0.3012990355491638,-3.825496921692455e-05,-0.9226340690028518,-14.858378019020597
2026-06-27T13:35:29.860244,1782578066.9703016,43.738800048828125,-11.604255676269531,-118.744873046875,4.688515663146973,-1.2438684701919556,-0.29432687163352966,-3.7037454600729624e-05,-0.9214557877514136,-14.858378201497034
2026-06-27T13:35:29.968531,1782578067.075304,44.23113250732422,-11.73486614227295,-118.77542114257812,4.689056873321533,-1.2440129518508911,-0.2876068651676178,-3.780240010779267e-05,-0.9203305066858758,-14.858378480269472
2026-06-27T13:35:30.077256,1782578067.1803062,44.723533630371094,-11.865503311157227,-118.80528259277344,4.689577102661133,-1.2441514730453491,-0.2809768617153168,-3.45466463924084e-05,-0.9192319333526947,-14.858378849074375
2026-06-27T13:35:30.187494,1782578067.2853084,45.21593475341797,-11.996147155761719,-118.83442687988281,4.6900763511657715,-1.2442845106124878,-0.2744757831096649,-3.6685112339531956e-05,-0.9181684562288079,-14.858381852929133
2026-06-27T13:35:30.295749,1782578067.3933108,45.72254180908203,-12.130538940429688,-118.86372375488281,4.6905694007873535,-1.2444161176681519,-0.2679589092731476,-3.659601688787725e-05,-0.9171043089636153,-14.858382272274863
2026-06-27T13:35:30.403659,1782578067.498313,46.2150764465332,-12.261216163635254,-118.89151763916016,4.6910295486450195,-1.2445385456085205,-0.2616823613643646,-3.615137648462175e-05,-0.9161121236676772,-14.85838284449606
2026-06-27T13:35:30.512836,1782578067.603315,46.70764923095703,-12.39189338684082,-118.91868591308594,4.691470623016357,-1.2446560859680176,-0.25557640194892883,-3.5809642727631204e-05,-0.9151479371651486,-14.858383475420933
2026-06-27T13:35:30.622569,1782578067.7083175,47.2003173828125,-12.522598266601562,-118.9451904296875,4.691893577575684,-1.2447692155838013,-0.24960993230342865,-3.584539961440597e-05,-0.9142173822864158,-14.858384174202639
2026-06-27T13:35:30.731810,1782578067.8133197,47.69298553466797,-12.653308868408203,-118.9710922241211,4.692299842834473,-1.2448773384094238,-0.24373941123485565,-3.562183253622913e-05,-0.9133201994269102,-14.858404193925583
2026-06-27T13:35:30.841044,1782578067.9213219,48.19976043701172,-12.78775405883789,-118.99710845947266,4.69270133972168,-1.2449843883514404,-0.23787850141525269,-3.039443823177519e-05,-0.9124190855636233,-14.858425143500192
2026-06-27T13:35:30.948413,1782578068.0293243,48.706642150878906,-12.922229766845703,-119.02247619628906,4.693084239959717,-1.2450863122940063,-0.23208460211753845,-3.0022624448192805e-05,-0.9115603783193623,-14.85842599769923
2026-06-27T13:35:31.057186,1782578068.1343265,49.19944381713867,-13.052973747253418,-119.04655456542969,4.6934404373168945,-1.2451815605163574,-0.22660061717033386,-2.969754776532216e-05,-0.9107502208232962,-14.858426952105678
2026-06-27T13:35:31.166900,1782578068.242329,49.70632553100586,-13.187453269958496,-119.07073211669922,4.693792343139648,-1.245275616645813,-0.22109150886535645,-2.9225529628981563e-05,-0.9099477939943963,-14.858427924883065
2026-06-27T13:35:31.275767,1782578068.347331,50.199222564697266,-13.318216323852539,-119.09366607666016,4.69412088394165,-1.2453629970550537,-0.21584084630012512,-2.6222973086970455e-05,-0.9091981014979625,-14.858429026451594
2026-06-27T13:35:31.386956,1782578068.4553335,50.706241607666016,-13.452730178833008,-119.11669158935547,4.694444179534912,-1.245449423789978,-0.21056760847568512,-2.5977298391505266e-05,-0.9084477998321313,-14.858430106144144
2026-06-27T13:35:31.493573,1782578068.5573356,51.18509292602539,-13.579771041870117,-119.1379165649414,4.694736480712891,-1.2455271482467651,-0.2056829184293747,-2.57637273633653e-05,-0.9077685627166363,-14.858441830490746
2026-06-27T13:35:31.602275,1782578068.6623378,51.67802810668945,-13.710548400878906,-119.15925598144531,4.695023536682129,-1.245604157447815,-0.20076751708984375,-2.548242911111495e-05,-0.9070933437275652,-14.85844746125427
