time,sim_t,x,y,z,vx,vy,vz,roll_deg,pitch_deg,yaw_deg
2026-06-27T15:00:22.038457,1782583035.7422998,0.0,0.0,2.0396676063537598,0.0,0.0,0.0,0.0,0.0,0.0003895640909249624
2026-06-27T15:00:22.145674,1782583035.8473022,0.0,0.0,2.0396676063537598,0.0,0.0,0.0,0.0,0.0,0.0003895640909249624
2026-06-27T15:00:22.253889,1782583035.9523044,0.0,0.0,2.0396676063537598,0.0,0.0,0.0,0.0,0.0,0.0003895640909249624
2026-06-27T15:00:22.363129,1782583036.0573065,0.0,0.0,2.0396676063537598,0.0,0.0,0.0,0.0,0.0,0.0003895640909249624
2026-06-27T15:00:22.470858,1782583036.162309,0.0,0.0,2.0396676063537598,0.0,0.0,0.0,0.0,0.0,0.0003895640909249624
2026-06-27T15:00:22.580466,1782583036.270311,0.0,0.0,2.0396676063537598,0.0,0.0,0.0,0.0,0.0,0.0003895640909249624
2026-06-27T15:00:22.689635,1782583036.3783135,0.0,0.0,2.0396676063537598,0.0,0.0,0.0,0.0,0.0,0.0003895640909249624
2026-06-27T15:00:22.798331,1782583036.4833157,0.0,0.0,2.0396676063537598,0.0,0.0,0.0,0.0,0.0,0.0003895640909249624
2026-06-27T15:00:22.906832,1782583036.5883179,0.0,0.0,2.0396676063537598,0.0,0.0,0.0,0.0,0.0,0.0003895640909249624
2026-06-27T15:00:23.016579,1782583036.6933203,0.0,0.0,2.0396676063537598,0.0,0.0,0.0,0.0,0.0,0.0003895640909249624
2026-06-27T15:00:23.125809,1782583036.8013225,0.0,0.0,2.0396676063537598,0.0,0.0,0.0,0.0,0.0,0.0003895640909249624
2026-06-27T15:00:23.235015,1782583036.909325,0.0,0.0,2.0396676063537598,0.0,0.0,0.0,0.0,0.0,0.0003895640909249624
2026-06-27T15:00:23.343609,1782583037.017327,0.0,0.0,2.0396676063537598,0.0,0.0,0.0,0.0,0.0,0.0003895640909249624
2026-06-27T15:00:23.452333,1782583037.1253295,0.0,0.0,2.0396676063537598,0.0,0.0,0.0,0.0,0.0,0.0003895640909249624
2026-06-27T15:00:23.561019,1782583037.2333317,0.0,0.0,2.038957357406616,0.0,0.0,-0.09387190639972687,0.0,0.0,0.0003895640909249624
2026-06-27T15:00:23.669736,1782583037.341334,0.0,0.0,2.0067970752716064,0.0,0.0,-0.4013812243938446,0.0,0.0,0.0003895640909249624
2026-06-27T15:00:23.778739,1782583037.4493363,0.0,0.0,1.9606984853744507,0.0,0.0,-0.44079816341400146,0.0,0.0,0.0003895640909249624
2026-06-27T15:00:23.887421,1782583037.5573387,0.0,0.0,1.9125157594680786,0.0,0.0,-0.4501233994960785,0.0,0.0,0.0003895640909249624
2026-06-27T15:00:23.996273,1782583037.665341,0.0,0.0,1.8635897636413574,0.0,0.0,-0.4556610584259033,0.0,0.0,0.0003895640909249624
2026-06-27T15:00:24.105766,1782583037.770343,0.0,0.0,1.815502405166626,0.0,0.0,-0.46016737818717957,0.0,0.0,0.0003895640909249624
2026-06-27T15:00:24.214667,1782583037.8753455,0.0,0.0,1.7669706344604492,0.0,0.0,-0.46415358781814575,0.0,0.0,0.0003895640909249624
2026-06-27T15:00:24.322690,1782583037.9833477,0.0,0.0,1.7166402339935303,0.0,0.0,-0.46779942512512207,0.0,0.0,0.0003895640909249624
2026-06-27T15:00:24.430926,1782583038.08835,0.0,0.0,1.6673513650894165,0.0,0.0,-0.47095370292663574,0.0,0.0,0.0003895640909249624
2026-06-27T15:00:24.540670,1782583038.1963522,0.0,0.0,1.6163280010223389,0.0,0.0,-0.47384148836135864,0.0,0.0,0.0003895640909249624
2026-06-27T15:00:24.648882,1782583038.3013544,0.0,0.0,1.5664399862289429,0.0,0.0,-0.47634026408195496,0.0,0.0,0.0003895640909249624
2026-06-27T15:00:24.757616,1782583038.4093568,0.0,0.0,1.5148680210113525,0.0,0.0,-0.4786279797554016,0.0,0.0,0.0003895640909249624
2026-06-27T15:00:24.866751,1782583038.514359,0.0,0.0,1.4645050764083862,0.0,0.0,-0.4806077480316162,0.0,0.0,0.0003895640909249624
2026-06-27T15:00:24.975499,1782583038.6253614,0.0,0.0,1.4110512733459473,0.0,0.0,-0.48246750235557556,0.0,0.0,0.0003895640909249624
2026-06-27T15:00:25.085688,1782583038.7303636,0.0,0.0,1.3603073358535767,0.0,0.0,-0.4840308725833893,0.0,0.0,0.0003895640909249624
2026-06-27T15:00:25.193906,1782583038.838366,0.0,0.0,1.3079527616500854,0.0,0.0,-0.48546212911605835,0.0,0.0,0.0003895640909249624
2026-06-27T15:00:25.302621,1782583038.9433682,0.0,0.0,1.2569117546081543,0.0,0.0,-0.48670074343681335,0.0,0.0,0.0003895640909249624
2026-06-27T15:00:25.410791,1782583039.0483704,0.0,0.0,1.2057479619979858,0.0,0.0,-0.487805038690567,0.0,0.0,0.0003895640909249624
2026-06-27T15:00:25.520597,1782583039.1533728,0.0,0.0,1.1544746160507202,0.0,0.0,-0.48878955841064453,0.0,0.0,0.0003895640909249624
2026-06-27T15:00:25.630599,1782583039.264375,0.0,0.0,1.1001654863357544,0.0,0.0,-0.4897145926952362,0.0,0.0,0.0003895640909249624
2026-06-27T15:00:25.738310,1782583039.3693774,0.0,0.0,1.048702597618103,0.0,0.0,-0.4904920756816864,0.0,0.0,0.0003895640909249624
2026-06-27T15:00:25.846531,1782583039.4773796,0.0,0.0,0.9956893920898438,0.0,0.0,-0.49120402336120605,0.0,0.0,0.0003895640909249624
2026-06-27T15:00:25.956227,1782583039.5823817,0.0,0.0,0.9440789222717285,0.0,0.0,-0.4918200671672821,0.0,0.0,0.0003895640909249624
2026-06-27T15:00:26.065894,1782583039.6873841,0.0,0.0,0.8924073576927185,0.0,0.0,-0.49236926436424255,0.0,0.0,0.0003895640909249624
2026-06-27T15:00:26.173601,1782583039.7923863,0.0,0.0,0.8406811952590942,0.0,0.0,-0.49285897612571716,0.0,0.0,0.0003895640909249624
2026-06-27T15:00:26.282270,1782583039.9003887,0.0,0.0,0.7874265909194946,0.0,0.0,-0.4933074116706848,0.0,0.0,0.0003895640909249624
2026-06-27T15:00:26.391466,1782583040.008391,0.0,0.0,0.7341263294219971,0.0,0.0,-0.4937059283256531,0.0,0.0,0.0003895640909249624
2026-06-27T15:00:26.501161,1782583040.113393,0.0,0.0,0.682267963886261,0.0,0.0,-0.49405062198638916,0.0,0.0,0.0003895640909249624
2026-06-27T15:00:26.609896,1782583040.2183955,0.0,0.0,0.6303751468658447,0.0,0.0,-0.49435803294181824,0.0,0.0,0.0003895640909249624
2026-06-27T15:00:26.719619,1782583040.3233976,0.0,0.0,0.5784518122673035,0.0,0.0,-0.49463212490081787,0.0,0.0,0.0003895640909249624
2026-06-27T15:00:26.827787,1782583040.4313998,0.0,0.0,0.5251742005348206,0.0,0.0,-0.4591432511806488,0.0,0.0,0.0003895640909249624
2026-06-27T15:00:26.936637,1782583040.5364022,0.0,0.0,0.5018284916877747,0.0,0.0,-0.043803293257951736,0.0,0.0,0.0003895640909249624
2026-06-27T15:00:27.045849,1782583040.6444044,0.0,0.0,0.4996839463710785,0.0,0.0,-0.164031520485878,0.0,0.0,0.00038586327039940574
2026-06-27T15:00:27.154857,1782583040.7524068,0.0,0.0,0.4429689943790436,0.0,0.0,-0.8844879269599915,0.0,0.0,0.0003155381217108844
2026-06-27T15:00:27.264092,1782583040.860409,0.0,0.0,0.3092736601829529,0.0,0.0,-1.5871542692184448,0.0,0.0,0.00019412159785114138
2026-06-27T15:00:27.371373,1782583040.9654114,0.0,0.0,0.10800682008266449,0.0,0.0,-2.2405946254730225,0.0,0.0,7.030760057470645e-05
2026-06-27T15:00:27.481091,1782583041.0734136,0.0,0.0,-0.16846735775470734,0.0,0.0,-2.8714540004730225,0.0,0.0,-3.203795834187574e-05
2026-06-27T15:00:27.589871,1782583041.1784158,0.0,0.0,-0.5001106858253479,0.0,0.0,-3.4370994567871094,0.0,0.0,-9.224468231834151e-05
2026-06-27T15:00:27.699116,1782583041.2834182,0.0,0.0,-0.8884633183479309,0.0,0.0,-3.951066017150879,0.0,0.0,-0.00011250230417154232
2026-06-27T15:00:27.807987,1782583041.3944204,0.0,0.0,-1.354516625404358,0.0,0.0,-4.436062812805176,0.0,0.0,-9.993066440517285e-05
2026-06-27T15:00:27.917179,1782583041.5024228,0.0,0.0,-1.8565179109573364,0.0,0.0,-4.850804805755615,0.0,0.0,-6.778162989823473e-05
2026-06-27T15:00:28.025975,1782583041.607425,0.0,0.0,-2.3836793899536133,0.0,0.0,-5.142233371734619,0.0,0.0,-3.125495035795371e-05
2026-06-27T15:00:28.134987,1782583041.7184274,0.0,0.0,-2.957096815109253,0.0,0.0,-5.170637607574463,0.0,0.0,2.0121003136936666e-06
2026-06-27T15:00:28.243233,1782583041.8204296,0.0,0.0,-3.4838509559631348,0.0,0.0,-5.15654182434082,0.0,0.0,2.2112041766641348e-05
2026-06-27T15:00:28.351565,1782583041.9224317,0.0,0.0,-4.009010314941406,0.0,0.0,-5.140606880187988,0.0,0.0,3.1117317528222906e-05
2026-06-27T15:00:28.461210,1782583042.0304341,0.0,0.0,-4.5633544921875,0.0,0.0,-5.125088691711426,0.0,0.0,3.036203868868027e-05
2026-06-27T15:00:28.568960,1782583042.1354363,0.0,0.0,-5.10077428817749,0.0,0.0,-5.111506462097168,0.0,0.0,2.2913405571296476e-05
2026-06-27T15:00:28.677793,1782583042.2404385,0.0,0.0,-5.6368408203125,0.0,0.0,-5.099287509918213,0.0,0.0,1.272071404360103e-05
2026-06-27T15:00:28.787221,1782583042.348441,0.0,0.0,-6.186953544616699,0.0,0.0,-5.08799934387207,0.0,0.0,2.7438169934894173e-06
2026-06-27T15:00:28.895916,1782583042.456443,0.0,0.0,-6.735913276672363,0.0,0.0,-5.077877521514893,0.0,0.0,-4.6805970905495405e-06
2026-06-27T15:00:29.005101,1782583042.5614455,0.0,0.0,-7.268630027770996,0.0,0.0,-5.069040298461914,0.0,0.0,-9.369286733541752e-06
2026-06-27T15:00:29.113761,1782583042.6694477,0.0,0.0,-7.81564998626709,0.0,0.0,-5.060878753662109,0.0,0.0,-1.2474985101355399e-05
2026-06-27T15:00:29.221466,1782583042.7744498,0.0,0.0,-8.346673011779785,0.0,0.0,-5.053753852844238,0.0,0.0,-1.4050164323569857e-05
2026-06-27T15:00:29.331186,1782583042.8824522,0.0,0.0,-8.892128944396973,0.0,0.0,-5.047173023223877,0.0,0.0,-1.152269629284476e-05
2026-06-27T15:00:29.439759,1782583042.9874544,0.0,0.0,-9.42179012298584,0.0,0.0,-5.041427135467529,0.0,0.0,-9.590157478174557e-06
2026-06-27T15:00:29.549475,1782583043.0954568,0.0,0.0,-9.965984344482422,0.0,0.0,-5.0361223220825195,0.0,0.0,-8.256859999263054e-06
2026-06-27T15:00:29.657930,1782583043.203459,0.0,0.0,-10.509635925292969,0.0,0.0,-5.031366348266602,0.0,0.0,-7.50019291121315e-06
2026-06-27T15:00:29.767284,1782583043.3114614,0.0,0.0,-11.052800178527832,0.0,0.0,-5.027102947235107,0.0,0.0,-6.860839742922594e-06
2026-06-27T15:00:29.875987,1782583043.4164636,0.0,0.0,-11.580460548400879,0.0,0.0,-5.023379802703857,0.0,0.0,-6.239260226636307e-06
2026-06-27T15:00:29.984688,1782583043.527466,0.0,0.0,-12.13786792755127,0.0,0.0,-5.019853115081787,0.0,0.0,-5.582162311222432e-06
2026-06-27T15:00:30.093907,1782583043.6324682,0.0,0.0,-12.664803504943848,0.0,0.0,-5.016861915588379,0.0,0.0,-4.960583202047146e-06
2026-06-27T15:00:30.201511,1782583043.7404704,0.0,0.0,-13.206483840942383,0.0,0.0,-5.014098644256592,0.0,0.0,-4.321244689752567e-06
2026-06-27T15:00:30.310576,1782583043.8484728,0.0,0.0,-13.747882843017578,0.0,0.0,-5.011622905731201,0.0,0.0,-3.681906177457988e-06
2026-06-27T15:00:30.419837,1782583043.956475,0.0,0.0,-14.289027214050293,0.0,0.0,-5.009403228759766,0.0,0.0,-3.0425633904979167e-06
2026-06-27T15:00:30.529011,1782583044.0644774,0.0,0.0,-14.829944610595703,0.0,0.0,-5.007412910461426,0.0,0.0,-2.403217550205352e-06
2026-06-27T15:00:30.637201,1782583044.1694796,0.0,0.0,-15.35564136505127,0.0,0.0,-5.00567626953125,0.0,0.0,-1.7816313165875814e-06
2026-06-27T15:00:30.746812,1782583044.274482,0.0,0.0,-15.88116455078125,0.0,0.0,-5.004114627838135,0.0,0.0,-1.160048238080055e-06
2026-06-27T15:00:30.856004,1782583044.3794842,0.0,0.0,-16.406530380249023,0.0,0.0,-5.002710342407227,0.0,0.0,-5.384646506837795e-07
2026-06-27T15:00:30.964739,1782583044.4874864,0.0,0.0,-16.94676399230957,0.0,0.0,-5.001413345336914,0.0,0.0,1.0087867060947644e-07
2026-06-27T15:00:31.074133,1782583044.5954888,0.0,0.0,-17.486862182617188,0.0,0.0,-5.000250816345215,0.0,0.0,5.978791932441397e-07
2026-06-27T15:00:31.182333,1782583044.700491,0.0,0.0,-18.0118465423584,0.0,0.0,-4.999236106872559,0.0,0.0,8.091175389685983e-07
2026-06-27T15:00:31.291534,1782583044.8084934,0.0,0.0,-18.55172348022461,0.0,0.0,-4.998298645019531,0.0,0.0,9.334432332453862e-07
2026-06-27T15:00:31.400224,1782583044.9164956,0.0,0.0,-19.091510772705078,0.0,0.0,-4.997458457946777,0.0,0.0,9.840413291176043e-07
2026-06-27T15:00:31.508907,1782583045.024498,0.0,0.0,-19.631202697753906,0.0,0.0,-4.996705532073975,0.0,0.0,9.937399344521971e-07
2026-06-27T15:00:31.618146,1782583045.1295002,0.0,0.0,-20.155832290649414,0.0,0.0,-4.9960479736328125,0.0,0.0,1.003169134083051e-06
2026-06-27T15:00:31.726817,1782583045.2375026,0.0,0.0,-20.695384979248047,0.0,0.0,-4.99544095993042,0.0,0.0,1.0128677394176438e-06
2026-06-27T15:00:31.835518,1782583045.3455048,0.0,0.0,-21.234878540039062,0.0,0.0,-4.99489688873291,0.0,0.0,1.0225663447522365e-06
2026-06-27T15:00:31.944680,1782583045.4535072,0.0,0.0,-21.774307250976562,0.0,0.0,-4.994409084320068,0.0,0.0,1.032264950086829e-06
2026-06-27T15:00:32.053355,1782583045.5615094,0.0,0.0,-22.31368637084961,0.0,0.0,-4.993971824645996,0.0,0.0,1.0419635554214217e-06
2026-06-27T15:00:32.161402,1782583045.6695118,0.0,0.0,-22.8530330657959,0.0,0.0,-4.993578910827637,0.0,0.0,1.0516621607560146e-06
2026-06-27T15:00:32.271092,1782583045.777514,0.0,0.0,-23.392324447631836,0.0,0.0,-4.993227481842041,0.0,0.0,1.0613607660906074e-06
2026-06-27T15:00:32.379515,1782583045.8855164,0.0,0.0,-23.93159294128418,0.0,0.0,-4.9929118156433105,0.0,0.0,1.0710593714252e-06
2026-06-27T15:00:32.488723,1782583045.9935186,0.0,0.0,-24.470815658569336,0.0,0.0,-4.992629051208496,0.0,0.0,1.0777980762399103e-06
2026-06-27T15:00:32.597115,1782583046.101521,0.0,0.0,-25.010038375854492,0.0,0.0,-4.992376327514648,0.0,0.0,1.048749892223042e-06
2026-06-27T15:00:32.705890,1782583046.2095232,0.0,0.0,-25.549192428588867,0.0,0.0,-4.992147922515869,0.0,0.0,1.0197017082061733e-06
2026-06-27T15:00:32.816129,1782583046.3145254,0.0,0.0,-26.0733699798584,0.0,0.0,-4.991950511932373,0.0,0.0,9.914604181897734e-07
2026-06-27T15:00:32.923841,1782583046.4195278,0.0,0.0,-26.59754753112793,0.0,0.0,-4.991772174835205,0.0,0.0,9.632191281733735e-07
2026-06-27T15:00:33.031513,1782583046.52453,0.0,0.0,-27.12166976928711,0.0,0.0,-4.991611957550049,0.0,0.0,9.349778381569736e-07
2026-06-27T15:00:33.141234,1782583046.6325321,0.0,0.0,-27.660755157470703,0.0,0.0,-4.9914631843566895,0.0,0.0,9.059296541401053e-07
2026-06-27T15:00:33.249944,1782583046.7375345,0.0,0.0,-28.184865951538086,0.0,0.0,-4.991332530975342,0.0,0.0,8.776883641237054e-07
2026-06-27T15:00:33.359939,1782583046.8455367,0.0,0.0,-28.72395133972168,0.0,0.0,-4.991212368011475,0.0,0.0,8.486401801068369e-07
2026-06-27T15:00:33.468635,1782583046.950539,0.0,0.0,-29.248062133789062,0.0,0.0,-4.991109848022461,0.0,0.0,8.20398890090437e-07
2026-06-27T15:00:33.576486,1782583047.0585413,0.0,0.0,-29.787080764770508,0.0,0.0,-4.9910125732421875,0.0,0.0,7.913507060735685e-07
2026-06-27T15:00:33.686251,1782583047.1635435,0.0,0.0,-30.311124801635742,0.0,0.0,-4.990929126739502,0.0,0.0,7.631094160571686e-07
2026-06-27T15:00:33.794636,1782583047.271546,0.0,0.0,-30.850141525268555,0.0,0.0,-4.99084997177124,0.0,0.0,7.340612320403001e-07
2026-06-27T15:00:33.903317,1782583047.379548,0.0,0.0,-31.389158248901367,0.0,0.0,-4.990781307220459,0.0,0.0,7.050130480234317e-07
2026-06-27T15:00:34.011429,1782583047.4845505,0.0,0.0,-31.9132022857666,0.0,0.0,-4.990715026855469,0.0,0.0,6.767717580070318e-07
2026-06-27T15:00:34.121636,1782583047.5955527,0.0,0.0,-32.46718978881836,0.0,0.0,-4.990660190582275,0.0,0.0,6.469166799896947e-07
2026-06-27T15:00:34.229939,1782583047.700555,0.0,0.0,-32.991233825683594,0.0,0.0,-4.990610122680664,0.0,0.0,6.186753899732948e-07
2026-06-27T15:00:34.338142,1782583047.8085573,0.0,0.0,-33.530250549316406,0.0,0.0,-4.990562915802002,0.0,0.0,5.896272059564265e-07
2026-06-27T15:00:34.446780,1782583047.9165597,0.0,0.0,-34.06926727294922,0.0,0.0,-4.990523338317871,0.0,0.0,5.60579021939558e-07
2026-06-27T15:00:34.556296,1782583048.024562,0.0,0.0,-34.60828399658203,0.0,0.0,-4.990488529205322,0.0,0.0,5.315308379226895e-07
2026-06-27T15:00:34.664930,1782583048.1325643,0.0,0.0,-35.147300720214844,0.0,0.0,-4.990454196929932,0.0,0.0,5.024826539058211e-07
2026-06-27T15:00:34.773601,1782583048.2375665,0.0,0.0,-35.67134475708008,0.0,0.0,-4.990420818328857,0.0,0.0,4.7424136388942113e-07
2026-06-27T15:00:34.882872,1782583048.3455687,0.0,0.0,-36.21036148071289,0.0,0.0,-4.990396022796631,0.0,0.0,4.451931798725527e-07
2026-06-27T15:00:34.991026,1782583048.450571,0.0,0.0,-36.734405517578125,0.0,0.0,-4.9903740882873535,0.0,0.0,4.1695155907846593e-07
2026-06-27T15:00:35.100360,1782583048.5585732,0.0,0.0,-37.27342224121094,0.0,0.0,-4.990352630615234,0.0,0.0,3.879024590618492e-07
2026-06-27T15:00:35.209126,1782583048.6695757,0.0,0.0,-37.82741165161133,0.0,0.0,-4.990333557128906,0.0,0.0,3.5804643960032646e-07
2026-06-27T15:00:35.317807,1782583048.7775779,0.0,0.0,-38.36642837524414,0.0,0.0,-4.990316390991211,0.0,0.0,3.289973395837097e-07
2026-06-27T15:00:35.426543,1782583048.8855803,0.0,0.0,-38.90544509887695,0.0,0.0,-4.990299224853516,0.0,0.0,2.99948239567093e-07
2026-06-27T15:00:35.535758,1782583048.9935825,0.0,0.0,-39.444461822509766,0.0,0.0,-4.99028205871582,0.0,0.0,2.708991395504763e-07
2026-06-27T15:00:35.644508,1782583049.101585,0.0,0.0,-39.98347854614258,0.0,0.0,-4.990266799926758,0.0,0.0,2.4185003953385956e-07
2026-06-27T15:00:35.753231,1782583049.206587,0.0,0.0,-40.50752258300781,0.0,0.0,-4.990255355834961,0.0,0.0,2.1360785896214886e-07
2026-06-27T15:00:35.862429,1782583049.3145895,0.0,0.0,-41.046539306640625,0.0,0.0,-4.9902448654174805,0.0,0.0,1.8455875894553213e-07
2026-06-27T15:00:35.971214,1782583049.4225917,0.0,0.0,-41.58555603027344,0.0,0.0,-4.990236759185791,0.0,0.0,1.555096589289154e-07
2026-06-27T15:00:36.079543,1782583049.530594,0.0,0.0,-42.12457275390625,0.0,0.0,-4.990227699279785,0.0,0.0,1.2646055891229868e-07
2026-06-27T15:00:36.188369,1782583049.6385963,0.0,0.0,-42.66358947753906,0.0,0.0,-4.9902191162109375,0.0,0.0,9.741153522899432e-08
2026-06-27T15:00:36.296450,1782583049.7465987,0.0,0.0,-43.202606201171875,0.0,0.0,-4.9902119636535645,0.0,0.0,6.836266421231467e-08
2026-06-27T15:00:36.406136,1782583049.854601,0.0,0.0,-43.74162292480469,0.0,0.0,-4.990205764770508,0.0,0.0,3.9313735945650745e-08
2026-06-27T15:00:36.515010,1782583049.9626033,0.0,0.0,-44.2806396484375,0.0,0.0,-4.990200519561768,0.0,0.0,1.0264750429002555e-08
2026-06-27T15:00:36.623600,1782583050.0706055,0.0,0.0,-44.81965637207031,0.0,0.0,-4.990195274353027,0.0,0.0,-1.878423031681361e-08
2026-06-27T15:00:36.732834,1782583050.178608,0.0,0.0,-45.358673095703125,0.0,0.0,-4.9901909828186035,0.0,0.0,-4.783321424318446e-08
2026-06-27T15:00:36.841030,1782583050.28361,0.0,0.0,-45.88271713256836,0.0,0.0,-4.99018669128418,0.0,0.0,-7.607519125939554e-08
2026-06-27T15:00:36.950734,1782583050.3916125,0.0,0.0,-46.42173385620117,0.0,0.0,-4.9901814460754395,0.0,0.0,-1.051240622760752e-07
2026-06-27T15:00:37.059435,1782583050.4996147,0.0,0.0,-46.960750579833984,0.0,0.0,-4.99017858505249,0.0,0.0,-1.341731495704732e-07
2026-06-27T15:00:37.168253,1782583050.6076171,0.0,0.0,-47.4997673034668,0.0,0.0,-4.990174293518066,0.0,0.0,-1.6322224958708993e-07
2026-06-27T15:00:37.277070,1782583050.7126193,0.0,0.0,-48.02381134033203,0.0,0.0,-4.990170478820801,0.0,0.0,-1.9146443015880062e-07
2026-06-27T15:00:37.385768,1782583050.8206215,0.0,0.0,-48.562828063964844,0.0,0.0,-4.990166664123535,0.0,0.0,-2.2051353017541735e-07
2026-06-27T15:00:37.494502,1782583050.928624,0.0,0.0,-49.101844787597656,0.0,0.0,-4.990164756774902,0.0,0.0,-2.4956263019203405e-07
2026-06-27T15:00:37.604164,1782583051.036626,0.0,0.0,-49.64086151123047,0.0,0.0,-4.990160942077637,0.0,0.0,-2.786117302086508e-07
2026-06-27T15:00:37.712669,1782583051.1416285,0.0,0.0,-50.1649055480957,0.0,0.0,-4.990159034729004,0.0,0.0,-3.068539107803615e-07
2026-06-27T15:00:37.820549,1782583051.2496307,0.0,0.0,-50.703922271728516,0.0,0.0,-4.990156650543213,0.0,0.0,-3.359030107969782e-07
2026-06-27T15:00:37.930948,1782583051.357633,0.0,0.0,-51.24293899536133,0.0,0.0,-4.9901556968688965,0.0,0.0,-3.649521108135949e-07
2026-06-27T15:00:38.039109,1782583051.4656353,0.0,0.0,-51.78195571899414,0.0,0.0,-4.990153789520264,0.0,0.0,-3.9400121083021167e-07
2026-06-27T15:00:38.147909,1782583051.5706375,0.0,0.0,-52.30590057373047,0.0,0.0,-4.9901509284973145,0.0,0.0,-4.2224339140192234e-07
2026-06-27T15:00:38.256587,1782583051.67864,0.0,0.0,-52.84477996826172,0.0,0.0,-4.990149021148682,0.0,0.0,-4.512917026409781e-07
2026-06-27T15:00:38.366778,1782583051.786642,0.0,0.0,-53.38365936279297,0.0,0.0,-4.990147113800049,0.0,0.0,-4.803398866578466e-07
2026-06-27T15:00:38.474429,1782583051.8946445,0.0,0.0,-53.92253875732422,0.0,0.0,-4.990145206451416,0.0,0.0,-5.09388070674715e-07
2026-06-27T15:00:38.583584,1782583052.0026467,0.0,0.0,-54.46141815185547,0.0,0.0,-4.990143299102783,0.0,0.0,-5.384362546915835e-07
2026-06-27T15:00:38.693649,1782583052.107649,0.0,0.0,-54.985328674316406,0.0,0.0,-4.99014139175415,0.0,0.0,-5.666775447079834e-07
2026-06-27T15:00:38.800430,1782583052.2156513,0.0,0.0,-55.524208068847656,0.0,0.0,-4.990139484405518,0.0,0.0,-5.957257287248518e-07
2026-06-27T15:00:38.909166,1782583052.3206537,0.0,0.0,-56.048118591308594,0.0,0.0,-4.990139007568359,0.0,0.0,-6.239670187412517e-07
2026-06-27T15:00:39.017862,1782583052.4256558,0.0,0.0,-56.57202911376953,0.0,0.0,-4.990138053894043,0.0,0.0,-6.522083087576516e-07
2026-06-27T15:00:39.126581,1782583052.533658,0.0,0.0,-57.11090850830078,0.0,0.0,-4.990137577056885,0.0,0.0,-6.8125649277452e-07
2026-06-27T15:00:39.235955,1782583052.6386604,0.0,0.0,-57.63481903076172,0.0,0.0,-4.990135192871094,0.0,0.0,-7.094977827909199e-07
2026-06-27T15:00:39.344640,1782583052.7466626,0.0,0.0,-58.17369842529297,0.0,0.0,-4.990133762359619,0.0,0.0,-7.385459668077884e-07
2026-06-27T15:00:39.453425,1782583052.854665,0.0,0.0,-58.71257781982422,0.0,0.0,-4.990131855010986,0.0,0.0,-7.675941508246569e-07
2026-06-27T15:00:39.562664,1782583052.9626672,0.0,0.0,-59.25145721435547,0.0,0.0,-4.990130424499512,0.0,0.0,-7.966423348415253e-07
2026-06-27T15:00:39.670805,1782583053.0676694,0.0,0.0,-59.775367736816406,0.0,0.0,-4.990129470825195,0.0,0.0,-8.248836248579252e-07
2026-06-27T15:00:39.780043,1782583053.1756718,0.0,0.0,-60.314247131347656,0.0,0.0,-4.990128517150879,0.0,0.0,-8.539318088747937e-07
2026-06-27T15:00:39.888729,1782583053.283674,0.0,0.0,-60.853126525878906,0.0,0.0,-4.990128040313721,0.0,0.0,-8.829799928916622e-07
2026-06-27T15:00:39.997402,1782583053.3916764,0.0,0.0,-61.392005920410156,0.0,0.0,-4.990127086639404,0.0,0.0,-9.120281769085307e-07
2026-06-27T15:00:40.107657,1782583053.4996786,0.0,0.0,-61.930885314941406,0.0,0.0,-4.990126132965088,0.0,0.0,-9.41076360925399e-07
2026-06-27T15:00:40.215347,1782583053.607681,0.0,0.0,-62.469764709472656,0.0,0.0,-4.990124702453613,0.0,0.0,-9.701245449422675e-07
2026-06-27T15:00:40.324947,1782583053.7156832,0.0,0.0,-63.008644104003906,0.0,0.0,-4.990124225616455,0.0,0.0,-9.99172728959136e-07
2026-06-27T15:00:40.433644,1782583053.8236856,0.0,0.0,-63.547523498535156,0.0,0.0,-4.990121364593506,0.0,0.0,-1.0282209129760045e-06
2026-06-27T15:00:40.542459,1782583053.9316878,0.0,0.0,-64.0864028930664,0.0,0.0,-4.990119934082031,0.0,0.0,-1.0572690969928731e-06
2026-06-27T15:00:40.651675,1782583054.0396903,0.0,0.0,-64.62528228759766,0.0,0.0,-4.990119457244873,0.0,0.0,-1.0863172810097415e-06
2026-06-27T15:00:40.759881,1782583054.1446924,0.0,0.0,-65.1491928100586,0.0,0.0,-4.990118026733398,0.0,0.0,-1.1145585710261414e-06
2026-06-27T15:00:40.869119,1782583054.2526948,0.0,0.0,-65.68807220458984,0.0,0.0,-4.990117073059082,0.0,0.0,-1.1436067550430098e-06
2026-06-27T15:00:40.978348,1782583054.360697,0.0,0.0,-66.2269515991211,0.0,0.0,-4.990116119384766,0.0,0.0,-1.1726549390598784e-06
2026-06-27T15:00:41.086559,1782583054.4686995,0.0,0.0,-66.76583099365234,0.0,0.0,-4.990115165710449,0.0,0.0,-1.2017031230767466e-06
2026-06-27T15:00:41.196285,1782583054.5767016,0.0,0.0,-67.3047103881836,0.0,0.0,-4.990114212036133,0.0,0.0,-1.2307513070936151e-06
2026-06-27T15:00:41.305464,1782583054.684704,0.0,0.0,-67.84358978271484,0.0,0.0,-4.990113735198975,0.0,0.0,-1.2597994911104835e-06
2026-06-27T15:00:41.414640,1782583054.7897062,0.0,0.0,-68.36750030517578,0.0,0.0,-4.990112781524658,0.0,0.0,-1.2880407811268834e-06
2026-06-27T15:00:41.522337,1782583054.8977087,0.0,0.0,-68.90637969970703,0.0,0.0,-4.990109443664551,0.0,0.0,-1.317088965143752e-06
2026-06-27T15:00:41.631034,1782583055.0057108,0.0,0.0,-69.44525909423828,0.0,0.0,-4.990109443664551,0.0,0.0,-1.3461371491606204e-06
2026-06-27T15:00:41.740254,1782583055.110713,0.0,0.0,-69.96916961669922,0.0,0.0,-4.990108489990234,0.0,0.0,-1.3743784391770205e-06
2026-06-27T15:00:41.849453,1782583055.2187154,0.0,0.0,-70.50804901123047,0.0,0.0,-4.990108013153076,0.0,0.0,-1.403426623193889e-06
2026-06-27T15:00:41.957873,1782583055.3267176,0.0,0.0,-71.04692840576172,0.0,0.0,-4.99010705947876,0.0,0.0,-1.4324748072107575e-06
2026-06-27T15:00:42.066566,1782583055.43172,0.0,0.0,-71.57083892822266,0.0,0.0,-4.990106105804443,0.0,0.0,-1.4607160972271574e-06
2026-06-27T15:00:42.176260,1782583055.5397222,0.0,0.0,-72.1097183227539,0.0,0.0,-4.990105152130127,0.0,0.0,-1.4897642812440258e-06
2026-06-27T15:00:42.286437,1782583055.6477246,0.0,0.0,-72.64859771728516,0.0,0.0,-4.990103721618652,0.0,0.0,-1.5188124652608944e-06
2026-06-27T15:00:42.395144,1782583055.7557268,0.0,0.0,-73.1874771118164,0.0,0.0,-4.990102767944336,0.0,0.0,-1.5478606492777628e-06
2026-06-27T15:00:42.503763,1782583055.860729,0.0,0.0,-73.71138763427734,0.0,0.0,-4.9901018142700195,0.0,0.0,-1.5761019392941627e-06
2026-06-27T15:00:42.611272,1782583055.9687314,0.0,0.0,-74.2502670288086,0.0,0.0,-4.990099906921387,0.0,0.0,-1.605150123311031e-06
2026-06-27T15:00:42.720970,1782583056.0797338,0.0,0.0,-74.80411529541016,0.0,0.0,-4.9900994300842285,0.0,0.0,-1.6350052013283681e-06
2026-06-27T15:00:42.831394,1782583056.187736,0.0,0.0,-75.3429946899414,0.0,0.0,-4.990098476409912,0.0,0.0,-1.6640533853452365e-06
2026-06-27T15:00:42.939023,1782583056.2957385,0.0,0.0,-75.88187408447266,0.0,0.0,-4.990097522735596,0.0,0.0,-1.6931015693621051e-06
2026-06-27T15:00:43.048217,1782583056.4007406,0.0,0.0,-76.4057846069336,0.0,0.0,-4.9900970458984375,0.0,0.0,-1.721342859378505e-06
2026-06-27T15:00:43.156357,1782583056.5087428,0.0,0.0,-76.94466400146484,0.0,0.0,-4.990096092224121,0.0,0.0,-1.7503910433953734e-06
2026-06-27T15:00:43.264525,1782583056.6167452,0.0,0.0,-77.4835433959961,0.0,0.0,-4.990095138549805,0.0,0.0,-1.7794392274122418e-06
2026-06-27T15:00:43.374811,1782583056.7247474,0.0,0.0,-78.02242279052734,0.0,0.0,-4.990094184875488,0.0,0.0,-1.8084874114291104e-06
2026-06-27T15:00:43.484008,1782583056.8327498,0.0,0.0,-78.5613021850586,0.0,0.0,-4.990092754364014,0.0,0.0,-1.8375355954459788e-06
2026-06-27T15:00:43.592679,1782583056.940752,0.0,0.0,-79.10018157958984,0.0,0.0,-4.990091800689697,0.0,0.0,-1.8665837794628472e-06
2026-06-27T15:00:43.701401,1782583057.0457544,0.0,0.0,-79.62409210205078,0.0,0.0,-4.990090370178223,0.0,0.0,-1.894825069479247e-06
2026-06-27T15:00:43.810159,1782583057.1537566,0.0,0.0,-80.16297149658203,0.0,0.0,-4.990088939666748,0.0,0.0,-1.9238732534961154e-06
2026-06-27T15:00:43.918837,1782583057.261759,0.0,0.0,-80.70185089111328,0.0,0.0,-4.990087985992432,0.0,0.0,-1.952921437512984e-06
2026-06-27T15:00:44.027546,1782583057.3697612,0.0,0.0,-81.24073028564453,0.0,0.0,-4.990087032318115,0.0,0.0,-1.9819696215298526e-06
2026-06-27T15:00:44.136772,1782583057.4777637,0.0,0.0,-81.77960968017578,0.0,0.0,-4.990086078643799,0.0,0.0,-2.011017805546721e-06
2026-06-27T15:00:44.245970,1782583057.5857658,0.0,0.0,-82.31848907470703,0.0,0.0,-4.990085601806641,0.0,0.0,-2.0400659895635894e-06
2026-06-27T15:00:44.355217,1782583057.6937683,0.0,0.0,-82.85736846923828,0.0,0.0,-4.990084648132324,0.0,0.0,-2.069114173580458e-06
2026-06-27T15:00:44.463615,1782583057.8017704,0.0,0.0,-83.39624786376953,0.0,0.0,-4.990082740783691,0.0,0.0,-2.098162357597326e-06
2026-06-27T15:00:44.573309,1782583057.9097729,0.0,0.0,-83.93512725830078,0.0,0.0,-4.990082263946533,0.0,0.0,-2.1272105416141948e-06
2026-06-27T15:00:44.681381,1782583058.017775,0.0,0.0,-84.47400665283203,0.0,0.0,-4.990081310272217,0.0,0.0,-2.1562587256310634e-06
2026-06-27T15:00:44.790081,1782583058.1257775,0.0,0.0,-85.01288604736328,0.0,0.0,-4.990079879760742,0.0,0.0,-2.1853069096479324e-06
2026-06-27T15:00:44.898769,1782583058.2337797,0.0,0.0,-85.55176544189453,0.0,0.0,-4.990078926086426,0.0,0.0,-2.2143550936648006e-06
2026-06-27T15:00:45.007455,1782583058.341782,0.0,0.0,-86.09064483642578,0.0,0.0,-4.990077972412109,0.0,0.0,-2.243403277681669e-06
2026-06-27T15:00:45.117132,1782583058.4497843,0.0,0.0,-86.62952423095703,0.0,0.0,-4.990076541900635,0.0,0.0,-2.2724514616985378e-06
2026-06-27T15:00:45.225700,1782583058.5577867,0.0,0.0,-87.16840362548828,0.0,0.0,-4.990076065063477,0.0,0.0,-2.3014996457154055e-06
2026-06-27T15:00:45.334413,1782583058.665789,0.0,0.0,-87.70728302001953,0.0,0.0,-4.99007511138916,0.0,0.0,-2.330547829732274e-06
2026-06-27T15:00:45.444088,1782583058.7737913,0.0,0.0,-88.24616241455078,0.0,0.0,-4.990074157714844,0.0,0.0,-2.359596013749143e-06
2026-06-27T15:00:45.552850,1782583058.8817935,0.0,0.0,-88.78504180908203,0.0,0.0,-4.990072727203369,0.0,0.0,-2.3886441977660117e-06
2026-06-27T15:00:45.661537,1782583058.989796,0.0,0.0,-89.32392120361328,0.0,0.0,-4.990071773529053,0.0,0.0,-2.41769238178288e-06
2026-06-27T15:00:45.770275,1782583059.094798,0.0,0.0,-89.84783172607422,0.0,0.0,-4.990070819854736,0.0,0.0,-2.4459336717992798e-06
2026-06-27T15:00:45.879878,1782583059.2028003,0.0,0.0,-90.38671112060547,0.0,0.0,-4.99006986618042,0.0,0.0,-2.474981855816148e-06
2026-06-27T15:00:45.988076,1782583059.3078027,0.0,0.0,-90.9106216430664,0.0,0.0,-4.9900689125061035,0.0,0.0,-2.503223145832548e-06
2026-06-27T15:00:46.096897,1782583059.4128048,0.0,0.0,-91.43453216552734,0.0,0.0,-4.990067958831787,0.0,0.0,-2.5314644358489478e-06
2026-06-27T15:00:46.205583,1782583059.5208073,0.0,0.0,-91.9734115600586,0.0,0.0,-4.990067005157471,0.0,0.0,-2.5605126198658163e-06
2026-06-27T15:00:46.315768,1782583059.6288095,0.0,0.0,-92.51229095458984,0.0,0.0,-4.990065097808838,0.0,0.0,-2.589560803882685e-06
2026-06-27T15:00:46.423447,1782583059.7368119,0.0,0.0,-93.0511703491211,0.0,0.0,-4.990065097808838,0.0,0.0,-2.618608987899553e-06
2026-06-27T15:00:46.531624,1782583059.841814,0.0,0.0,-93.57508087158203,0.0,0.0,-4.990063667297363,0.0,0.0,-2.646850277915954e-06
2026-06-27T15:00:46.641626,1782583059.9498162,0.0,0.0,-94.11396026611328,0.0,0.0,-4.990062713623047,0.0,0.0,-2.675898461932822e-06
2026-06-27T15:00:46.750446,1782583060.0578187,0.0,0.0,-94.65283966064453,0.0,0.0,-4.990062236785889,0.0,0.0,-2.7049466459496906e-06
2026-06-27T15:00:46.859197,1782583060.1658208,0.0,0.0,-95.19171905517578,0.0,0.0,-4.9900593757629395,0.0,0.0,-2.7339948299665592e-06
2026-06-27T15:00:46.968396,1782583060.2708232,0.0,0.0,-95.71562957763672,0.0,0.0,-4.9900593757629395,0.0,0.0,-2.7622361199829583e-06
2026-06-27T15:00:47.077106,1782583060.3728254,0.0,0.0,-96.22457122802734,0.0,0.0,-4.990058898925781,0.0,0.0,-2.7896705159988903e-06
2026-06-27T15:00:47.186323,1782583060.4778275,0.0,0.0,-96.74848175048828,0.0,0.0,-4.990057468414307,0.0,0.0,-2.8179118060152902e-06
2026-06-27T15:00:47.297078,1782583060.58583,0.0,0.0,-97.28736114501953,0.0,0.0,-4.990056037902832,0.0,0.0,-2.846959990032159e-06
2026-06-27T15:00:47.403387,1782583060.6908321,0.0,0.0,-97.81127166748047,0.0,0.0,-4.990055561065674,0.0,0.0,-2.8752012800485587e-06
2026-06-27T15:00:47.511655,1782583060.7988343,0.0,0.0,-98.35015106201172,0.0,0.0,-4.990054130554199,0.0,0.0,-2.9042494640654273e-06
2026-06-27T15:00:47.621351,1782583060.9038367,0.0,0.0,-98.87406158447266,0.0,0.0,-4.990053176879883,0.0,0.0,-2.932490754081827e-06
2026-06-27T15:00:47.730054,1782583061.011839,0.0,0.0,-99.4129409790039,0.0,0.0,-4.990052223205566,0.0,0.0,-2.9615389380986954e-06
2026-06-27T15:00:47.838915,1782583061.1168413,0.0,0.0,-99.93685150146484,0.0,0.0,-4.99005126953125,0.0,0.0,-2.9897802281150953e-06
2026-06-27T15:00:47.947615,1782583061.2248435,2.1446580831252504e-06,-3.6960884699510643e-06,-100.46665954589844,0.0001381873880745843,-0.00023470389714930207,-4.7644548416137695,-0.09194187922312759,-0.05772910420313725,-0.9610173181101982
2026-06-27T15:00:48.056803,1782583061.332846,0.00012110911484342068,-0.00019601391977630556,-100.97116088867188,0.0028087690006941557,-0.004491935949772596,-4.600271224975586,-0.4704798737996089,-0.36340749048201054,-5.338054690590385
2026-06-27T15:00:48.166024,1782583061.440848,0.0008236769353970885,-0.001309183076955378,-101.46467590332031,0.01140578556805849,-0.017993977293372154,-4.5578742027282715,-0.8799831130398693,-0.886181895615229,-12.613185413170052
2026-06-27T15:00:48.275235,1782583061.5488505,0.002876028185710311,-0.004533032421022654,-101.95921325683594,0.02806457132101059,-0.043956588953733444,-4.61461877822876,-1.1198036811890653,-1.5975318354810095,-22.184453548599564
2026-06-27T15:00:48.383425,1782583061.6568527,0.007216224446892738,-0.011308528482913971,-102.46414184570312,0.053885236382484436,-0.08390495181083679,-4.746182918548584,-1.0597687267619331,-2.4357485950969044,-33.511613559633005
2026-06-27T15:00:48.491548,1782583061.7648551,0.014956594444811344,-0.023322850465774536,-102.98966979980469,0.09059453010559082,-0.1402612179517746,-4.975715160369873,-0.6441610999343456,-3.3024198257238573,-45.79730539845555
2026-06-27T15:00:48.603276,1782583061.8728573,0.026670433580875397,-0.04142007231712341,-103.5262451171875,0.12615345418453217,-0.19456329941749573,-4.9222941398620605,0.0036812168808924594,-4.090820571379482,-56.771595002842574
2026-06-27T15:00:48.711150,1782583061.9778595,0.041798584163188934,-0.06471267342567444,-104.0345458984375,0.1625639796257019,-0.24991600215435028,-4.74928617477417,0.6808165693038306,-4.749643524636145,-64.7602896212839
2026-06-27T15:00:48.820417,1782583062.088862,0.06221042945981026,-0.09603552520275116,-104.55018615722656,0.20642554759979248,-0.31621626019477844,-4.54481315612793,1.2710199729512248,-5.355412370541177,-69.79857428610555
2026-06-27T15:00:48.929123,1782583062.1968644,0.08718816936016083,-0.13422279059886932,-105.03236389160156,0.25785964727401733,-0.3934880793094635,-4.3983564376831055,1.5838877761949648,-5.916945467510459,-71.29344617852179
2026-06-27T15:00:49.038344,1782583062.3018665,0.11739148944616318,-0.18021932244300842,-105.49114227294922,0.31970345973968506,-0.48595738410949707,-4.362098217010498,1.575901457704859,-6.477751201411643,-69.88356660496176
2026-06-27T15:00:49.147553,1782583062.4098687,0.1560676246881485,-0.23888935148715973,-105.96725463867188,0.39961209893226624,-0.6050894856452942,-4.485434532165527,1.2598977730724195,-7.069461095750995,-66.25657216466135
2026-06-27T15:00:49.257302,1782583062.5178711,0.2044254094362259,-0.31198158860206604,-106.46688842773438,0.4982788860797882,-0.7519916892051697,-4.784395217895508,0.7321209232653738,-7.661932639941457,-61.58146351793044
2026-06-27T15:00:49.365504,1782583062.6258733,0.2629508972167969,-0.4002089500427246,-106.9876480102539,0.5826144218444824,-0.8775142431259155,-4.808839321136475,0.15426513492864616,-8.268035806330392,-57.17851647319491
2026-06-27T15:00:49.475225,1782583062.7338758,0.33015239238739014,-0.5013505816459656,-107.50145721435547,0.6622183918952942,-0.9960301518440247,-4.698596000671387,-0.32884423796049556,-8.896920700879171,-53.99433261961698
2026-06-27T15:00:49.583770,1782583062.841878,0.4061284363269806,-0.6155610680580139,-108.00166320800781,0.7453742027282715,-1.1199395656585693,-4.560514450073242,-0.6241125049115858,-9.547465499848732,-52.38694098482633
2026-06-27T15:00:49.691538,1782583062.9468803,0.4888223707675934,-0.739761233329773,-108.47278594970703,0.8300849199295044,-1.2463070154190063,-4.407577037811279,-0.7004397549045777,-10.179181864858629,-52.2155893413772
2026-06-27T15:00:49.801231,1782583063.0548825,0.5833320021629333,-0.8816198706626892,-108.93932342529297,0.9205082058906555,-1.3813540935516357,-4.226701736450195,-0.5926049424384956,-10.838809234550519,-53.052984140769844
2026-06-27T15:00:49.910014,1782583063.1598847,0.6847075819969177,-1.0337210893630981,-109.37269592285156,1.0106467008590698,-1.5161172151565552,-4.022519111633301,-0.37355238245999706,-11.478138555407567,-54.35170480217877
2026-06-27T15:00:50.019769,1782583063.2708871,0.8022337555885315,-1.2100061178207397,-109.80545043945312,1.1069172620773315,-1.6601769924163818,-3.767333984375,-0.10630423954923385,-12.164269327660056,-55.75039239987771
2026-06-27T15:00:50.128653,1782583063.3758893,0.9231765270233154,-1.39138662815094,-110.18589782714844,1.1962502002716064,-1.793952465057373,-3.468998908996582,0.11127957188754628,-12.8693614441021,-56.77724195891751
2026-06-27T15:00:50.238437,1782583063.4838917,1.0570430755615234,-1.5921322107315063,-110.53976440429688,1.281096339225769,-1.9210768938064575,-3.064664840698242,0.2575989777473436,-13.746571863421048,-57.381341906536626
2026-06-27T15:00:50.345646,1782583063.588894,1.1950145959854126,-1.799025058746338,-110.83269500732422,1.3438578844070435,-2.015136480331421,-2.487163782119751,0.3150295897327369,-14.94466528887001,-57.53364903102912
2026-06-27T15:00:50.454426,1782583063.6938963,1.3411215543746948,-2.018115758895874,-111.07331085205078,1.451480746269226,-2.176548719406128,-2.174673318862915,0.27251625521186296,-15.37652941549799,-57.35143787751147
2026-06-27T15:00:50.564189,1782583063.8018985,1.5053319931030273,-2.2643606662750244,-111.30088806152344,1.5888653993606567,-2.382676601409912,-2.0439839363098145,0.16271608192371426,-14.702391133089298,-56.96935649276161
2026-06-27T15:00:50.672366,1782583063.909901,1.6839876174926758,-2.5322799682617188,-111.51495361328125,1.717528223991394,-2.5757482051849365,-1.9203433990478516,0.05255102858610058,-13.514853567195281,-56.551239328555155
2026-06-27T15:00:50.781569,1782583064.014903,1.8703914880752563,-2.8118324279785156,-111.71054077148438,1.8310068845748901,-2.7460458278656006,-1.806761384010315,-0.02108994909424454,-12.185485005721446,-56.220140200497404
2026-06-27T15:00:50.890262,1782583064.1199052,2.068100929260254,-3.1083524227142334,-111.89483642578125,1.9329078197479248,-2.8989715576171875,-1.706059455871582,-0.05565945745264651,-10.849501437997636,-56.01577329711044
2026-06-27T15:00:50.998926,1782583064.2279077,2.2819933891296387,-3.429152011871338,-112.07417297363281,2.0260226726531982,-3.038703680038452,-1.6180644035339355,-0.05968605871838589,-9.555179727457954,-55.942605194889694
2026-06-27T15:00:51.109160,1782583064.3329098,2.4990084171295166,-3.7546427249908447,-112.24022674560547,2.1058013439178467,-3.1584036350250244,-1.5469287633895874,-0.04631512319829124,-8.411677271016478,-55.97724339415801
2026-06-27T15:00:51.217235,1782583064.434912,2.7173519134521484,-4.082127094268799,-112.39498138427734,2.1738674640655518,-3.2605011463165283,-1.4890425205230713,-0.02794556100101476,-7.421235274310095,-56.07081053872888
2026-06-27T15:00:51.325507,1782583064.5399141,2.9489030838012695,-4.429421901702881,-112.54863739013672,2.2351207733154297,-3.3523406982421875,-1.4388747215270996,-0.010725343774772123,-6.524216221313508,-56.18783996086116
2026-06-27T15:00:51.434985,1782583064.6419165,3.1795947551727295,-4.77541971206665,-112.6932601928711,2.286956787109375,-3.4300215244293213,-1.3974193334579468,0.0010945783714480654,-5.764267031730963,-56.29042645205524
2026-06-27T15:00:51.543806,1782583064.7469187,3.4222233295440674,-5.139314651489258,-112.83802032470703,2.3333373069763184,-3.4994943141937256,-1.3606168031692505,0.0076385322087443,-5.086164066665722,-56.36506251171241
2026-06-27T15:00:51.652280,1782583064.8519208,3.6693878173828125,-5.510002613067627,-112.97914123535156,2.373491048812866,-3.559617757797241,-1.3281065225601196,0.009544614878018616,-4.502164916973066,-56.40180713786503
2026-06-27T15:00:51.760989,1782583064.9569232,3.9204788208007812,-5.886568546295166,-113.1170425415039,2.4082415103912354,-3.611640691757202,-1.299159049987793,0.008480676229673884,-4.000588928445818,-56.40464690678788
2026-06-27T15:00:51.870036,1782583065.0649254,4.182281494140625,-6.279191970825195,-113.25587463378906,2.4391019344329834,-3.6578421592712402,-1.2721028327941895,0.00595769153523497,-3.5593804443003343,-56.38302750888345
2026-06-27T15:00:51.979247,1782583065.1699276,4.439785480499268,-6.665359973907471,-113.38816833496094,2.4650139808654785,-3.696648120880127,-1.247846007347107,0.003312681819630117,-3.1931062720312022,-56.35068078868146
2026-06-27T15:00:52.087971,1782583065.2719297,4.692363262176514,-7.044133186340332,-113.51431274414062,2.4868643283843994,-3.7293858528137207,-1.2257972955703735,0.001207940009574188,-2.8880594331403917,-56.31891717961919
2026-06-27T15:00:52.197487,1782583065.3769321,4.9545392990112305,-7.437302589416504,-113.64188385009766,2.5064146518707275,-3.7586915493011475,-1.204219102859497,-0.0002255823043696256,-2.61920643988732,-56.293149367408645
2026-06-27T15:00:52.306186,1782583065.4819343,5.218632221221924,-7.8333420753479,-113.76722717285156,2.5234057903289795,-3.7841734886169434,-1.1836495399475098,-0.0009388627744773096,-2.389447567801377,-56.27788552216598
2026-06-27T15:00:52.414965,1782583065.5899367,5.492006301879883,-8.24329948425293,-113.89395904541016,2.5385959148406982,-3.806962251663208,-1.16311514377594,-0.0010959864708754976,-2.1882167000528243,-56.27320507449349
2026-06-27T15:00:52.524185,1782583065.697939,5.766911029815674,-8.655557632446289,-114.01852416992188,2.5518174171447754,-3.8267998695373535,-1.1434944868087769,-0.0009041083133440888,-2.0168376461514974,-56.27716414579009
2026-06-27T15:00:52.632348,1782583065.802941,6.035458564758301,-9.0582857131958,-114.13761138916016,2.5630524158477783,-3.8436577320098877,-1.1248149871826172,-0.0005814768025036969,-1.874880157413409,-56.285742334058845
2026-06-27T15:00:52.741529,1782583065.9139435,6.320554256439209,-9.485825538635254,-114.26139068603516,2.573453187942505,-3.8592610359191895,-1.1055467128753662,-0.0002490750056288864,-1.7471575115107374,-56.296120071858724
2026-06-27T15:00:52.849734,1782583066.0159457,6.583488941192627,-9.880134582519531,-114.3732681274414,2.5818662643432617,-3.871880292892456,-1.0881603956222534,-3.146540772318257e-05,-1.6469568619127413,-56.30430472468635
2026-06-27T15:00:52.958935,1782583066.120948,6.855001449584961,-10.287309646606445,-114.4865951538086,2.589545249938965,-3.8833975791931152,-1.0704971551895142,8.376868784603079e-05,-1.5586618025221604,-56.30994229989327
2026-06-27T15:00:53.067802,1782583066.2259502,7.127275466918945,-10.695624351501465,-114.59808349609375,2.5963706970214844,-3.893634080886841,-1.0532256364822388,9.698484592604757e-05,-1.4829355492128689,-56.3124414018833
2026-06-27T15:00:53.176506,1782583066.3309524,7.400225639343262,-11.10495376586914,-114.70777130126953,2.60245943069458,-3.902766227722168,-1.0360554456710815,3.6452756456864165e-05,-1.418130530151513,-56.31226055615134
2026-06-27T15:00:53.286701,1782583066.4389548,7.68160343170166,-11.526924133300781,-114.81873321533203,2.608065366744995,-3.9111759662628174,-1.0187288522720337,-6.88361970516167e-05,-1.3610312374127091,-56.310242883024436
2026-06-27T15:00:53.395400,1782583066.540957,7.947878360748291,-11.926243782043457,-114.92182159423828,2.6128292083740234,-3.9183247089385986,-1.0023667812347412,-0.00017451746721371028,-1.3148473117308543,-56.30767559991618
2026-06-27T15:00:53.504950,1782583066.6489592,8.230321884155273,-12.349808692932129,-115.0291748046875,2.6173949241638184,-3.925179958343506,-0.9854410290718079,-0.00027593103661062635,-1.27267425556562,-56.30503634869081
2026-06-27T15:00:53.612113,1782583066.7509613,8.497504234313965,-12.750490188598633,-115.1288833618164,2.6213138103485107,-3.9310672283172607,-0.9696948528289795,-0.0003443393852316679,-1.2382498939576296,-56.30319749238334
2026-06-27T15:00:53.722291,1782583066.8589637,8.7808198928833,-13.175369262695312,-115.23271942138672,2.6251025199890137,-3.9367599487304688,-0.9531542062759399,-0.00038924954205975286,-1.2068375416041368,-56.30217161252257
2026-06-27T15:00:53.830000,1782583066.963966,9.056641578674316,-13.589007377624512,-115.33197021484375,2.628477096557617,-3.9418327808380127,-0.937198281288147,-0.0004123423178405748,-1.1804883258107928,-56.30204532064881
2026-06-27T15:00:53.939221,1782583067.065968,9.324908256530762,-13.991316795349121,-115.4267807006836,2.6315019130706787,-3.9463820457458496,-0.9218234419822693,-0.00041932915926942195,-1.1582523148160309,-56.30253083902743
2026-06-27T15:00:54.048932,1782583067.1709704,9.601375579833984,-14.405927658081055,-115.52275085449219,2.6343884468078613,-3.950723886489868,-0.9061826467514038,-0.0004141224702433474,-1.1382990488443996,-56.30336668326518
2026-06-27T15:00:54.157144,1782583067.2729726,9.870223999023438,-14.809112548828125,-115.61442565917969,2.6369986534118652,-3.954651355743408,-0.8911317586898804,-0.0004004163492638953,-1.121373539837464,-56.304228861857524
2026-06-27T15:00:54.265850,1782583067.3749747,10.13932991027832,-15.212686538696289,-115.7045669555664,2.6394405364990234,-3.958327293395996,-0.8762484788894653,-0.0003950541220412347,-1.106511544531155,-56.30499924556788
2026-06-27T15:00:54.375050,1782583067.479977,10.416601181030273,-15.628508567810059,-115.7957763671875,2.6417996883392334,-3.9618780612945557,-0.861059308052063,-0.0003871864580305911,-1.0930368237232808,-56.305579199941896
2026-06-27T15:00:54.484270,1782583067.575979,10.670317649841309,-16.009004592895508,-115.87776947021484,2.6438355445861816,-3.9649417400360107,-0.847381055355072,-0.00038952548811464814,-1.0821340977515763,-56.30583411816028
2026-06-27T15:00:54.591506,1782583067.6629808,10.900412559509277,-16.354080200195312,-115.9509506225586,2.6455893516540527,-3.9675815105438232,-0.8351019620895386,-0.0003973138438478059,-1.0732301776941147,-56.30593949071761
2026-06-27T15:00:54.701709,1782583067.764983,11.170369148254395,-16.758934020996094,-116.03538513183594,2.647543430328369,-3.970524549484253,-0.8205992579460144,-0.00039774034286032883,-1.0639345794167736,-56.3059367212548
2026-06-27T15:00:54.810917,1782583067.8699853,11.448469161987305,-17.176000595092773,-116.12078094482422,2.649456739425659,-3.973407745361328,-0.8060929179191589,-0.00040135833201952254,-1.0552290427559183,-56.30572730795409
2026-06-27T15:00:54.920432,1782583067.9779875,11.734718322753906,-17.60529136657715,-116.20703887939453,2.6513288021087646,-3.976227283477783,-0.7913066744804382,-0.00041603483505308324,-1.0472287730153236,-56.30551398789138
2026-06-27T15:00:55.029670,1782583068.08599,12.02116584777832,-18.03487777709961,-116.29169464111328,2.653109073638916,-3.978910207748413,-0.7764829397201538,-0.00042550956378399103,-1.0400493217489337,-56.305503514426945
2026-06-27T15:00:55.138926,1782583068.190992,12.291872024536133,-18.440860748291016,-116.37018585205078,2.6547183990478516,-3.9813365936279297,-0.7627819776535034,-0.0004261230388069745,-1.0339156999757002,-56.305500327753464
2026-06-27T15:00:55.246351,1782583068.2929943,12.570707321166992,-18.859037399291992,-116.44954681396484,2.6563057899475098,-3.9837305545806885,-0.7488262057304382,-0.00042664158617865315,-1.0280908562222735,-56.30559778817305
2026-06-27T15:00:55.355584,1782583068.4009967,12.857680320739746,-19.289417266845703,-116.52964782714844,2.657869815826416,-3.9860899448394775,-0.7345978021621704,-0.00042871828348064144,-1.0225875340095587,-56.305707346609694
2026-06-27T15:00:55.465295,1782583068.4999988,13.120882987976074,-19.684152603149414,-116.60173034667969,2.6592485904693604,-3.988170862197876,-0.7217398285865784,-0.00043197498192111745,-1.0179782604924432,-56.30579838152672
2026-06-27T15:00:55.573345,1782583068.599001,13.384221076965332,-20.079090118408203,-116.67254638671875,2.6605770587921143,-3.9901764392852783,-0.7088936567306519,-0.00043084720435921026,-1.0136741353318104,-56.30590413367802
2026-06-27T15:00:55.682538,1782583068.704003,13.663660049438477,-20.4981746673584,-116.74629974365234,2.6619369983673096,-3.9922304153442383,-0.6956127882003784,-0.0004287078824359278,-1.0093367120090118,-56.30601234925922
2026-06-27T15:00:55.793273,1782583068.8090053,13.943239212036133,-20.917470932006836,-116.81864166259766,2.6632473468780518,-3.994209051132202,-0.6824275851249695,-0.00042661263323766607,-1.0052803370410204,-56.30611661125025
2026-06-27T15:00:55.900504,1782583068.9110074,14.214959144592285,-21.32498550415039,-116.88760375976562,2.664475679397583,-3.9960639476776123,-0.6697567701339722,-0.0004245199000659945,-1.0015652515284619,-56.306219120929256
2026-06-27T15:00:56.009336,1782583069.0160098,14.494799613952637,-21.744680404663086,-116.95726013183594,2.6656970977783203,-3.9979095458984375,-0.6569761633872986,-0.0004266004860785698,-0.9978866848401354,-56.306326310713125
2026-06-27T15:00:56.117569,1782583069.121012,14.774765968322754,-22.164566040039062,-117.02558135986328,2.666874885559082,-3.999689817428589,-0.644184947013855,-0.00042610452382826273,-0.9944828616982737,-56.306429464088886
2026-06-27T15:00:56.226782,1782583069.2260141,15.054854393005371,-22.584632873535156,-117.09256744384766,2.6680140495300293,-4.001409530639648,-0.6316316723823547,-0.00042159541872812463,-0.9912179802799277,-56.30653373568469
2026-06-27T15:00:56.336982,1782583069.3310165,15.335058212280273,-23.0048770904541,-117.15824127197266,2.669114351272583,-4.0030741691589355,-0.6192536354064941,-0.0004223500314477728,-0.9880839351963304,-56.306645116951564
2026-06-27T15:00:56.444707,1782583069.4300187,15.599357604980469,-23.40126609802246,-117.2189712524414,2.670118808746338,-4.0045928955078125,-0.607754111289978,-0.00041955422931956273,-0.9852347059992135,-56.30673765300868
2026-06-27T15:00:56.553369,1782583069.5380208,15.887794494628906,-23.8338565826416,-117.28394317626953,2.671178102493286,-4.006196022033691,-0.5953436493873596,-0.00041863585719525634,-0.9822421476636308,-56.306848405446836
2026-06-27T15:00:56.661538,1782583069.643023,16.16832733154297,-24.254596710205078,-117.34584045410156,2.6721737384796143,-4.007702350616455,-0.5834596753120422,-0.0004118722506575929,-0.979431192327495,-56.30693367601395
2026-06-27T15:00:56.771715,1782583069.7480254,16.448959350585938,-24.675493240356445,-117.40648651123047,2.6731364727020264,-4.009160041809082,-0.5717437267303467,-0.00039940802144471083,-0.9767108845473532,-56.30693289238296
2026-06-27T15:00:56.879957,1782583069.8530276,16.729698181152344,-25.09653663635254,-117.4659194946289,2.674067735671997,-4.010569095611572,-0.5601961016654968,-0.00039331061003672015,-0.9740743524283199,-56.306976995073626
2026-06-27T15:00:56.989352,1782583069.96103,17.0185489654541,-25.529760360717773,-117.52579498291016,2.6749937534332275,-4.0119709968566895,-0.5484890341758728,-0.000392367570791055,-0.9714447589190889,-56.30708440823101
2026-06-27T15:00:57.097965,1782583070.0660322,17.299480438232422,-25.951095581054688,-117.58279418945312,2.6758639812469482,-4.013288974761963,-0.5373430252075195,-0.0003909586890101563,-0.9689364908534972,-56.30719451648329
2026-06-27T15:00:57.206683,1782583070.1680343,17.572465896606445,-26.360525131225586,-117.63703918457031,2.676679849624634,-4.014524936676025,-0.5264909267425537,-0.0003771137090347552,-0.9666137058313222,-56.307271261181576
2026-06-27T15:00:57.315923,1782583070.2730365,17.853561401367188,-26.78212547302246,-117.69175720214844,2.6774935722351074,-4.015758514404297,-0.5156785249710083,-0.00036743647999453865,-0.9642527887086512,-56.30726707987458
2026-06-27T15:00:57.425756,1782583070.378039,18.134748458862305,-27.203853607177734,-117.74534606933594,2.6782801151275635,-4.016950607299805,-0.5049784183502197,-0.0003652814055021886,-0.9619608655192419,-56.307360651254236
2026-06-27T15:00:57.533599,1782583070.480041,18.40797996520996,-27.613649368286133,-117.79634094238281,2.6790192127227783,-4.018069267272949,-0.49474892020225525,-0.00034930053918587827,-0.9597923736987023,-56.307456788666144
2026-06-27T15:00:57.642391,1782583070.5850432,18.68932342529297,-28.035612106323242,-117.84774017333984,2.6797544956207275,-4.019183158874512,-0.4843703508377075,-0.0003372320202507882,-0.9576181143278789,-56.30748706761137
2026-06-27T15:00:57.751133,1782583070.6870453,18.96269989013672,-28.445629119873047,-117.89663696289062,2.6804444789886475,-4.020229339599609,-0.474459707736969,-0.00033720628683512374,-0.9555629934416565,-56.307571881457804
2026-06-27T15:00:57.860875,1782583070.7920475,19.24418830871582,-28.867820739746094,-117.9459228515625,2.681131362915039,-4.021269798278809,-0.4644112288951874,-0.00033628410727649087,-0.9534887966247243,-56.3076348419476
2026-06-27T15:00:57.968190,1782583070.89405,19.517702102661133,-29.278045654296875,-117.9927978515625,2.6817760467529297,-4.022246837615967,-0.45481565594673157,-0.0003362792656002862,-0.9515309057735216,-56.307633586116296
2026-06-27T15:00:58.076859,1782583070.996052,19.79128074645996,-29.68837547302246,-118.0386962890625,2.6823978424072266,-4.023191452026367,-0.44535478949546814,-0.00032990738216030107,-0.9496188103750662,-56.30771082527663
2026-06-27T15:00:58.185987,1782583071.1010542,20.07297134399414,-30.110864639282227,-118.0849609375,2.683016777038574,-4.024130344390869,-0.43578746914863586,-0.00031092841631038577,-0.9476942988628396,-56.30781934916267
2026-06-27T15:00:58.294520,1782583071.2030563,20.346675872802734,-30.521385192871094,-118.12893676757812,2.6835970878601074,-4.02501106262207,-0.4266337752342224,-0.00031008693002225463,-0.9458753338092813,-56.3078572913568
2026-06-27T15:00:58.403720,1782583071.3050585,20.620437622070312,-30.931987762451172,-118.1719970703125,2.684157371520996,-4.025859832763672,-0.4176417291164398,-0.00030384039043407075,-0.9440952623422242,-56.307857413058414
2026-06-27T15:00:58.512412,1782583071.410061,20.902307510375977,-31.354755401611328,-118.21537780761719,2.6847140789031982,-4.026705741882324,-0.4085528254508972,-0.0002931908876031878,-0.9423171454251328,-56.30790959459938
2026-06-27T15:00:58.621568,1782583071.515063,21.184232711791992,-31.77761459350586,-118.2578125,2.685250997543335,-4.027519702911377,-0.3996247947216034,-0.00028439180410586853,-0.9405890444223988,-56.30802561575652
2026-06-27T15:00:58.731234,1782583071.6260655,21.482328414916992,-32.22472381591797,-118.30166625976562,2.6857974529266357,-4.028348445892334,-0.39038196206092834,-0.00028380487544416033,-0.9388110442567482,-56.30805957648015
2026-06-27T15:00:58.840872,1782583071.7310677,21.764375686645508,-32.64773941040039,-118.34219360351562,2.6862952709198,-4.029102802276611,-0.3817763328552246,-0.0002902500115275241,-0.9371781629269007,-56.30806837830173
2026-06-27T15:00:58.947564,1782583071.8330698,22.038410186767578,-33.05875778198242,-118.3807144165039,2.686760663986206,-4.029809951782227,-0.3735533654689789,-0.00028005813624918166,-0.9356270570577652,-56.30818132491667
2026-06-27T15:00:59.058613,1782583071.9410722,22.328609466552734,-33.4940299987793,-118.42060852050781,2.6872358322143555,-4.030531406402588,-0.3650381863117218,-0.0002796617636557392,-0.9340327370797017,-56.308192269608895
2026-06-27T15:00:59.165625,1782583072.0430744,22.60272979736328,-33.90517807006836,-118.45743560791016,2.68766713142395,-4.031187534332275,-0.35711270570755005,-0.0002696739022805772,-0.9325687911215276,-56.30824592445028
2026-06-27T15:00:59.274800,1782583072.1480765,22.884971618652344,-34.32850646972656,-118.49451446533203,2.6880953311920166,-4.0318379402160645,-0.349120169878006,-0.0002607777364486293,-0.9311007152778537,-56.3082847142863
2026-06-27T15:00:59.383878,1782583072.2530787,23.167247772216797,-34.75188064575195,-118.53076171875,2.6885077953338623,-4.032464981079102,-0.34130629897117615,-0.0002565779520064503,-0.9296699052113863,-56.30834549245927
2026-06-27T15:00:59.491552,1782583072.3550808,23.441497802734375,-35.163238525390625,-118.56519317626953,2.6888928413391113,-4.033049583435059,-0.3337986171245575,-0.0002558856629824862,-0.9283359379235496,-56.308358262281764
2026-06-27T15:00:59.601272,1782583072.4600832,23.723865509033203,-35.58674621582031,-118.599853515625,2.689274311065674,-4.033630847930908,-0.32625192403793335,-0.00024366500450775328,-0.9269936753518906,-56.308422293774775
2026-06-27T15:00:59.709674,1782583072.5620854,23.99818229675293,-35.998207092285156,-118.63277435302734,2.689631223678589,-4.034173965454102,-0.3191072940826416,-0.0002418795826531503,-0.9257188037409486,-56.30845981889675
2026-06-27T15:00:59.818880,1782583072.6640875,24.27256202697754,-36.40974426269531,-118.66495513916016,2.689974069595337,-4.034695625305176,-0.312010794878006,-0.00023106457536409088,-0.9244953733094684,-56.308527225643594
2026-06-27T15:00:59.928099,1782583072.7690897,24.555023193359375,-36.8333854675293,-118.69733428955078,2.690314531326294,-4.035212516784668,-0.3048855662345886,-0.00023075831568881294,-0.9232716427682834,-56.308525161074904
2026-06-27T15:01:00.036802,1782583072.874092,24.837539672851562,-37.25715637207031,-118.7289810180664,2.690640926361084,-4.035709857940674,-0.2979028522968292,-0.00022860626955641637,-0.9220795318496315,-56.308607572707714
2026-06-27T15:01:00.147403,1782583072.9790943,25.12006950378418,-37.680931091308594,-118.75990295410156,2.6909549236297607,-4.036187648773193,-0.29106074571609497,-0.00021964306943540136,-0.9209264300442633,-56.30864679102231
2026-06-27T15:01:00.256056,1782583073.0870967,25.41072654724121,-38.116859436035156,-118.79096221923828,2.6912648677825928,-4.0366597175598145,-0.28415757417678833,-0.00022149428285070518,-0.9197757002774325,-56.308651367812125
2026-06-27T15:01:00.363425,1782583073.1920989,25.693315505981445,-38.540767669677734,-118.82044982910156,2.691553831100464,-4.037100791931152,-0.27758991718292236,-0.00021354652043883792,-0.918694054647263,-56.30865035376312
2026-06-27T15:01:00.472707,1782583073.297101,25.97596549987793,-38.96467590332031,-118.8492660522461,2.691831588745117,-4.037524223327637,-0.2711560130119324,-0.00020227653396657957,-0.9176459007928821,-56.30868518932768
2026-06-27T15:01:00.581502,1782583073.3991032,26.250539779663086,-39.376522064208984,-118.8766098022461,2.6920905113220215,-4.037919521331787,-0.2650386095046997,-0.000205421033600267,-0.9166585938801117,-56.308789717631434
2026-06-27T15:01:00.690210,1782583073.5071056,26.54131507873535,-39.812679290771484,-118.90489196777344,2.6923534870147705,-4.038320064544678,-0.2586596608161926,-0.00018877864537370396,-0.915648843169449,-56.30886123452002
2026-06-27T15:01:00.798998,1782583073.6061077,26.807876586914062,-40.21249008178711,-118.93022918701172,2.6925854682922363,-4.038673400878906,-0.25298136472702026,-0.00017751911841118405,-0.9147606264284563,-56.30886156304768
2026-06-27T15:01:00.907700,1782583073.71411,27.098678588867188,-40.64864730834961,-118.95721435546875,2.6928281784057617,-4.039044380187988,-0.2468889206647873,-0.00018005295162334462,-0.9138132717365473,-56.30886139482671
2026-06-27T15:01:01.016071,1782583073.8191123,27.38146209716797,-41.07282257080078,-118.98283386230469,2.693054676055908,-4.039389133453369,-0.241093710064888,-0.00017989425834517955,-0.9129190721203951,-56.308861606869634
2026-06-27T15:01:01.125209,1782583073.9271145,27.672325134277344,-41.509117126464844,-119.0085678100586,2.693277597427368,-4.039729595184326,-0.2352466732263565,-0.00017474732214776273,-0.9120403007980926,-56.30886196655905
2026-06-27T15:01:01.233364,1782583074.0321167,27.955123901367188,-41.933292388916016,-119.03296661376953,2.6934850215911865,-4.040046691894531,-0.22970841825008392,-0.0001607784977543863,-0.9112092857781677,-56.30886271781135
2026-06-27T15:01:01.341753,1782583074.1311188,28.221811294555664,-42.33323669433594,-119.05545043945312,2.6936726570129395,-4.040332317352295,-0.22458598017692566,-0.00016235643907225458,-0.9104595144677382,-56.30893328275482
2026-06-27T15:01:01.451589,1782583074.2361212,28.504661560058594,-42.757545471191406,-119.07875061035156,2.6938629150390625,-4.040624618530273,-0.21926558017730713,-0.00017753353401271093,-0.9096848277160692,-56.309031243462584
2026-06-27T15:01:01.560317,1782583074.3381233,28.779430389404297,-43.16973114013672,-119.1008529663086,2.6940407752990723,-4.040897369384766,-0.2142016738653183,-0.00015177689879024474,-0.908968648503584,-56.30911966303522
2026-06-27T15:01:01.669084,1782583074.4431255,29.062335968017578,-43.59403991699219,-119.12307739257812,2.694216728210449,-4.041164875030518,-0.2091018110513687,-0.0001314074092046754,-0.9082539309713774,-56.30912124977755
2026-06-27T15:01:01.777916,1782583074.5481277,29.345252990722656,-44.018348693847656,-119.144775390625,2.694385051727295,-4.0414204597473145,-0.20411212742328644,-0.0001345831657060254,-0.907562165493642,-56.309116665024014
2026-06-27T15:01:01.887173,1782583074.65613,29.636253356933594,-44.454830169677734,-119.16654968261719,2.6945502758026123,-4.0416741371154785,-0.19908690452575684,-0.00015985648783373974,-0.9068786540633793,-56.30911810298621
