time,sim_t,x,y,z,vx,vy,vz,roll_deg,pitch_deg,yaw_deg
2026-06-27T13:28:41.952361,1782577672.2308807,0.0,0.0,2.0397043228149414,0.0,0.0,0.0,0.0,0.0,0.0003895640909249624
2026-06-27T13:28:42.061050,1782577672.3388832,0.0,0.0,2.0397043228149414,0.0,0.0,0.0,0.0,0.0,0.0003895640909249624
2026-06-27T13:28:42.170270,1782577672.4438853,0.0,0.0,2.0397043228149414,0.0,0.0,0.0,0.0,0.0,0.0003895640909249624
2026-06-27T13:28:42.280156,1782577672.5518875,0.0,0.0,2.0397043228149414,0.0,0.0,0.0,0.0,0.0,0.0003895640909249624
2026-06-27T13:28:42.388368,1782577672.65989,0.0,0.0,2.0397043228149414,0.0,0.0,0.0,0.0,0.0,0.0003895640909249624
2026-06-27T13:28:42.496950,1782577672.7678921,0.0,0.0,2.0397043228149414,0.0,0.0,0.0,0.0,0.0,0.0003895640909249624
2026-06-27T13:28:42.607946,1782577672.8758945,0.0,0.0,2.0397043228149414,0.0,0.0,0.0,0.0,0.0,0.0003895640909249624
2026-06-27T13:28:42.715857,1782577672.9838967,0.0,0.0,2.0397043228149414,0.0,0.0,0.0,0.0,0.0,0.0003895640909249624
2026-06-27T13:28:42.824057,1782577673.0888991,0.0,0.0,2.0397043228149414,0.0,0.0,0.0,0.0,0.0,0.0003895640909249624
2026-06-27T13:28:42.933418,1782577673.1969013,0.0,0.0,2.0397043228149414,0.0,0.0,0.0,0.0,0.0,0.0003895640909249624
2026-06-27T13:28:43.041899,1782577673.3049037,0.0,0.0,2.0397043228149414,0.0,0.0,0.0,0.0,0.0,0.0003895640909249624
2026-06-27T13:28:43.150630,1782577673.412906,0.0,0.0,2.0397043228149414,0.0,0.0,0.0,0.0,0.0,0.0003895640909249624
2026-06-27T13:28:43.259799,1782577673.5209084,0.0,0.0,2.0397043228149414,0.0,0.0,0.0,0.0,0.0,0.0003895640909249624
2026-06-27T13:28:43.368818,1782577673.6289105,0.0,0.0,2.0397043228149414,0.0,0.0,0.0,0.0,0.0,0.0003895640909249624
2026-06-27T13:28:43.476377,1782577673.7309127,0.0,0.0,2.026744842529297,0.0,0.0,-0.32212555408477783,0.0,0.0,0.0003895640909249624
2026-06-27T13:28:43.585053,1782577673.838915,0.0,0.0,1.9842753410339355,0.0,0.0,-0.42952221632003784,0.0,0.0,0.0003895640909249624
2026-06-27T13:28:43.694299,1782577673.9439173,0.0,0.0,1.938104271888733,0.0,0.0,-0.4461941719055176,0.0,0.0,0.0003895640909249624
2026-06-27T13:28:43.803490,1782577674.0549197,0.0,0.0,1.8881638050079346,0.0,0.0,-0.4530637860298157,0.0,0.0,0.0003895640909249624
2026-06-27T13:28:43.911061,1782577674.159922,0.0,0.0,1.8403288125991821,0.0,0.0,-0.457923948764801,0.0,0.0,0.0003895640909249624
2026-06-27T13:28:44.020763,1782577674.2679243,0.0,0.0,1.7906323671340942,0.0,0.0,-0.4622756838798523,0.0,0.0,0.0003895640909249624
2026-06-27T13:28:44.129941,1782577674.3759265,0.0,0.0,1.7404931783676147,0.0,0.0,-0.4661315679550171,0.0,0.0,0.0003895640909249624
2026-06-27T13:28:44.238124,1782577674.4809287,0.0,0.0,1.691369652748108,0.0,0.0,-0.46946683526039124,0.0,0.0,0.0003895640909249624
2026-06-27T13:28:44.347836,1782577674.588931,0.0,0.0,1.6404979228973389,0.0,0.0,-0.47252020239830017,0.0,0.0,0.0003895640909249624
2026-06-27T13:28:44.457515,1782577674.6969333,0.0,0.0,1.5893151760101318,0.0,0.0,-0.47523340582847595,0.0,0.0,0.0003895640909249624
2026-06-27T13:28:44.574808,1782577674.8019357,0.0,0.0,1.539288878440857,0.0,0.0,-0.477581262588501,0.0,0.0,0.0003895640909249624
2026-06-27T13:28:44.674544,1782577674.9039378,0.0,0.0,1.4904686212539673,0.0,0.0,-0.4796179533004761,0.0,0.0,0.0003895640909249624
2026-06-27T13:28:44.781977,1782577675.00594,0.0,0.0,1.441452145576477,0.0,0.0,-0.4814397394657135,0.0,0.0,0.0003895640909249624
2026-06-27T13:28:44.890594,1782577675.1139424,0.0,0.0,1.3893606662750244,0.0,0.0,-0.4831596314907074,0.0,0.0,0.0003895640909249624
2026-06-27T13:28:45.000365,1782577675.2189445,0.0,0.0,1.3385484218597412,0.0,0.0,-0.48464781045913696,0.0,0.0,0.0003895640909249624
2026-06-27T13:28:45.108647,1782577675.3179467,0.0,0.0,1.2905044555664062,0.0,0.0,-0.4859028458595276,0.0,0.0,0.0003895640909249624
2026-06-27T13:28:45.217397,1782577675.4199488,0.0,0.0,1.2408809661865234,0.0,0.0,-0.4870615005493164,0.0,0.0,0.0003895640909249624
2026-06-27T13:28:45.326214,1782577675.524951,0.0,0.0,1.1896814107894897,0.0,0.0,-0.488126665353775,0.0,0.0,0.0003895640909249624
2026-06-27T13:28:45.435454,1782577675.6299534,0.0,0.0,1.138376235961914,0.0,0.0,-0.4890764057636261,0.0,0.0,0.0003895640909249624
2026-06-27T13:28:45.546697,1782577675.7319555,0.0,0.0,1.0884464979171753,0.0,0.0,-0.48990026116371155,0.0,0.0,0.0003895640909249624
2026-06-27T13:28:45.653944,1782577675.8339577,0.0,0.0,1.0384372472763062,0.0,0.0,-0.4906371831893921,0.0,0.0,0.0003895640909249624
2026-06-27T13:28:45.761556,1782577675.9389598,0.0,0.0,0.9868832230567932,0.0,0.0,-0.49131470918655396,0.0,0.0,0.0003895640909249624
2026-06-27T13:28:45.870744,1782577676.040962,0.0,0.0,0.9367375373840332,0.0,0.0,-0.4919023811817169,0.0,0.0,0.0003895640909249624
2026-06-27T13:28:45.980004,1782577676.139964,0.0,0.0,0.8880124688148499,0.0,0.0,-0.4924134314060211,0.0,0.0,0.0003895640909249624
2026-06-27T13:28:46.089726,1782577676.2479665,0.0,0.0,0.8348031640052795,0.0,0.0,-0.4929114580154419,0.0,0.0,0.0003895640909249624
2026-06-27T13:28:46.198041,1782577676.3499687,0.0,0.0,0.7845033407211304,0.0,0.0,-0.49333080649375916,0.0,0.0,0.0003895640909249624
2026-06-27T13:28:46.307321,1782577676.4549708,0.0,0.0,0.7326818704605103,0.0,0.0,-0.49371635913848877,0.0,0.0,0.0003895640909249624
2026-06-27T13:28:46.415600,1782577676.556973,0.0,0.0,0.6823046803474426,0.0,0.0,-0.49405062198638916,0.0,0.0,0.0003895640909249624
2026-06-27T13:28:46.524357,1782577676.6619754,0.0,0.0,0.6304118633270264,0.0,0.0,-0.49435803294181824,0.0,0.0,0.0003895640909249624
2026-06-27T13:28:46.633083,1782577676.7669775,0.0,0.0,0.5784885287284851,0.0,0.0,-0.4946320950984955,0.0,0.0,0.0003895640909249624
2026-06-27T13:28:46.741841,1782577676.8629797,0.0,0.0,0.5309918522834778,0.0,0.0,-0.49485665559768677,0.0,0.0,0.0003895640909249624
2026-06-27T13:28:46.850600,1782577676.9499815,0.0,0.0,0.5041506886482239,0.0,0.0,-0.11614806950092316,0.0,0.0,0.0003895640909249624
2026-06-27T13:28:46.960692,1782577677.0459836,0.0,0.0,0.5014725923538208,0.0,0.0,0.0177789106965065,0.0,0.0,0.0003895640909249624
2026-06-27T13:28:47.078961,1782577677.1479857,0.0,0.0,0.4813750386238098,0.0,0.0,-0.5238887071609497,0.0,0.0,0.0003602918794531562
2026-06-27T13:28:47.179237,1782577677.2409875,0.0,0.0,0.40393421053886414,0.0,0.0,-1.1393749713897705,0.0,0.0,0.00027497848010687656
2026-06-27T13:28:47.286984,1782577677.3339896,0.0,0.0,0.26997247338294983,0.0,0.0,-1.737917423248291,0.0,0.0,0.00016503331502914982
2026-06-27T13:28:47.400643,1782577677.4389918,0.0,0.0,0.05328270420432091,0.0,0.0,-2.3832244873046875,0.0,0.0,4.457202990521772e-05
2026-06-27T13:28:47.507437,1782577677.537994,0.0,0.0,-0.211241215467453,0.0,0.0,-2.9538822174072266,0.0,0.0,-4.319050361467136e-05
2026-06-27T13:28:47.616672,1782577677.639996,0.0,0.0,-0.5406605005264282,0.0,0.0,-3.4972329139709473,0.0,0.0,-9.652599186174168e-05
2026-06-27T13:28:47.720902,1782577677.7359982,0.0,0.0,-0.899154782295227,0.0,0.0,-3.9638028144836426,0.0,0.0,-0.00011259616768352435
2026-06-27T13:28:47.830598,1782577677.8380003,0.0,0.0,-1.3266785144805908,0.0,0.0,-4.410346508026123,0.0,0.0,-0.0001013384021302952
2026-06-27T13:28:47.939914,1782577677.9460027,0.0,0.0,-1.8260773420333862,0.0,0.0,-4.828301429748535,0.0,0.0,-6.989085570079308e-05
2026-06-27T13:28:48.050197,1782577678.0480049,0.0,0.0,-2.335965871810913,0.0,0.0,-5.131430625915527,0.0,0.0,-3.438372866253601e-05
2026-06-27T13:28:48.158231,1782577678.150007,0.0,0.0,-2.8625242710113525,0.0,0.0,-5.171802997589111,0.0,0.0,-2.7981457527808046e-06
2026-06-27T13:28:48.267484,1782577678.2490091,0.0,0.0,-3.374042272567749,0.0,0.0,-5.159889221191406,0.0,0.0,1.868540639902866e-05
2026-06-27T13:28:48.376602,1782577678.3540113,0.0,0.0,-3.9149715900421143,0.0,0.0,-5.143385887145996,0.0,0.0,3.0088723905126968e-05
2026-06-27T13:28:48.485828,1782577678.4590137,0.0,0.0,-4.454218864440918,0.0,0.0,-5.128015995025635,0.0,0.0,3.105313077964073e-05
2026-06-27T13:28:48.595597,1782577678.5640159,0.0,0.0,-4.991930961608887,0.0,0.0,-5.114141464233398,0.0,0.0,2.475804179323564e-05
2026-06-27T13:28:48.708025,1782577678.666018,0.0,0.0,-5.512955665588379,0.0,0.0,-5.101995944976807,0.0,0.0,1.5234823133997488e-05
2026-06-27T13:28:48.812287,1782577678.76202,0.0,0.0,-6.002251148223877,0.0,0.0,-5.0916523933410645,0.0,0.0,6.009470901343432e-06
2026-06-27T13:28:48.920677,1782577678.8340216,0.0,0.0,-6.368598461151123,0.0,0.0,-5.084526062011719,0.0,0.0,1.328008038365153e-07
2026-06-27T13:28:49.029864,1782577678.9360237,0.0,0.0,-6.886751174926758,0.0,0.0,-5.075277805328369,0.0,0.0,-5.963163653625319e-06
2026-06-27T13:28:49.140477,1782577679.0440261,0.0,0.0,-7.434409141540527,0.0,0.0,-5.066471099853516,0.0,0.0,-1.0195488380259688e-05
2026-06-27T13:28:49.249681,1782577679.1430283,0.0,0.0,-7.935634136199951,0.0,0.0,-5.059200763702393,0.0,0.0,-1.276948268442047e-05
2026-06-27T13:28:49.356819,1782577679.2510304,0.0,0.0,-8.481645584106445,0.0,0.0,-5.052056312561035,0.0,0.0,-1.3862736933301575e-05
2026-06-27T13:28:49.464193,1782577679.3530326,0.0,0.0,-8.996651649475098,0.0,0.0,-5.045989036560059,0.0,0.0,-1.1273103052994466e-05
2026-06-27T13:28:49.576371,1782577679.461035,0.0,0.0,-9.541316032409668,0.0,0.0,-5.040210723876953,0.0,0.0,-9.386031208939973e-06
2026-06-27T13:28:49.681950,1782577679.5600371,0.0,0.0,-10.040067672729492,0.0,0.0,-5.03544282913208,0.0,0.0,-8.252652914197038e-06
2026-06-27T13:28:49.792184,1782577679.6680393,0.0,0.0,-10.583648681640625,0.0,0.0,-5.03075647354126,0.0,0.0,-7.512133476820487e-06
2026-06-27T13:28:49.899440,1782577679.7670414,0.0,0.0,-11.081509590148926,0.0,0.0,-5.026888370513916,0.0,0.0,-6.881671612753057e-06
2026-06-27T13:28:50.013468,1782577679.8750439,0.0,0.0,-11.62421703338623,0.0,0.0,-5.023087978363037,0.0,0.0,-6.193881191996434e-06
2026-06-27T13:28:50.117153,1782577679.977046,0.0,0.0,-12.136415481567383,0.0,0.0,-5.019860744476318,0.0,0.0,-5.544300581183291e-06
2026-06-27T13:28:50.226070,1782577680.0820482,0.0,0.0,-12.663351058959961,0.0,0.0,-5.016869068145752,0.0,0.0,-4.875614658287411e-06
2026-06-27T13:28:50.334790,1782577680.1900506,0.0,0.0,-13.205031394958496,0.0,0.0,-5.014105319976807,0.0,0.0,-4.187823423308791e-06
2026-06-27T13:28:50.445487,1782577680.2950528,0.0,0.0,-13.73139476776123,0.0,0.0,-5.011693477630615,0.0,0.0,-3.519137500412911e-06
2026-06-27T13:28:50.554722,1782577680.400055,0.0,0.0,-14.257516860961914,0.0,0.0,-5.009525299072266,0.0,0.0,-2.85045768418202e-06
2026-06-27T13:28:50.663880,1782577680.5080574,0.0,0.0,-14.798446655273438,0.0,0.0,-5.007522106170654,0.0,0.0,-2.162673777201388e-06
2026-06-27T13:28:50.776622,1782577680.6130595,0.0,0.0,-15.3241548538208,0.0,0.0,-5.00577449798584,0.0,0.0,-1.4939949787479962e-06
2026-06-27T13:28:50.880818,1782577680.7150617,0.0,0.0,-15.834674835205078,0.0,0.0,-5.004245281219482,0.0,0.0,-8.444212379329692e-07
2026-06-27T13:28:50.989868,1782577680.8140638,0.0,0.0,-16.330036163330078,0.0,0.0,-5.002905368804932,0.0,0.0,-2.1395128253443456e-07
2026-06-27T13:28:51.097665,1782577680.913066,0.0,0.0,-16.825273513793945,0.0,0.0,-5.001692295074463,0.0,0.0,3.680840157306508e-07
2026-06-27T13:28:51.206905,1782577681.0210683,0.0,0.0,-17.350400924682617,0.0,0.0,-5.000532627105713,0.0,0.0,7.122545349221878e-07
2026-06-27T13:28:51.315204,1782577681.1260705,0.0,0.0,-17.890411376953125,0.0,0.0,-4.999460697174072,0.0,0.0,8.836762544780906e-07
2026-06-27T13:28:51.424455,1782577681.2310727,0.0,0.0,-18.415313720703125,0.0,0.0,-4.998525619506836,0.0,0.0,9.716846960690564e-07
2026-06-27T13:28:51.533046,1782577681.339075,0.0,0.0,-18.95511817932129,0.0,0.0,-4.99766206741333,0.0,0.0,9.961903355565465e-07
2026-06-27T13:28:51.642488,1782577681.4440773,0.0,0.0,-19.479846954345703,0.0,0.0,-4.996908664703369,0.0,0.0,1.005626659629887e-06
2026-06-27T13:28:51.750703,1782577681.5430794,0.0,0.0,-19.974519729614258,0.0,0.0,-4.996267318725586,0.0,0.0,1.0145237651847507e-06
2026-06-27T13:28:51.860924,1782577681.6480818,0.0,0.0,-20.49910545349121,0.0,0.0,-4.995654106140137,0.0,0.0,1.0239600892580912e-06
2026-06-27T13:28:51.968913,1782577681.750084,0.0,0.0,-21.008642196655273,0.0,0.0,-4.9951171875,0.0,0.0,1.0331268040721934e-06
2026-06-27T13:28:52.077442,1782577681.855086,0.0,0.0,-21.533111572265625,0.0,0.0,-4.994620323181152,0.0,0.0,1.0425631281455339e-06
2026-06-27T13:28:52.187847,1782577681.9600883,0.0,0.0,-22.057538986206055,0.0,0.0,-4.9941725730896,0.0,0.0,1.0519994522188746e-06
2026-06-27T13:28:52.297591,1782577682.0590904,0.0,0.0,-22.551952362060547,0.0,0.0,-4.993792533874512,0.0,0.0,1.0608965577737383e-06
2026-06-27T13:28:52.405175,1782577682.1580925,0.0,0.0,-23.046327590942383,0.0,0.0,-4.993448257446289,0.0,0.0,1.0697936633286023e-06
2026-06-27T13:28:52.512904,1782577682.2600946,0.0,0.0,-23.5556583404541,0.0,0.0,-4.993127822875977,0.0,0.0,1.0789603781427045e-06
2026-06-27T13:28:52.620685,1782577682.365097,0.0,0.0,-24.079927444458008,0.0,0.0,-4.992831230163574,0.0,0.0,1.030005178707868e-06
2026-06-27T13:28:52.730400,1782577682.4700992,0.0,0.0,-24.604171752929688,0.0,0.0,-4.9925642013549805,0.0,0.0,9.735154742325818e-07
2026-06-27T13:28:52.840091,1782577682.5751014,0.0,0.0,-25.128400802612305,0.0,0.0,-4.992323398590088,0.0,0.0,9.170257697572955e-07
2026-06-27T13:28:52.949388,1782577682.6861038,0.0,0.0,-25.682531356811523,0.0,0.0,-4.992096424102783,0.0,0.0,8.573080821691358e-07
2026-06-27T13:28:53.059652,1782577682.794106,0.0,0.0,-26.2216854095459,0.0,0.0,-4.991898059844971,0.0,0.0,7.992061163591594e-07
2026-06-27T13:28:53.167379,1782577682.8991084,0.0,0.0,-26.7458553314209,0.0,0.0,-4.991724967956543,0.0,0.0,7.427181929944948e-07
2026-06-27T13:28:53.276056,1782577683.0041106,0.0,0.0,-27.26996612548828,0.0,0.0,-4.9915690422058105,0.0,0.0,6.862302696298302e-07
2026-06-27T13:28:53.384955,1782577683.112113,0.0,0.0,-27.809051513671875,0.0,0.0,-4.991425037384033,0.0,0.0,6.281284055976036e-07
2026-06-27T13:28:53.494027,1782577683.2141151,0.0,0.0,-28.318187713623047,0.0,0.0,-4.991303443908691,0.0,0.0,5.732544229005009e-07
2026-06-27T13:28:53.603167,1782577683.3221173,0.0,0.0,-28.85727310180664,0.0,0.0,-4.991184234619141,0.0,0.0,5.151525588682744e-07
2026-06-27T13:28:53.710856,1782577683.4271197,0.0,0.0,-29.38136863708496,0.0,0.0,-4.991084098815918,0.0,0.0,4.586646355036097e-07
2026-06-27T13:28:53.820821,1782577683.5261216,0.0,0.0,-29.87546730041504,0.0,0.0,-4.990997791290283,0.0,0.0,4.054045934740688e-07
2026-06-27T13:28:53.929529,1782577683.631124,0.0,0.0,-30.399511337280273,0.0,0.0,-4.990914344787598,0.0,0.0,3.4891667010940417e-07
2026-06-27T13:28:54.038730,1782577683.7391262,0.0,0.0,-30.938528060913086,0.0,0.0,-4.990837574005127,0.0,0.0,2.908148060771777e-07
2026-06-27T13:28:54.147436,1782577683.8471286,0.0,0.0,-31.4775447845459,0.0,0.0,-4.990768909454346,0.0,0.0,2.3271294204495117e-07
2026-06-27T13:28:54.256230,1782577683.9551308,0.0,0.0,-32.01655960083008,0.0,0.0,-4.990705490112305,0.0,0.0,1.7461107801272468e-07
2026-06-27T13:28:54.365480,1782577684.0631332,0.0,0.0,-32.55557632446289,0.0,0.0,-4.990652084350586,0.0,0.0,1.1650921398049819e-07
2026-06-27T13:28:54.474730,1782577684.1681354,0.0,0.0,-33.079620361328125,0.0,0.0,-4.990602016448975,0.0,0.0,6.002110614366202e-08
2026-06-27T13:28:54.583981,1782577684.2761378,0.0,0.0,-33.61863708496094,0.0,0.0,-4.990555286407471,0.0,0.0,1.9190194726078277e-09
2026-06-27T13:28:54.692149,1782577684.37814,0.0,0.0,-34.127708435058594,0.0,0.0,-4.9905195236206055,0.0,0.0,-5.295516996054926e-08
2026-06-27T13:28:54.802373,1782577684.477142,0.0,0.0,-34.606834411621094,0.0,0.0,-4.990488052368164,0.0,0.0,-1.046014716974733e-07
2026-06-27T13:28:54.909048,1782577684.5791442,0.0,0.0,-35.13087844848633,0.0,0.0,-4.99045467376709,0.0,0.0,-1.6108940778435668e-07
2026-06-27T13:28:55.019745,1782577684.6871464,0.0,0.0,-35.66989517211914,0.0,0.0,-4.990421295166016,0.0,0.0,-2.1919128453880188e-07
2026-06-27T13:28:55.128452,1782577684.7951488,0.0,0.0,-36.20891189575195,0.0,0.0,-4.990396976470947,0.0,0.0,-2.772931485710284e-07
2026-06-27T13:28:55.236687,1782577684.897151,0.0,0.0,-36.71798324584961,0.0,0.0,-4.99037504196167,0.0,0.0,-3.3216713126813115e-07
2026-06-27T13:28:55.345382,1782577685.0021532,0.0,0.0,-37.242027282714844,0.0,0.0,-4.990354061126709,0.0,0.0,-3.886550546327958e-07
2026-06-27T13:28:55.455378,1782577685.1101556,0.0,0.0,-37.781044006347656,0.0,0.0,-4.990334987640381,0.0,0.0,-4.467569441094598e-07
2026-06-27T13:28:55.562550,1782577685.2151577,0.0,0.0,-38.30508804321289,0.0,0.0,-4.990318298339844,0.0,0.0,-5.032448674741244e-07
2026-06-27T13:28:55.671995,1782577685.32016,0.0,0.0,-38.829132080078125,0.0,0.0,-4.990301609039307,0.0,0.0,-5.59732790838789e-07
2026-06-27T13:28:55.780718,1782577685.4251623,0.0,0.0,-39.35317611694336,0.0,0.0,-4.9902849197387695,0.0,0.0,-6.162207142034537e-07
2026-06-27T13:28:55.889429,1782577685.5301645,0.0,0.0,-39.877220153808594,0.0,0.0,-4.990269184112549,0.0,0.0,-6.727086375681184e-07
2026-06-27T13:28:55.998661,1782577685.6321666,0.0,0.0,-40.38629150390625,0.0,0.0,-4.990258693695068,0.0,0.0,-7.275826202652211e-07
2026-06-27T13:28:56.106925,1782577685.740169,0.0,0.0,-40.92530822753906,0.0,0.0,-4.9902472496032715,0.0,0.0,-7.856844842974476e-07
2026-06-27T13:28:56.215669,1782577685.8481712,0.0,0.0,-41.464324951171875,0.0,0.0,-4.990237236022949,0.0,0.0,-8.437863483296741e-07
2026-06-27T13:28:56.325280,1782577685.9531734,0.0,0.0,-41.98836898803711,0.0,0.0,-4.990229606628418,0.0,0.0,-9.002756965828361e-07
2026-06-27T13:28:56.432650,1782577686.0551758,0.0,0.0,-42.497440338134766,0.0,0.0,-4.990222930908203,0.0,0.0,-9.551514095016855e-07
2026-06-27T13:28:56.541869,1782577686.163178,0.0,0.0,-43.03645706176758,0.0,0.0,-4.990214824676514,0.0,0.0,-1.0132551055334086e-06
2026-06-27T13:28:56.650565,1782577686.26518,0.0,0.0,-43.545528411865234,0.0,0.0,-4.990208148956299,0.0,0.0,-1.0681308184522582e-06
2026-06-27T13:28:56.760305,1782577686.3701825,0.0,0.0,-44.06957244873047,0.0,0.0,-4.9902024269104,0.0,0.0,-1.1246205229275444e-06
2026-06-27T13:28:56.868863,1782577686.4691844,0.0,0.0,-44.56367111206055,0.0,0.0,-4.990198612213135,0.0,0.0,-1.1778822442899573e-06
2026-06-27T13:28:56.977592,1782577686.5711868,0.0,0.0,-45.0727424621582,0.0,0.0,-4.990193843841553,0.0,0.0,-1.2327579572088067e-06
2026-06-27T13:28:57.086298,1782577686.673189,0.0,0.0,-45.58181381225586,0.0,0.0,-4.990189552307129,0.0,0.0,-1.287633670127656e-06
2026-06-27T13:28:57.195914,1782577686.778191,0.0,0.0,-46.105857849121094,0.0,0.0,-4.990185260772705,0.0,0.0,-1.3441233746029425e-06
2026-06-27T13:28:57.305071,1782577686.8861935,0.0,0.0,-46.644874572753906,0.0,0.0,-4.990180969238281,0.0,0.0,-1.4022270706346657e-06
2026-06-27T13:28:57.413892,1782577686.9881957,0.0,0.0,-47.15394592285156,0.0,0.0,-4.990176677703857,0.0,0.0,-1.457102783553515e-06
2026-06-27T13:28:57.523192,1782577687.0931978,0.0,0.0,-47.6779899597168,0.0,0.0,-4.990172386169434,0.0,0.0,-1.5135924880288015e-06
2026-06-27T13:28:57.630616,1782577687.1892,0.0,0.0,-48.1571159362793,0.0,0.0,-4.990170001983643,0.0,0.0,-1.5652402178347774e-06
2026-06-27T13:28:57.740836,1782577687.297202,0.0,0.0,-48.69613265991211,0.0,0.0,-4.990167140960693,0.0,0.0,-1.6233439138665004e-06
2026-06-27T13:28:57.849099,1782577687.3992043,0.0,0.0,-49.205204010009766,0.0,0.0,-4.990164756774902,0.0,0.0,-1.67821962678535e-06
2026-06-27T13:28:57.957817,1782577687.5072067,0.0,0.0,-49.74422073364258,0.0,0.0,-4.990161418914795,0.0,0.0,-1.736323322817073e-06
2026-06-27T13:28:58.066019,1782577687.6122088,0.0,0.0,-50.26826477050781,0.0,0.0,-4.990159511566162,0.0,0.0,-1.7928130272923593e-06
2026-06-27T13:28:58.174750,1782577687.7202113,0.0,0.0,-50.807281494140625,0.0,0.0,-4.990156650543213,0.0,0.0,-1.8509167233240824e-06
2026-06-27T13:28:58.284467,1782577687.8252134,0.0,0.0,-51.33132553100586,0.0,0.0,-4.99015474319458,0.0,0.0,-1.9074064277993686e-06
2026-06-27T13:28:58.393522,1782577687.9302156,0.0,0.0,-51.855369567871094,0.0,0.0,-4.990154266357422,0.0,0.0,-1.963896132274655e-06
2026-06-27T13:28:58.502232,1782577688.038218,0.0,0.0,-52.39427185058594,0.0,0.0,-4.9901509284973145,0.0,0.0,-2.021999828306378e-06
2026-06-27T13:28:58.610943,1782577688.1402202,0.0,0.0,-52.90321350097656,0.0,0.0,-4.990149021148682,0.0,0.0,-2.0768755412252274e-06
2026-06-27T13:28:58.724698,1782577688.218222,0.0,0.0,-53.29240417480469,0.0,0.0,-4.990147590637207,0.0,0.0,-2.118839321692583e-06
2026-06-27T13:28:58.828321,1782577688.3022237,0.0,0.0,-53.71153259277344,0.0,0.0,-4.990146160125732,0.0,0.0,-2.164031085272812e-06
2026-06-27T13:28:58.937533,1782577688.4072258,0.0,0.0,-54.235443115234375,0.0,0.0,-4.990144729614258,0.0,0.0,-2.2205207897480987e-06
2026-06-27T13:28:59.046735,1782577688.512228,0.0,0.0,-54.75935363769531,0.0,0.0,-4.990141868591309,0.0,0.0,-2.2770104942233847e-06
2026-06-27T13:28:59.156961,1782577688.6142302,0.0,0.0,-55.26829528808594,0.0,0.0,-4.990140438079834,0.0,0.0,-2.331886207142234e-06
2026-06-27T13:28:59.264687,1782577688.7162325,0.0,0.0,-55.77723693847656,0.0,0.0,-4.990138530731201,0.0,0.0,-2.386761920061084e-06
2026-06-27T13:28:59.374774,1782577688.8182347,0.0,0.0,-56.28617858886719,0.0,0.0,-4.990138530731201,0.0,0.0,-2.441637632979933e-06
2026-06-27T13:28:59.480539,1782577688.9172368,0.0,0.0,-56.7801513671875,0.0,0.0,-4.990137577056885,0.0,0.0,-2.4948993543423457e-06
2026-06-27T13:28:59.589917,1782577689.022239,0.0,0.0,-57.30406188964844,0.0,0.0,-4.990137100219727,0.0,0.0,-2.551389058817632e-06
2026-06-27T13:28:59.698108,1782577689.1272411,0.0,0.0,-57.827972412109375,0.0,0.0,-4.990135192871094,0.0,0.0,-2.6078787632929186e-06
2026-06-27T13:28:59.807089,1782577689.2322435,0.0,0.0,-58.35188293457031,0.0,0.0,-4.990132808685303,0.0,0.0,-2.6643684677682054e-06
2026-06-27T13:28:59.916350,1782577689.3372457,0.0,0.0,-58.87579345703125,0.0,0.0,-4.990131378173828,0.0,0.0,-2.7208581722434914e-06
2026-06-27T13:29:00.025534,1782577689.4422479,0.0,0.0,-59.39970397949219,0.0,0.0,-4.9901299476623535,0.0,0.0,-2.777347876718778e-06
2026-06-27T13:29:00.134224,1782577689.5472503,0.0,0.0,-59.923614501953125,0.0,0.0,-4.990129470825195,0.0,0.0,-2.833837581194064e-06
2026-06-27T13:29:00.242945,1782577689.6522524,0.0,0.0,-60.44752502441406,0.0,0.0,-4.990128517150879,0.0,0.0,-2.8903272856693503e-06
2026-06-27T13:29:00.352127,1782577689.7602546,0.0,0.0,-60.98640441894531,0.0,0.0,-4.9901275634765625,0.0,0.0,-2.9484309817010736e-06
2026-06-27T13:29:00.461800,1782577689.865257,0.0,0.0,-61.51031494140625,0.0,0.0,-4.990126609802246,0.0,0.0,-3.0049206861763596e-06
2026-06-27T13:29:00.569486,1782577689.9732592,0.0,0.0,-62.0491943359375,0.0,0.0,-4.9901251792907715,0.0,0.0,-3.0630243822080833e-06
2026-06-27T13:29:00.679049,1782577690.0752614,0.0,0.0,-62.558135986328125,0.0,0.0,-4.9901251792907715,0.0,0.0,-3.117900095126933e-06
2026-06-27T13:29:00.786782,1782577690.1742635,0.0,0.0,-63.05210876464844,0.0,0.0,-4.990123271942139,0.0,0.0,-3.1711618164893455e-06
2026-06-27T13:29:00.894687,1782577690.282266,0.0,0.0,-63.59098815917969,0.0,0.0,-4.990121841430664,0.0,0.0,-3.2292655125210684e-06
2026-06-27T13:29:01.004900,1782577690.387268,0.0,0.0,-64.11489868164062,0.0,0.0,-4.990119934082031,0.0,0.0,-3.2857552169963552e-06
2026-06-27T13:29:01.114164,1782577690.4952705,0.0,0.0,-64.65377807617188,0.0,0.0,-4.990118980407715,0.0,0.0,-3.343858913028078e-06
2026-06-27T13:29:01.223915,1782577690.5942726,0.0,0.0,-65.14775085449219,0.0,0.0,-4.990118026733398,0.0,0.0,-3.3971206343904912e-06
2026-06-27T13:29:01.331967,1782577690.7022748,0.0,0.0,-65.68663024902344,0.0,0.0,-4.99011754989624,0.0,0.0,-3.4552194450902235e-06
2026-06-27T13:29:01.439682,1782577690.807277,0.0,0.0,-66.21054077148438,0.0,0.0,-4.990116119384766,0.0,0.0,-3.5117020251230233e-06
2026-06-27T13:29:01.548751,1782577690.9122794,0.0,0.0,-66.73445129394531,0.0,0.0,-4.990114688873291,0.0,0.0,-3.568184605155823e-06
2026-06-27T13:29:01.657992,1782577691.0142815,0.0,0.0,-67.24339294433594,0.0,0.0,-4.990114688873291,0.0,0.0,-3.6230533971876855e-06
2026-06-27T13:29:01.766764,1782577691.1162837,0.0,0.0,-67.75233459472656,0.0,0.0,-4.990113735198975,0.0,0.0,-3.677922189219549e-06
2026-06-27T13:29:01.875499,1782577691.2212858,0.0,0.0,-68.2762451171875,0.0,0.0,-4.990112781524658,0.0,0.0,-3.734404769252348e-06
2026-06-27T13:29:01.984237,1782577691.323288,0.0,0.0,-68.78518676757812,0.0,0.0,-4.990111351013184,0.0,0.0,-3.7892735612842117e-06
2026-06-27T13:29:02.092577,1782577691.4282904,0.0,0.0,-69.30909729003906,0.0,0.0,-4.990109443664551,0.0,0.0,-3.845756141317011e-06
2026-06-27T13:29:02.201832,1782577691.5242925,0.0,0.0,-69.78810119628906,0.0,0.0,-4.990108966827393,0.0,0.0,-3.8973973573469995e-06
2026-06-27T13:29:02.310551,1782577691.6292946,0.0,0.0,-70.31201171875,0.0,0.0,-4.990108013153076,0.0,0.0,-3.953879937379799e-06
2026-06-27T13:29:02.419719,1782577691.7342968,0.0,0.0,-70.83592224121094,0.0,0.0,-4.990107536315918,0.0,0.0,-4.010362517412599e-06
2026-06-27T13:29:02.528903,1782577691.833299,0.0,0.0,-71.32989501953125,0.0,0.0,-4.990106582641602,0.0,0.0,-4.063617521443526e-06
2026-06-27T13:29:02.638417,1782577691.938301,0.0,0.0,-71.85380554199219,0.0,0.0,-4.990105152130127,0.0,0.0,-4.120100101476326e-06
2026-06-27T13:29:02.746143,1782577692.0403035,0.0,0.0,-72.36274719238281,0.0,0.0,-4.9901041984558105,0.0,0.0,-4.174968893508188e-06
2026-06-27T13:29:02.857384,1782577692.1453056,0.0,0.0,-72.88665771484375,0.0,0.0,-4.990103244781494,0.0,0.0,-4.231451473540988e-06
2026-06-27T13:29:02.964663,1782577692.2503078,0.0,0.0,-73.41056823730469,0.0,0.0,-4.990102291107178,0.0,0.0,-4.2879340535737876e-06
2026-06-27T13:29:03.074957,1782577692.35231,0.0,0.0,-73.91950988769531,0.0,0.0,-4.990100383758545,0.0,0.0,-4.342802845605651e-06
2026-06-27T13:29:03.182184,1782577692.454312,0.0,0.0,-74.42845153808594,0.0,0.0,-4.990100383758545,0.0,0.0,-4.397671637637513e-06
2026-06-27T13:29:03.290872,1782577692.5623145,0.0,0.0,-74.96733093261719,0.0,0.0,-4.9900994300842285,0.0,0.0,-4.45576800567125e-06
2026-06-27T13:29:03.400835,1782577692.6673167,0.0,0.0,-75.49124145507812,0.0,0.0,-4.990098476409912,0.0,0.0,-4.51225058570405e-06
2026-06-27T13:29:03.509598,1782577692.772319,0.0,0.0,-76.01515197753906,0.0,0.0,-4.990097522735596,0.0,0.0,-4.568733165736851e-06
2026-06-27T13:29:03.617685,1782577692.8803213,0.0,0.0,-76.55403137207031,0.0,0.0,-4.990096569061279,0.0,0.0,-4.626829533770586e-06
2026-06-27T13:29:03.726408,1782577692.9853234,0.0,0.0,-77.07794189453125,0.0,0.0,-4.9900946617126465,0.0,0.0,-4.683312113803388e-06
2026-06-27T13:29:03.835340,1782577693.0873258,0.0,0.0,-77.58688354492188,0.0,0.0,-4.9900946617126465,0.0,0.0,-4.73818090583525e-06
2026-06-27T13:29:03.944098,1782577693.189328,0.0,0.0,-78.0958251953125,0.0,0.0,-4.99009370803833,0.0,0.0,-4.793049697867113e-06
2026-06-27T13:29:04.053622,1782577693.2973301,0.0,0.0,-78.63470458984375,0.0,0.0,-4.990092754364014,0.0,0.0,-4.85114606590085e-06
2026-06-27T13:29:04.162308,1782577693.4023323,0.0,0.0,-79.15861511230469,0.0,0.0,-4.990091800689697,0.0,0.0,-4.90762864593365e-06
2026-06-27T13:29:04.271935,1782577693.5073347,0.0,0.0,-79.68252563476562,0.0,0.0,-4.990090370178223,0.0,0.0,-4.96411122596645e-06
2026-06-27T13:29:04.378646,1782577693.6123369,0.0,0.0,-80.20643615722656,0.0,0.0,-4.990088939666748,0.0,0.0,-5.02059380599925e-06
2026-06-27T13:29:04.491582,1782577693.7233393,0.0,0.0,-80.76028442382812,0.0,0.0,-4.990087985992432,0.0,0.0,-5.080303962033925e-06
2026-06-27T13:29:04.597320,1782577693.8253415,0.0,0.0,-81.26922607421875,0.0,0.0,-4.990087509155273,0.0,0.0,-5.135172754065787e-06
2026-06-27T13:29:04.706537,1782577693.9303436,0.0,0.0,-81.79313659667969,0.0,0.0,-4.990086078643799,0.0,0.0,-5.191655334098587e-06
2026-06-27T13:29:04.814780,1782577694.035346,0.0,0.0,-82.31704711914062,0.0,0.0,-4.990085601806641,0.0,0.0,-5.248137914131387e-06
2026-06-27T13:29:04.924003,1782577694.1433482,0.0,0.0,-82.85592651367188,0.0,0.0,-4.990084648132324,0.0,0.0,-5.306234282165125e-06
2026-06-27T13:29:05.033050,1782577694.2513506,0.0,0.0,-83.39480590820312,0.0,0.0,-4.990083694458008,0.0,0.0,-5.364330650198862e-06
2026-06-27T13:29:05.140816,1782577694.3593528,0.0,0.0,-83.93368530273438,0.0,0.0,-4.990082740783691,0.0,0.0,-5.422427018232598e-06
2026-06-27T13:29:05.250921,1782577694.4673553,0.0,0.0,-84.47256469726562,0.0,0.0,-4.990081310272217,0.0,0.0,-5.480523386266336e-06
2026-06-27T13:29:05.360088,1782577694.5723574,0.0,0.0,-84.99647521972656,0.0,0.0,-4.990079879760742,0.0,0.0,-5.537005966299136e-06
2026-06-27T13:29:05.467877,1782577694.6803596,0.0,0.0,-85.53535461425781,0.0,0.0,-4.990078926086426,0.0,0.0,-5.595102334332873e-06
2026-06-27T13:29:05.576071,1782577694.788362,0.0,0.0,-86.07423400878906,0.0,0.0,-4.990077972412109,0.0,0.0,-5.65319870236661e-06
2026-06-27T13:29:05.684803,1782577694.8963642,0.0,0.0,-86.61311340332031,0.0,0.0,-4.990076541900635,0.0,0.0,-5.711295070400348e-06
2026-06-27T13:29:05.794536,1782577695.0043666,0.0,0.0,-87.15199279785156,0.0,0.0,-4.990075588226318,0.0,0.0,-5.769391438434085e-06
2026-06-27T13:29:05.904774,1782577695.1033688,0.0,0.0,-87.64596557617188,0.0,0.0,-4.990074634552002,0.0,0.0,-5.822646442465011e-06
2026-06-27T13:29:06.012993,1782577695.208371,0.0,0.0,-88.16987609863281,0.0,0.0,-4.990074157714844,0.0,0.0,-5.87912902249781e-06
2026-06-27T13:29:06.120732,1782577695.313373,0.0,0.0,-88.69378662109375,0.0,0.0,-4.990073204040527,0.0,0.0,-5.935611602530611e-06
2026-06-27T13:29:06.228749,1782577695.4213755,0.0,0.0,-89.232666015625,0.0,0.0,-4.990072250366211,0.0,0.0,-5.993707970564348e-06
2026-06-27T13:29:06.338399,1782577695.5263777,0.0,0.0,-89.75657653808594,0.0,0.0,-4.990070819854736,0.0,0.0,-6.050190550597149e-06
2026-06-27T13:29:06.446154,1782577695.6283798,0.0,0.0,-90.26551818847656,0.0,0.0,-4.990070343017578,0.0,0.0,-6.105059342629011e-06
2026-06-27T13:29:06.556556,1782577695.7363822,0.0,0.0,-90.80439758300781,0.0,0.0,-4.990069389343262,0.0,0.0,-6.163155710662748e-06
2026-06-27T13:29:06.665283,1782577695.8413844,0.0,0.0,-91.32830810546875,0.0,0.0,-4.9900689125061035,0.0,0.0,-6.219638290695548e-06
2026-06-27T13:29:06.772489,1782577695.9463866,0.0,0.0,-91.85221862792969,0.0,0.0,-4.990067481994629,0.0,0.0,-6.276120870728349e-06
2026-06-27T13:29:06.881712,1782577696.051389,0.0,0.0,-92.37612915039062,0.0,0.0,-4.9900665283203125,0.0,0.0,-6.332603450761149e-06
2026-06-27T13:29:06.990959,1782577696.1563911,0.0,0.0,-92.90003967285156,0.0,0.0,-4.990065574645996,0.0,0.0,-6.3890860307939484e-06
2026-06-27T13:29:07.099684,1782577696.2583933,0.0,0.0,-93.40898132324219,0.0,0.0,-4.9900641441345215,0.0,0.0,-6.4439548228258125e-06
2026-06-27T13:29:07.209922,1782577696.3663957,0.0,0.0,-93.94786071777344,0.0,0.0,-4.990063190460205,0.0,0.0,-6.502051190859549e-06
2026-06-27T13:29:07.318650,1782577696.4683979,0.0,0.0,-94.45680236816406,0.0,0.0,-4.990062713623047,0.0,0.0,-6.556919982891412e-06
2026-06-27T13:29:07.427354,1782577696.5734,0.0,0.0,-94.980712890625,0.0,0.0,-4.990061283111572,0.0,0.0,-6.613402562924212e-06
2026-06-27T13:29:07.534819,1782577696.6754022,0.0,0.0,-95.48965454101562,0.0,0.0,-4.990059852600098,0.0,0.0,-6.668271354956075e-06
2026-06-27T13:29:07.644061,1782577696.7834046,0.0,0.0,-96.02853393554688,0.0,0.0,-4.990058898925781,0.0,0.0,-6.726367722989812e-06
2026-06-27T13:29:07.756294,1782577696.8914068,0.0,0.0,-96.56741333007812,0.0,0.0,-4.990056991577148,0.0,0.0,-6.78446409102355e-06
2026-06-27T13:29:07.861478,1782577696.993409,0.0,0.0,-97.07635498046875,0.0,0.0,-4.990056991577148,0.0,0.0,-6.839332883055413e-06
2026-06-27T13:29:07.970245,1782577697.0954113,0.0,0.0,-97.58529663085938,0.0,0.0,-4.99005651473999,0.0,0.0,-6.894201675087276e-06
2026-06-27T13:29:08.078452,1782577697.179413,0.0,0.0,-98.00442504882812,0.0,0.0,-4.990055561065674,0.0,0.0,-6.939387739113516e-06
2026-06-27T13:29:08.188079,1782577697.2874153,0.0,0.0,-98.54330444335938,0.0,0.0,-4.990054130554199,0.0,0.0,-6.997484107147252e-06
2026-06-27T13:29:08.296937,1782577697.3954177,0.0,0.0,-99.06721496582031,0.0,0.0,-4.990053653717041,0.0,0.0,-7.053966687180054e-06
2026-06-27T13:29:08.405626,1782577697.5034199,0.0,0.0,-99.62106323242188,0.0,0.0,-4.990052223205566,0.0,0.0,-7.113676843214728e-06
2026-06-27T13:29:08.514299,1782577697.608422,1.3662469766639873e-10,-4.340295484128731e-11,-100.14490509033203,1.247873910870112e-07,-3.964539274647905e-08,-4.973675727844238,-0.00027650431232193633,-0.0008705919107337928,-0.009459704055403955
2026-06-27T13:29:08.622986,1782577697.7164245,3.879655560012907e-05,-1.1307870408927556e-05,-100.67333984375,0.0014782160287722945,-0.0004234069783706218,-4.851688385009766,-0.06466917445042729,-0.2603199031293672,-1.732566217794576
2026-06-27T13:29:08.731732,1782577697.8244267,0.0006453650421462953,-0.0001816845324356109,-101.20063781738281,0.011949433945119381,-0.003335060551762581,-4.944631099700928,-0.1472981013602368,-0.8509415561125284,-5.626848663775914
2026-06-27T13:29:08.840436,1782577697.929429,0.0029442114755511284,-0.0008193566463887691,-101.72383117675781,0.03360363468527794,-0.009286855347454548,-4.998943328857422,-0.1393595599085153,-1.5739817443510897,-10.241254162856665
2026-06-27T13:29:08.949431,1782577698.0344312,0.008126783184707165,-0.002245659474283457,-102.248779296875,0.06727652996778488,-0.018455615267157555,-4.997584342956543,-0.030872753743269848,-2.353431049425228,-14.412398148212596
2026-06-27T13:29:09.060153,1782577698.1424336,0.01787763275206089,-0.004910195246338844,-102.78807830810547,0.11561645567417145,-0.03149332478642464,-4.988426208496094,0.13103247765515066,-3.144563931919172,-17.413890289620607
2026-06-27T13:29:09.167403,1782577698.2444358,0.032539039850234985,-0.00889071449637413,-103.2962875366211,0.17386743426322937,-0.04707338288426399,-4.975578308105469,0.26203531374191374,-3.8725039226538964,-18.796183303296143
2026-06-27T13:29:09.276920,1782577698.352438,0.05522590130567551,-0.015014516189694405,-103.83269500732422,0.24839329719543457,-0.06687956303358078,-4.9565911293029785,0.32615778623225583,-4.62847810200281,-18.88599025042838
2026-06-27T13:29:09.385004,1782577698.4574401,0.08564868569374084,-0.02318675071001053,-104.35191345214844,0.33300262689590454,-0.08927609026432037,-4.932042121887207,0.30050604292705474,-5.338699664278583,-18.03108608462853
2026-06-27T13:29:09.494729,1782577698.5624425,0.12554538249969482,-0.033863481134176254,-104.8681640625,0.42872104048728943,-0.11455607414245605,-4.899612903594971,0.20467809390808467,-6.0234202756499355,-16.736222898038616
2026-06-27T13:29:09.603419,1782577698.6704447,0.17765328288078308,-0.04776792973279953,-105.3951187133789,0.5379999279975891,-0.14339762926101685,-4.856784343719482,0.07129435011202435,-6.699495351827797,-15.396524601521387
2026-06-27T13:29:09.712125,1782577698.7754471,0.24015280604362488,-0.0644109919667244,-105.90241241455078,0.6540379524230957,-0.17403100430965424,-4.80427360534668,-0.05185613704895287,-7.3375686618618765,-14.386957495784506
2026-06-27T13:29:09.820830,1782577698.8834493,0.3176605999469757,-0.0850214809179306,-106.41785430908203,0.782754123210907,-0.20803581178188324,-4.738447189331055,-0.1402262973289269,-7.9618466609682965,-13.792539731245899
2026-06-27T13:29:09.930542,1782577698.9854515,0.40403446555137634,-0.1079682856798172,-106.89739990234375,0.9121667742729187,-0.24225345253944397,-4.6626739501953125,-0.17469768996906002,-8.543902620904774,-13.640378022319373
2026-06-27T13:29:10.038385,1782577699.093454,0.5102951526641846,-0.13618133962154388,-107.39598846435547,1.0567930936813354,-0.28052419424057007,-4.567846298217773,-0.16118351346408688,-9.129278408250611,-13.810982728868458
2026-06-27T13:29:10.147122,1782577699.201456,0.6325427293777466,-0.1686263382434845,-107.88337707519531,1.2080600261688232,-0.3205803632736206,-4.45455265045166,-0.1115752056329836,-9.701666671471758,-14.173496928319901
2026-06-27T13:29:10.255778,1782577699.3064585,0.7673651576042175,-0.20440039038658142,-108.34452819824219,1.360748291015625,-0.3610350489616394,-4.325679302215576,-0.04855816792674181,-10.239378176875796,-14.569170975262562
2026-06-27T13:29:10.365472,1782577699.4174607,0.9275843501091003,-0.2469073385000229,-108.81597900390625,1.526769995689392,-0.4050407409667969,-4.164671421051025,0.013430485344579622,-10.806386294498344,-14.919710307501083
2026-06-27T13:29:10.474319,1782577699.525463,1.1013598442077637,-0.2930072546005249,-109.25609588623047,1.6916227340698242,-0.4487496316432953,-3.979964017868042,0.05541914520629599,-11.361342666123264,-15.133626656909737
2026-06-27T13:29:10.582848,1782577699.6334653,1.2930512428283691,-0.34385788440704346,-109.67452239990234,1.8582053184509277,-0.49292561411857605,-3.7622199058532715,0.07362226362166492,-11.921383359212902,-15.211519551839428
2026-06-27T13:29:10.691970,1782577699.7384677,1.4966012239456177,-0.3978530168533325,-110.0564193725586,2.0181734561920166,-0.535352349281311,-3.5029869079589844,0.0702466511887849,-12.517605448153176,-15.180911472584405
2026-06-27T13:29:10.800764,1782577699.8374696,1.703636646270752,-0.4527721405029297,-110.38861083984375,2.1624233722686768,-0.5736125111579895,-3.193875551223755,0.05353703436266068,-13.176216020183114,-15.092203110633147
2026-06-27T13:29:10.910461,1782577699.945472,1.944838285446167,-0.5167539715766907,-110.70990753173828,2.2977631092071533,-0.609510600566864,-2.721714496612549,0.0279156007548395,-14.140879233657394,-14.971520924953836
2026-06-27T13:29:11.018653,1782577700.0534742,2.1992294788360596,-0.5842342972755432,-110.97193908691406,2.42956280708313,-0.6444722414016724,-2.188476324081421,0.0011626468823555446,-15.168400729962443,-14.861865560331113
2026-06-27T13:29:11.127287,1782577700.1584766,2.465909481048584,-0.6549747586250305,-111.19229888916016,2.6550981998443604,-0.7043053507804871,-2.030827760696411,-0.01792173154851912,-14.951758351847387,-14.788080599379283
2026-06-27T13:29:11.236022,1782577700.2634788,2.756736993789673,-0.7321215867996216,-111.39962768554688,2.8817272186279297,-0.7644314765930176,-1.9186084270477295,-0.0249113962933754,-14.011327654444745,-14.75419725746107
2026-06-27T13:29:11.344930,1782577700.368481,3.0704221725463867,-0.8153330683708191,-111.59528350830078,3.0897464752197266,-0.8196213841438293,-1.808882713317871,-0.02238695930578354,-12.76567196841193,-14.755130317485605
2026-06-27T13:29:11.453998,1782577700.4734833,3.404888391494751,-0.9040578007698059,-111.77983856201172,3.27754545211792,-0.8694461584091187,-1.708501935005188,-0.015237528993077109,-11.440312104471307,-14.77915828294349
2026-06-27T13:29:11.563299,1782577700.5784855,3.758023500442505,-0.9977354407310486,-111.95453643798828,3.445415496826172,-0.9139814972877502,-1.6216785907745361,-0.0075266890472017465,-10.1530278299129,-14.81314714503913
2026-06-27T13:29:11.674581,1782577700.686488,4.138560771942139,-1.0986825227737427,-112.1255111694336,3.5981574058532715,-0.9545004367828369,-1.546874761581421,-0.0014181288260337714,-8.928534434233482,-14.846943345675577
2026-06-27T13:29:11.780800,1782577700.78549,4.5010175704956055,-1.1948331594467163,-112.2757339477539,3.7215042114257812,-0.9872194528579712,-1.4895799160003662,0.0018931096079603529,-7.916701478242366,-14.870328074877436
2026-06-27T13:29:11.889277,1782577700.8874922,4.886446952819824,-1.2970775365829468,-112.42508697509766,3.833319664001465,-1.0168781280517578,-1.4401867389678955,0.0032611373676583654,-6.988837688591399,-14.884122311726557
2026-06-27T13:29:11.998011,1782577700.9864943,5.270763397216797,-1.3990263938903809,-112.56558990478516,3.9283854961395264,-1.0420933961868286,-1.3994739055633545,0.003206556843184923,-6.1961896355044965,-14.887864632134626
2026-06-27T13:29:12.107328,1782577701.0854964,5.6638922691345215,-1.5033133029937744,-112.70237731933594,4.01162052154541,-1.0641709566116333,-1.3645259141921997,0.0024182780497642785,-5.5018792077318555,-14.884265137745135
2026-06-27T13:29:12.215425,1782577701.1904986,6.089252948760986,-1.6161491870880127,-112.84391784667969,4.088461875915527,-1.0845544338226318,-1.3323314189910889,0.0013410426964387673,-4.862456676791937,-14.875764735151895
2026-06-27T13:29:12.324111,1782577701.2925007,6.509665489196777,-1.727672815322876,-112.97836303710938,4.1532111167907715,-1.1017322540283203,-1.3046194314956665,0.00041012390766308383,-4.326370691245997,-14.86614023024775
2026-06-27T13:29:12.434328,1782577701.4005032,6.9615044593811035,-1.8475338220596313,-113.1178207397461,4.21254825592041,-1.117477536201477,-1.2782855033874512,-0.00027236953232470966,-3.8386373263782154,-14.857245418515964
2026-06-27T13:29:12.542011,1782577701.5055053,7.406509876251221,-1.9655817747116089,-113.25079345703125,4.262368202209473,-1.130699634552002,-1.2547805309295654,-0.0006147567592754173,-3.4331868115793602,-14.851410212950064
2026-06-27T13:29:12.652227,1782577701.6105075,7.856388092041016,-2.08492374420166,-113.38138580322266,4.30551290512085,-1.1421514749526978,-1.2328015565872192,-0.0006993668308680902,-3.0860827581513863,-14.84878163269034
2026-06-27T13:29:12.760447,1782577701.7095096,8.284436225891113,-2.1984751224517822,-113.5024642944336,4.340933322906494,-1.151553988456726,-1.2133710384368896,-0.0006264405124354745,-2.80464031005969,-14.848852656629381
2026-06-27T13:29:12.870456,1782577701.8145118,8.742003440856934,-2.319856882095337,-113.62882995605469,4.373687267303467,-1.1602486371994019,-1.1936315298080444,-0.00047638589285738933,-2.548282486897606,-14.850772605689048
2026-06-27T13:29:12.977327,1782577701.9105139,9.163172721862793,-2.431584119796753,-113.7425765991211,4.399886608123779,-1.1672033071517944,-1.1761220693588257,-0.00032723512651854536,-2.3467796118525155,-14.853322104685267
2026-06-27T13:29:13.087597,1782577702.009516,9.599973678588867,-2.547459125518799,-113.85814666748047,4.42368221282959,-1.1735196113586426,-1.158836007118225,-0.00019467452972348986,-2.166984963309593,-14.8559801742286
2026-06-27T13:29:13.194471,1782577702.1145182,10.065659523010254,-2.670996904373169,-113.9788589477539,4.445816993713379,-1.1793938875198364,-1.1407415866851807,-9.706799340082792e-05,-2.003308421548604,-14.85824127067864
2026-06-27T13:29:13.304690,1782577702.2195206,10.53352165222168,-2.795111656188965,-114.09768676757812,4.465212821960449,-1.1845413446426392,-1.1230467557907104,-4.5745391505294204e-05,-1.8634234105675467,-14.859618310807791
2026-06-27T13:29:13.412536,1782577702.3275228,11.016739845275879,-2.9233007431030273,-114.218017578125,4.482719898223877,-1.189186692237854,-1.1051424741744995,-3.856973448026504e-05,-1.7406853085783143,-14.860094183451151
2026-06-27T13:29:13.521727,1782577702.4325252,11.488238334655762,-3.0483813285827637,-114.33316040039062,4.497707366943359,-1.1931641101837158,-1.0880204439163208,-5.139500877162763e-05,-1.6387990454810826,-14.859832601921198
2026-06-27T13:29:13.630921,1782577702.5375273,11.96121883392334,-3.1738548278808594,-114.4465103149414,4.510979652404785,-1.1966863870620728,-1.0710978507995605,-7.284654848869824e-05,-1.5516767957311006,-14.859152408334335
2026-06-27T13:29:13.740207,1782577702.6335294,12.394811630249023,-3.288879871368408,-114.54859924316406,4.521818161010742,-1.1995635032653809,-1.055745244026184,-9.286374593044222e-05,-1.4830891601637424,-14.858413072834235
2026-06-27T13:29:13.848458,1782577702.7385316,12.870180130004883,-3.4149882793426514,-114.6585922241211,4.532456874847412,-1.2023879289627075,-1.039245843887329,-0.00011021005021357274,-1.418234954855073,-14.857682419789539
2026-06-27T13:29:13.956952,1782577702.8405337,13.332982063293457,-3.53776216506958,-114.7637710571289,4.541731357574463,-1.2048505544662476,-1.0232148170471191,-0.00012222156987834728,-1.364189904471936,-14.857187218764818
2026-06-27T13:29:14.066154,1782577702.9395359,13.78303337097168,-3.657153844833374,-114.86431884765625,4.549877643585205,-1.2070132493972778,-1.0078967809677124,-0.00012300028361224535,-1.318792802020067,-14.856949484785522
2026-06-27T13:29:14.175241,1782577703.038538,14.23385238647461,-3.7767491340637207,-114.9633560180664,4.55728816986084,-1.2089807987213135,-0.9927161335945129,-0.00012029384211312975,-1.2794300004910306,-14.856923863135908
2026-06-27T13:29:14.285394,1782577703.1435401,14.712760925292969,-3.9037957191467285,-115.0667495727539,4.564446926116943,-1.2108817100524902,-0.9767018556594849,-0.0001169323099005713,-1.2433006599409393,-14.857066651610737
2026-06-27T13:29:14.393165,1782577703.2425423,15.164960861206055,-4.0237579345703125,-115.1626968383789,4.570624828338623,-1.2125225067138672,-0.9616902470588684,-0.00011191727815580552,-1.2138146509255803,-14.857311159004178
2026-06-27T13:29:14.500833,1782577703.3475447,15.645207405090332,-4.151161193847656,-115.26284790039062,4.576651096343994,-1.214123249053955,-0.9460135698318481,-0.00010656407580412581,-1.1866053669719194,-14.857579483690365
2026-06-27T13:29:14.611977,1782577703.4555469,16.13981056213379,-4.282371997833252,-115.36414337158203,4.582354545593262,-1.2156379222869873,-0.9299144744873047,-0.00010115067923451335,-1.1625059877996549,-14.857786773584598
2026-06-27T13:29:14.720665,1782577703.5635493,16.635005950927734,-4.413740158081055,-115.46371459960938,4.587624549865723,-1.2170376777648926,-0.9140448570251465,-9.35684080443906e-05,-1.1415927627495448,-14.857916096683919
2026-06-27T13:29:14.828844,1782577703.6625514,17.08941650390625,-4.534289360046387,-115.55348205566406,4.5921173095703125,-1.2182317972183228,-0.8994888067245483,-9.334767164275286e-05,-1.1248613713110052,-14.857965959354514
2026-06-27T13:29:14.937623,1782577703.7615535,17.54425048828125,-4.6549530029296875,-115.6418228149414,4.5963311195373535,-1.2193511724472046,-0.8851261138916016,-9.312592664794189e-05,-1.1101176703074036,-14.8579601332312
2026-06-27T13:29:15.045877,1782577703.8665557,18.027099609375,-4.783046722412109,-115.73397064208984,4.600527763366699,-1.220465898513794,-0.8699781894683838,-9.400479009888239e-05,-1.096373505392963,-14.857931027369103
2026-06-27T13:29:15.154987,1782577703.9685578,18.49656105041504,-4.907589912414551,-115.82196044921875,4.604368209838867,-1.2214865684509277,-0.8554884791374207,-9.497286159307374e-05,-1.0845804055974357,-14.857871264007096
2026-06-27T13:29:15.264305,1782577704.07356,18.980228424072266,-5.0359015464782715,-115.91099548339844,4.6081013679504395,-1.2224788665771484,-0.8406875133514404,-9.538724222970969e-05,-1.0737819566862057,-14.857866745207568
2026-06-27T13:29:15.374053,1782577704.1815624,19.478111267089844,-5.167984485626221,-116.00098419189453,4.611733436584473,-1.2234441041946411,-0.8255692720413208,-9.558761025410013e-05,-1.0639102875863033,-14.857876986102239
2026-06-27T13:29:15.480406,1782577704.2865646,19.96253204345703,-5.2964959144592285,-116.08690643310547,4.615082740783691,-1.2243345975875854,-0.8109682202339172,-9.356251038754296e-05,-1.0554145905208745,-14.857885504986044
2026-06-27T13:29:15.589084,1782577704.3885667,20.433439254760742,-5.421422958374023,-116.16890716552734,4.618187427520752,-1.225159764289856,-0.7970132827758789,-9.407828881769245e-05,-1.0479913596323847,-14.85789407126871
2026-06-27T13:29:15.698448,1782577704.4965692,20.93238639831543,-5.553788185119629,-116.25419616699219,4.6213250160217285,-1.2259936332702637,-0.7823501825332642,-9.39875738094953e-05,-1.0408362285504813,-14.857900787040768
2026-06-27T13:29:15.805925,1782577704.6015713,21.417787551879883,-5.68256139755249,-116.33560180664062,4.624238967895508,-1.2267686128616333,-0.7682364583015442,-9.371620106744475e-05,-1.0345352353463715,-14.857906991318298
2026-06-27T13:29:15.924660,1782577704.7035735,21.889612197875977,-5.807731628417969,-116.41326904296875,4.626955509185791,-1.2274906635284424,-0.7546803951263428,-9.365914183903434e-05,-1.0289376915087365,-14.857914901062767
2026-06-27T13:29:16.025381,1782577704.775575,22.22282600402832,-5.896130561828613,-116.4672622680664,4.628808498382568,-1.2279834747314453,-0.7451737523078918,-9.365175784255432e-05,-1.0252627501780445,-14.857916871691256
2026-06-27T13:29:16.134096,1782577704.8775773,22.695104598999023,-6.021422386169434,-116.54258728027344,4.631349086761475,-1.2286587953567505,-0.7318306565284729,-9.363532968056636e-05,-1.0203702919014552,-14.857923902505632
2026-06-27T13:29:16.241841,1782577704.9855795,23.19544219970703,-6.1541571617126465,-116.62088012695312,4.633937835693359,-1.2293469905853271,-0.7179434299468994,-8.41818404242683e-05,-1.015548660716247,-14.857928627882194
2026-06-27T13:29:16.350562,1782577705.0905817,23.68214225769043,-6.283275604248047,-116.695556640625,4.63635778427124,-1.229990839958191,-0.7044745683670044,-7.085800653744926e-05,-1.0112117472044917,-14.857954680024656
2026-06-27T13:29:16.459272,1782577705.195584,24.169095993041992,-6.412459850311279,-116.76882934570312,4.6386919021606445,-1.2306115627288818,-0.6912087798118591,-6.606202130278761e-05,-1.0071516273311623,-14.858015466161696
2026-06-27T13:29:16.568978,1782577705.3035862,24.670209884643555,-6.545402526855469,-116.84275817871094,4.641008377075195,-1.231227159500122,-0.6777588725090027,-6.611970265249194e-05,-1.0032118735417053,-14.858019623561214
2026-06-27T13:29:16.677925,1782577705.3995883,25.11585235595703,-6.663628578186035,-116.90725708007812,4.642999172210693,-1.2317560911178589,-0.6658886671066284,-6.598530519887848e-05,-0.9998810475855322,-14.858022575565611
2026-06-27T13:29:16.786123,1782577705.4955904,25.561681747436523,-6.781904220581055,-116.97061157226562,4.644927978515625,-1.2322688102722168,-0.6542261838912964,-6.586877327331029e-05,-0.9967115740674038,-14.858025911994343
2026-06-27T13:29:16.895861,1782577705.5945926,26.021636962890625,-6.903926849365234,-117.03478240966797,4.646855354309082,-1.2327815294265747,-0.6423148512840271,-6.68406827019309e-05,-0.9935415981292216,-14.858029260340372
2026-06-27T13:29:17.004585,1782577705.6995947,26.509672164916992,-7.033398628234863,-117.10154724121094,4.648831844329834,-1.2333070039749146,-0.6296705007553101,-6.654711795315533e-05,-0.990435502784677,-14.858032783704207
2026-06-27T13:29:17.117502,1782577705.804597,26.99791145324707,-7.162926197052002,-117.16703033447266,4.650746822357178,-1.233816385269165,-0.6174528002738953,-6.649417649637336e-05,-0.9873003169897225,-14.858033658786056
2026-06-27T13:29:17.227684,1782577705.900599,27.444475173950195,-7.281396389007568,-117.22577667236328,4.652440547943115,-1.234266996383667,-0.6063161492347717,-6.594984314363246e-05,-0.984584676049341,-14.858052982944832
2026-06-27T13:29:17.330909,1782577705.996601,27.891197204589844,-7.3999104499816895,-117.28345489501953,4.654084205627441,-1.2347041368484497,-0.5953351259231567,-6.523821792434247e-05,-0.9819714833336888,-14.85809615229705
2026-06-27T13:29:17.439654,1782577706.1016033,28.379980087280273,-7.529581546783447,-117.3453369140625,4.655824661254883,-1.235167145729065,-0.5834673643112183,-6.505991929161791e-05,-0.979195839553853,-14.85809527173932
2026-06-27T13:29:17.548511,1782577706.2036054,28.85496711730957,-7.6555938720703125,-117.40426635742188,4.6574602127075195,-1.2356023788452148,-0.572075366973877,-6.47222529539269e-05,-0.9765849820105073,-14.858099976823745
2026-06-27T13:29:17.656768,1782577706.3086078,29.344097137451172,-7.785357475280762,-117.46373748779297,4.659090042114258,-1.2360361814498901,-0.5605335831642151,-6.463096357549557e-05,-0.9739775638835418,-14.85811259836808
2026-06-27T13:29:17.766984,1782577706.41361,29.833396911621094,-7.91516637802124,-117.5219955444336,4.6606669425964355,-1.2364557981491089,-0.5491007566452026,-6.428241407949184e-05,-0.9714798424301577,-14.858122872173707
2026-06-27T13:29:17.875283,1782577706.5186121,30.322858810424805,-8.045022010803223,-117.57906341552734,4.66219425201416,-1.2368621826171875,-0.5379379391670227,-6.387491088764262e-05,-0.9689982975314075,-14.858125299668416
2026-06-27T13:29:17.984195,1782577706.6236145,30.812475204467773,-8.17491626739502,-117.63495635986328,4.663670539855957,-1.2372552156448364,-0.5269129872322083,-6.341313208219423e-05,-0.966586443240153,-14.858154140441563
2026-06-27T13:29:18.092230,1782577706.7256167,31.288253784179688,-8.30113697052002,-117.68816375732422,4.665058135986328,-1.2376240491867065,-0.5163410902023315,-6.278735937247791e-05,-0.9643058289805253,-14.858157030341243
2026-06-27T13:29:18.200298,1782577706.8306189,31.778169631958008,-8.431107521057129,-117.7418212890625,4.666439533233643,-1.2379913330078125,-0.5055785179138184,-6.26006945408032e-05,-0.9620310254222542,-14.85815733714658
2026-06-27T13:29:18.309503,1782577706.9386213,32.28224182128906,-8.564834594726562,-117.79585266113281,4.667813301086426,-1.2383570671081543,-0.4947732985019684,-6.210453650778068e-05,-0.9597545493421176,-14.858174257171807
2026-06-27T13:29:18.418227,1782577707.0406234,32.7584342956543,-8.691166877746582,-117.84580993652344,4.669064998626709,-1.2386902570724487,-0.48464125394821167,-6.157049050034707e-05,-0.957655041909578,-14.858174965561663
2026-06-27T13:29:18.526458,1782577707.1486256,33.26277542114258,-8.824967384338379,-117.89759826660156,4.670347690582275,-1.2390316724777222,-0.4742024838924408,-6.070646464742207e-05,-0.955464932371676,-14.858208740766672
2026-06-27T13:29:18.635878,1782577707.253628,33.75323486328125,-8.955085754394531,-117.94686126708984,4.6715521812438965,-1.2393522262573242,-0.46421018242836,-5.989239439390635e-05,-0.9533747056397421,-14.8582120949115
2026-06-27T13:29:18.745084,1782577707.3586302,34.24382019042969,-9.085236549377441,-117.99507141113281,4.6727142333984375,-1.2396615743637085,-0.45428627729415894,-5.986247396830041e-05,-0.9513729397680706,-14.85823578560172
2026-06-27T13:29:18.853761,1782577707.4636323,34.734519958496094,-9.215418815612793,-118.04225158691406,4.673837661743164,-1.2399604320526123,-0.44460609555244446,-5.969390800025894e-05,-0.9493918825009799,-14.858236781827747
2026-06-27T13:29:18.963953,1782577707.5686345,35.22533416748047,-9.34563159942627,-118.08843231201172,4.6749186515808105,-1.2402485609054565,-0.4350244402885437,-5.847324932097138e-05,-0.9474943220124101,-14.858237972517246
2026-06-27T13:29:19.071657,1782577707.676637,35.73029327392578,-9.479596138000488,-118.13489532470703,4.675992965698242,-1.2405345439910889,-0.42539212107658386,-3.9554565319887624e-05,-0.9455801973543118,-14.858241885751225
2026-06-27T13:29:19.180074,1782577707.7846391,36.23537826538086,-9.613594055175781,-118.18032836914062,4.677028656005859,-1.2408099174499512,-0.4159204959869385,-3.910119303771347e-05,-0.9437128466773688,-14.858254545297545
2026-06-27T13:29:19.288946,1782577707.8836412,36.698463439941406,-9.736451148986816,-118.2210693359375,4.677943229675293,-1.2410534620285034,-0.40734952688217163,-3.646948777461026e-05,-0.9420487817270038,-14.858256263397983
2026-06-27T13:29:19.398647,1782577707.9886436,37.189701080322266,-9.866777420043945,-118.26338195800781,4.6788811683654785,-1.241302728652954,-0.398443341255188,-3.969388192750307e-05,-0.9403264962168798,-14.858257817064429
2026-06-27T13:29:19.507220,1782577708.0936458,37.681034088134766,-9.997127532958984,-118.30475616455078,4.679785251617432,-1.2415432929992676,-0.38969531655311584,-4.341993080874705e-05,-0.9386497640562684,-14.858290967004512
2026-06-27T13:29:19.616461,1782577708.198648,38.1724853515625,-10.127504348754883,-118.34521484375,4.680655479431152,-1.2417752742767334,-0.38108062744140625,-3.837651158696752e-05,-0.9370311309656385,-14.858292818869462
2026-06-27T13:29:19.726040,1782577708.3006504,38.649959564208984,-10.254182815551758,-118.38367462158203,4.681471347808838,-1.2419922351837158,-0.37286376953125,-3.884003973209241e-05,-0.935484901824134,-14.858294783043881
2026-06-27T13:29:19.835333,1782577708.4086525,39.15560531616211,-10.388331413269043,-118.4234848022461,4.682304859161377,-1.2422139644622803,-0.3643823564052582,-4.289080540844005e-05,-0.9338949557570922,-14.858295778351833
2026-06-27T13:29:19.943037,1782577708.5106547,39.63326644897461,-10.515048027038574,-118.46025085449219,4.683061599731445,-1.2424153089523315,-0.3564913868904114,-3.9110514708380284e-05,-0.9324264611484899,-14.85831544902055
2026-06-27T13:29:20.052760,1782577708.6156569,40.12501907348633,-10.645519256591797,-118.49726867675781,4.683812141418457,-1.2426152229309082,-0.34851375222206116,-3.733791882326583e-05,-0.9309621822858057,-14.858321117788051
2026-06-27T13:29:20.160601,1782577708.7206593,40.616886138916016,-10.776002883911133,-118.53345489501953,4.684534072875977,-1.242807149887085,-0.34067875146865845,-4.428895022764588e-05,-0.9295375891096092,-14.858333802629152
2026-06-27T13:29:20.270260,1782577708.8256614,41.108802795410156,-10.906513214111328,-118.5688247680664,4.685230255126953,-1.2429920434951782,-0.33300459384918213,-3.937482848363356e-05,-0.9281572442636286,-14.858344076640421
2026-06-27T13:29:20.377987,1782577708.9276636,41.58674621582031,-11.033308982849121,-118.6024169921875,4.685878276824951,-1.243165135383606,-0.3256239593029022,-4.363493451038083e-05,-0.926872255827255,-14.858343979014519
2026-06-27T13:29:20.486674,1782577709.035666,42.092864990234375,-11.167582511901855,-118.6371841430664,4.6865410804748535,-1.2433415651321411,-0.3180781900882721,-3.8997573182539375e-05,-0.9255239514226865,-14.858346429458171
2026-06-27T13:29:20.596855,1782577709.1436682,42.59906005859375,-11.301877975463867,-118.67113494873047,4.68717622756958,-1.2435107231140137,-0.31064170598983765,-4.41597021894767e-05,-0.9242261648779572,-14.85834630575739
2026-06-27T13:29:20.705077,1782577709.2486706,43.09124755859375,-11.432455062866211,-118.70338439941406,4.687769889831543,-1.2436689138412476,-0.3035472631454468,-3.878972774132728e-05,-0.9230062642802748,-14.85836568036241
2026-06-27T13:29:20.813827,1782577709.3536727,43.58351516723633,-11.563054084777832,-118.73489379882812,4.688338279724121,-1.2438210248947144,-0.2965349555015564,-4.1441876919728325e-05,-0.9218396817194424,-14.858365854867468
2026-06-27T13:29:20.923114,1782577709.458675,44.061737060546875,-11.689932823181152,-118.76480102539062,4.688870906829834,-1.2439631223678589,-0.2899549901485443,-3.8655458748043494e-05,-0.9207188382206615,-14.858368773923186
2026-06-27T13:29:21.031878,1782577709.560677,44.55413818359375,-11.820558547973633,-118.79490661621094,4.689398288726807,-1.2441037893295288,-0.2832759618759155,-4.3423056764345985e-05,-0.9196076413075348,-14.858369051430104
2026-06-27T13:29:21.141450,1782577709.6626792,45.032470703125,-11.947469711303711,-118.82347106933594,4.689890384674072,-1.2442349195480347,-0.2769145667552948,-3.734997224504519e-05,-0.9185607028743427,-14.858376550292498
2026-06-27T13:29:21.249685,1782577709.7646816,45.51088333129883,-12.074380874633789,-118.85140228271484,4.69036340713501,-1.2443610429763794,-0.27068373560905457,-3.730741844689274e-05,-0.9175496542668629,-14.858391076433703
2026-06-27T13:29:21.358978,1782577709.8696837,46.00341796875,-12.205058097839355,-118.87947845458984,4.690830707550049,-1.244485855102539,-0.2643921375274658,-3.706624366495649e-05,-0.9165366141566627,-14.858391603277829
2026-06-27T13:29:21.466822,1782577709.974686,46.49595260620117,-12.335735321044922,-118.90692901611328,4.691280364990234,-1.244605541229248,-0.2582293152809143,-3.692140776172404e-05,-0.9155602904688029,-14.858392206858195
2026-06-27T13:29:21.579040,1782577710.0796883,46.98860168457031,-12.466424942016602,-118.9337158203125,4.691710948944092,-1.244720697402954,-0.25219354033470154,-3.694743180975799e-05,-0.9146141271339531,-14.858392872925373
2026-06-27T13:29:21.684748,1782577710.1816905,47.467193603515625,-12.593400955200195,-118.95914459228516,4.692112922668457,-1.2448278665542603,-0.24645383656024933,-3.6722784642247055e-05,-0.9137301445289494,-14.858393670116094
2026-06-27T13:29:21.793984,1782577710.2806926,47.93170928955078,-12.716642379760742,-118.9832763671875,4.692487716674805,-1.2449276447296143,-0.24098317325115204,-3.6287757619921273e-05,-0.9129049633589105,-14.858424338885719
2026-06-27T13:29:21.901746,1782577710.3886948,48.43854904174805,-12.851099967956543,-119.00900268554688,4.692880630493164,-1.2450326681137085,-0.2351677119731903,-3.32178760408212e-05,-0.9120208251650174,-14.858425161774685
2026-06-27T13:29:22.009880,1782577710.493697,48.93135070800781,-12.981843948364258,-119.03338623046875,4.693245887756348,-1.245130181312561,-0.22960317134857178,-3.2235593382597174e-05,-0.9112022939750323,-14.858426103523703
