time,sim_t,x,y,z,vx,vy,vz,roll_deg,pitch_deg,yaw_deg
2026-06-27T14:25:59.479584,1782581028.1444721,0.0,0.0,2.0396859645843506,0.0,0.0,0.0,0.0,0.0,0.0003895640909249624
2026-06-27T14:25:59.593814,1782581028.2554743,0.0,0.0,2.0396859645843506,0.0,0.0,0.0,0.0,0.0,0.0003895640909249624
2026-06-27T14:25:59.701997,1782581028.3634768,0.0,0.0,2.0396859645843506,0.0,0.0,0.0,0.0,0.0,0.0003895640909249624
2026-06-27T14:25:59.810700,1782581028.468479,0.0,0.0,2.0396859645843506,0.0,0.0,0.0,0.0,0.0,0.0003895640909249624
2026-06-27T14:25:59.919925,1782581028.5764813,0.0,0.0,2.0396859645843506,0.0,0.0,0.0,0.0,0.0,0.0003895640909249624
2026-06-27T14:26:00.029107,1782581028.6844835,0.0,0.0,2.0396859645843506,0.0,0.0,0.0,0.0,0.0,0.0003895640909249624
2026-06-27T14:26:00.137796,1782581028.789486,0.0,0.0,2.0396859645843506,0.0,0.0,0.0,0.0,0.0,0.0003895640909249624
2026-06-27T14:26:00.247562,1782581028.897488,0.0,0.0,2.0396859645843506,0.0,0.0,0.0,0.0,0.0,0.0003895640909249624
2026-06-27T14:26:00.356551,1782581029.0024903,0.0,0.0,2.0396859645843506,0.0,0.0,0.0,0.0,0.0,0.0003895640909249624
2026-06-27T14:26:00.466353,1782581029.1104927,0.0,0.0,2.0396859645843506,0.0,0.0,0.0,0.0,0.0,0.0003895640909249624
2026-06-27T14:26:00.574352,1782581029.2154949,0.0,0.0,2.0396859645843506,0.0,0.0,0.0,0.0,0.0,0.0003895640909249624
2026-06-27T14:26:00.683000,1782581029.3234973,0.0,0.0,2.0396859645843506,0.0,0.0,0.0,0.0,0.0,0.0003895640909249624
2026-06-27T14:26:00.791843,1782581029.4314995,0.0,0.0,2.0396859645843506,0.0,0.0,0.0,0.0,0.0,0.0003895640909249624
2026-06-27T14:26:00.900027,1782581029.539502,0.0,0.0,2.0396859645843506,0.0,0.0,0.0,0.0,0.0,0.0003895640909249624
2026-06-27T14:26:01.009715,1782581029.647504,0.0,0.0,2.018402576446533,0.0,0.0,-0.36775264143943787,0.0,0.0,0.0003895640909249624
2026-06-27T14:26:01.119389,1782581029.7525063,0.0,0.0,1.9751756191253662,0.0,0.0,-0.43502312898635864,0.0,0.0,0.0003895640909249624
2026-06-27T14:26:01.227417,1782581029.8575087,0.0,0.0,1.9286984205245972,0.0,0.0,-0.44779685139656067,0.0,0.0,0.0003895640909249624
2026-06-27T14:26:01.336864,1782581029.9655108,0.0,0.0,1.8799819946289062,0.0,0.0,-0.45395800471305847,0.0,0.0,0.0003895640909249624
2026-06-27T14:26:01.445051,1782581030.0735133,0.0,0.0,1.8306844234466553,0.0,0.0,-0.45881348848342896,0.0,0.0,0.0003895640909249624
2026-06-27T14:26:01.554321,1782581030.1815155,0.0,0.0,1.7808977365493774,0.0,0.0,-0.4630618095397949,0.0,0.0,0.0003895640909249624
2026-06-27T14:26:01.663521,1782581030.2895179,0.0,0.0,1.7306784391403198,0.0,0.0,-0.4668295979499817,0.0,0.0,0.0003895640909249624
2026-06-27T14:26:01.772752,1782581030.39752,0.0,0.0,1.6800752878189087,0.0,0.0,-0.4701767861843109,0.0,0.0,0.0003895640909249624
2026-06-27T14:26:01.881377,1782581030.5025225,0.0,0.0,1.6305502653121948,0.0,0.0,-0.4730731248855591,0.0,0.0,0.0003895640909249624
2026-06-27T14:26:01.990065,1782581030.6105247,0.0,0.0,1.579311490058899,0.0,0.0,-0.47572484612464905,0.0,0.0,0.0003895640909249624
2026-06-27T14:26:02.099359,1782581030.718527,0.0,0.0,1.5278022289276123,0.0,0.0,-0.4780811369419098,0.0,0.0,0.0003895640909249624
2026-06-27T14:26:02.208260,1782581030.8235292,0.0,0.0,1.4774935245513916,0.0,0.0,-0.48012012243270874,0.0,0.0,0.0003895640909249624
2026-06-27T14:26:02.317477,1782581030.9315314,0.0,0.0,1.4255367517471313,0.0,0.0,-0.48198696970939636,0.0,0.0,0.0003895640909249624
2026-06-27T14:26:02.425291,1782581031.0335338,0.0,0.0,1.376291275024414,0.0,0.0,-0.4835587441921234,0.0,0.0,0.0003895640909249624
2026-06-27T14:26:02.534037,1782581031.138536,0.0,0.0,1.3254398107528687,0.0,0.0,-0.48500367999076843,0.0,0.0,0.0003895640909249624
2026-06-27T14:26:02.643230,1782581031.2435381,0.0,0.0,1.2744444608688354,0.0,0.0,-0.4862919747829437,0.0,0.0,0.0003895640909249624
2026-06-27T14:26:02.752913,1782581031.3545406,0.0,0.0,1.2203962802886963,0.0,0.0,-0.4875023365020752,0.0,0.0,0.0003895640909249624
2026-06-27T14:26:02.860611,1782581031.4595428,0.0,0.0,1.1691529750823975,0.0,0.0,-0.48851969838142395,0.0,0.0,0.0003895640909249624
2026-06-27T14:26:02.969806,1782581031.564545,0.0,0.0,1.1178086996078491,0.0,0.0,-0.4894268214702606,0.0,0.0,0.0003895640909249624
2026-06-27T14:26:03.079035,1782581031.6725473,0.0,0.0,1.064903736114502,0.0,0.0,-0.490257203578949,0.0,0.0,0.0003895640909249624
2026-06-27T14:26:03.187871,1782581031.7805495,0.0,0.0,1.0119143724441528,0.0,0.0,-0.49099525809288025,0.0,0.0,0.0003895640909249624
2026-06-27T14:26:03.297206,1782581031.888552,0.0,0.0,0.9588496685028076,0.0,0.0,-0.4916512966156006,0.0,0.0,0.0003895640909249624
2026-06-27T14:26:03.405541,1782581031.993554,0.0,0.0,0.9071948528289795,0.0,0.0,-0.4922187626361847,0.0,0.0,0.0003895640909249624
2026-06-27T14:26:03.514584,1782581032.1015565,0.0,0.0,0.8540054559707642,0.0,0.0,-0.49273842573165894,0.0,0.0,0.0003895640909249624
2026-06-27T14:26:03.623702,1782581032.2005587,0.0,0.0,0.8052018284797668,0.0,0.0,-0.4931637644767761,0.0,0.0,0.0003895640909249624
2026-06-27T14:26:03.732403,1782581032.3085608,0.0,0.0,0.7519161701202393,0.0,0.0,-0.4935781955718994,0.0,0.0,0.0003895640909249624
2026-06-27T14:26:03.841106,1782581032.4135633,0.0,0.0,0.7000704407691956,0.0,0.0,-0.49393677711486816,0.0,0.0,0.0003895640909249624
2026-06-27T14:26:03.949957,1782581032.5155654,0.0,0.0,0.6496716737747192,0.0,0.0,-0.4942479431629181,0.0,0.0,0.0003895640909249624
2026-06-27T14:26:04.060647,1782581032.6235676,0.0,0.0,0.5962756872177124,0.0,0.0,-0.494541734457016,0.0,0.0,0.0003895640909249624
2026-06-27T14:26:04.167813,1782581032.7285697,0.0,0.0,0.5443341135978699,0.0,0.0,-0.49479585886001587,0.0,0.0,0.0003895640909249624
2026-06-27T14:26:04.275340,1782581032.8335721,0.0,0.0,0.5053156614303589,0.0,0.0,-0.14794151484966278,0.0,0.0,0.0003895640909249624
2026-06-27T14:26:04.384590,1782581032.9415743,0.0,0.0,0.501509428024292,0.0,0.0,0.018993739038705826,0.0,0.0,0.0003895640909249624
2026-06-27T14:26:04.495775,1782581033.0495768,0.0,0.0,0.47684258222579956,0.0,0.0,-0.5796822309494019,0.0,0.0,0.00035176235034822
2026-06-27T14:26:04.603457,1782581033.154579,0.0,0.0,0.37946292757987976,0.0,0.0,-1.2721636295318604,0.0,0.0,0.00024773502891996317
2026-06-27T14:26:04.711716,1782581033.259581,0.0,0.0,0.2105223387479782,0.0,0.0,-1.9406896829605103,0.0,0.0,0.00012183538570972028
2026-06-27T14:26:04.820712,1782581033.3675835,0.0,0.0,-0.034609753638505936,0.0,0.0,-2.591625213623047,0.0,0.0,6.153757146134586e-06
2026-06-27T14:26:04.928414,1782581033.4725857,0.0,0.0,-0.33803892135620117,0.0,0.0,-3.179934024810791,0.0,0.0,-7.155003169281335e-05
2026-06-27T14:26:05.038124,1782581033.580588,0.0,0.0,-0.7118397951126099,0.0,0.0,-3.732975721359253,0.0,0.0,-0.00010893825255724402
2026-06-27T14:26:05.146353,1782581033.6885903,0.0,0.0,-1.1423553228378296,0.0,0.0,-4.229860305786133,0.0,0.0,-0.00010840084649693501
2026-06-27T14:26:05.257088,1782581033.7965927,0.0,0.0,-1.6234623193740845,0.0,0.0,-4.669922351837158,0.0,0.0,-8.252373147521194e-05
2026-06-27T14:26:05.364314,1782581033.9015949,0.0,0.0,-2.1339402198791504,0.0,0.0,-5.044463157653809,0.0,0.0,-4.687341861318657e-05
2026-06-27T14:26:05.474067,1782581034.006597,0.0,0.0,-2.672954797744751,0.0,0.0,-5.170226573944092,0.0,0.0,-1.2117518845817836e-05
2026-06-27T14:26:05.582309,1782581034.1145995,0.0,0.0,-3.231283187866211,0.0,0.0,-5.164093494415283,0.0,0.0,1.460530576744825e-05
2026-06-27T14:26:05.690362,1782581034.2226017,0.0,0.0,-3.7881131172180176,0.0,0.0,-5.147202014923096,0.0,0.0,2.887650042316353e-05
2026-06-27T14:26:05.800201,1782581034.327604,0.0,0.0,-4.327743053436279,0.0,0.0,-5.131489276885986,0.0,0.0,3.16975777207537e-05
2026-06-27T14:26:05.909098,1782581034.4326062,0.0,0.0,-4.865801811218262,0.0,0.0,-5.117268085479736,0.0,0.0,2.647507802890899e-05
2026-06-27T14:26:06.018340,1782581034.5406084,0.0,0.0,-5.4177565574646,0.0,0.0,-5.104124546051025,0.0,0.0,1.658539596105024e-05
2026-06-27T14:26:06.125535,1782581034.6486108,0.0,0.0,-5.968367099761963,0.0,0.0,-5.092336654663086,0.0,0.0,5.98077731100689e-06
2026-06-27T14:26:06.235243,1782581034.756613,0.0,0.0,-6.517769813537598,0.0,0.0,-5.0817670822143555,0.0,0.0,-2.548707215110222e-06
2026-06-27T14:26:06.344282,1782581034.8616154,0.0,0.0,-7.050873756408691,0.0,0.0,-5.07253885269165,0.0,0.0,-8.11428972733364e-06
2026-06-27T14:26:06.453839,1782581034.9696176,0.0,0.0,-7.598252296447754,0.0,0.0,-5.064014911651611,0.0,0.0,-1.1824571541437827e-05
2026-06-27T14:26:06.563561,1782581035.07462,0.0,0.0,-8.129587173461914,0.0,0.0,-5.05657434463501,0.0,0.0,-1.4089364227463457e-05
2026-06-27T14:26:06.672280,1782581035.1826222,0.0,0.0,-8.675331115722656,0.0,0.0,-5.049701690673828,0.0,0.0,-1.1906549854908237e-05
2026-06-27T14:26:06.780980,1782581035.2906246,0.0,0.0,-9.220370292663574,0.0,0.0,-5.043540954589844,0.0,0.0,-9.527306867891844e-06
2026-06-27T14:26:06.891254,1782581035.3986268,0.0,0.0,-9.764781951904297,0.0,0.0,-5.038016319274902,0.0,0.0,-7.934581161610713e-06
2026-06-27T14:26:06.998170,1782581035.503629,0.0,0.0,-10.293527603149414,0.0,0.0,-5.033194541931152,0.0,0.0,-6.962892699764907e-06
2026-06-27T14:26:07.107263,1782581035.6086314,0.0,0.0,-10.821792602539062,0.0,0.0,-5.028858661651611,0.0,0.0,-6.293115312280094e-06
2026-06-27T14:26:07.215592,1782581035.7166336,0.0,0.0,-11.364700317382812,0.0,0.0,-5.0248541831970215,0.0,0.0,-5.605309421305501e-06
2026-06-27T14:26:07.325271,1782581035.824636,0.0,0.0,-11.907198905944824,0.0,0.0,-5.02126407623291,0.0,0.0,-4.9175035303309085e-06
2026-06-27T14:26:07.432956,1782581035.9326382,0.0,0.0,-12.44933032989502,0.0,0.0,-5.018045902252197,0.0,0.0,-4.229697639356316e-06
2026-06-27T14:26:07.541276,1782581036.0376403,0.0,0.0,-12.976085662841797,0.0,0.0,-5.015236854553223,0.0,0.0,-3.5609974675754637e-06
2026-06-27T14:26:07.650374,1782581036.1426427,0.0,0.0,-13.502562522888184,0.0,0.0,-5.012711048126221,0.0,0.0,-2.8922915962406224e-06
2026-06-27T14:26:07.759613,1782581036.250645,0.0,0.0,-14.043818473815918,0.0,0.0,-5.010378360748291,0.0,0.0,-2.204478377268046e-06
2026-06-27T14:26:07.868824,1782581036.3556473,0.0,0.0,-14.56981086730957,0.0,0.0,-5.008342266082764,0.0,0.0,-1.5357710810447079e-06
2026-06-27T14:26:07.976597,1782581036.4606495,0.0,0.0,-15.095600128173828,0.0,0.0,-5.00651216506958,0.0,0.0,-8.6706378482137e-07
2026-06-27T14:26:08.084839,1782581036.5686517,0.0,0.0,-15.636220932006836,0.0,0.0,-5.004821300506592,0.0,0.0,-1.7925059129323168e-07
2026-06-27T14:26:08.194937,1782581036.676654,0.0,0.0,-16.176668167114258,0.0,0.0,-5.003305912017822,0.0,0.0,4.415614953150704e-07
2026-06-27T14:26:08.303471,1782581036.7846563,0.0,0.0,-16.716964721679688,0.0,0.0,-5.001947402954102,0.0,0.0,7.518563591497762e-07
2026-06-27T14:26:08.412749,1782581036.8896587,0.0,0.0,-17.242115020751953,0.0,0.0,-5.00076150894165,0.0,0.0,9.012408549842542e-07
2026-06-27T14:26:08.521981,1782581036.9976609,0.0,0.0,-17.782146453857422,0.0,0.0,-4.999666213989258,0.0,0.0,9.59410502997852e-07
2026-06-27T14:26:08.630300,1782581037.1056633,0.0,0.0,-18.322071075439453,0.0,0.0,-4.998684406280518,0.0,0.0,1.016772849899982e-06
2026-06-27T14:26:08.738979,1782581037.2106655,0.0,0.0,-18.846893310546875,0.0,0.0,-4.997827529907227,0.0,0.0,1.0278519686329547e-06
2026-06-27T14:26:08.848242,1782581037.318668,0.0,0.0,-19.386627197265625,0.0,0.0,-4.997036457061768,0.0,0.0,1.037587213957478e-06
2026-06-27T14:26:08.956404,1782581037.42667,0.0,0.0,-19.926280975341797,0.0,0.0,-4.9963274002075195,0.0,0.0,1.0473224592820012e-06
2026-06-27T14:26:09.065114,1782581037.5346725,0.0,0.0,-20.46586036682129,0.0,0.0,-4.995691299438477,0.0,0.0,1.0570577046065242e-06
2026-06-27T14:26:09.174301,1782581037.6456747,0.0,0.0,-21.02035903930664,0.0,0.0,-4.995106220245361,0.0,0.0,1.0670633734122841e-06
2026-06-27T14:26:09.282970,1782581037.7536771,0.0,0.0,-21.559812545776367,0.0,0.0,-4.994596481323242,0.0,0.0,1.0767986187368074e-06
2026-06-27T14:26:09.391677,1782581037.8616793,0.0,0.0,-22.099218368530273,0.0,0.0,-4.994139671325684,0.0,0.0,1.0316397293697657e-06
2026-06-27T14:26:09.501875,1782581037.9666817,0.0,0.0,-22.62359619140625,0.0,0.0,-4.993740558624268,0.0,0.0,9.56341496730177e-07
2026-06-27T14:26:09.609648,1782581038.071684,0.0,0.0,-23.147924423217773,0.0,0.0,-4.993381977081299,0.0,0.0,8.810432640905879e-07
2026-06-27T14:26:09.718401,1782581038.179686,0.0,0.0,-23.68721580505371,0.0,0.0,-4.993051052093506,0.0,0.0,8.035948747085799e-07
2026-06-27T14:26:09.828178,1782581038.2876885,0.0,0.0,-24.2264461517334,0.0,0.0,-4.992753505706787,0.0,0.0,7.261470959930706e-07
2026-06-27T14:26:09.936826,1782581038.3956907,0.0,0.0,-24.765668869018555,0.0,0.0,-4.99248743057251,0.0,0.0,6.486993172775615e-07
2026-06-27T14:26:10.045502,1782581038.500693,0.0,0.0,-25.28987693786621,0.0,0.0,-4.992255210876465,0.0,0.0,5.734028657485942e-07
2026-06-27T14:26:10.153683,1782581038.6086953,0.0,0.0,-25.829030990600586,0.0,0.0,-4.992040157318115,0.0,0.0,4.959550870330849e-07
2026-06-27T14:26:10.262917,1782581038.7166977,0.0,0.0,-26.36818504333496,0.0,0.0,-4.991847038269043,0.0,0.0,4.185073083175757e-07
2026-06-27T14:26:10.372520,1782581038.8246999,0.0,0.0,-26.907310485839844,0.0,0.0,-4.991673469543457,0.0,0.0,3.4105952960206646e-07
2026-06-27T14:26:10.480786,1782581038.929702,0.0,0.0,-27.431421279907227,0.0,0.0,-4.991523265838623,0.0,0.0,2.6576307807309917e-07
2026-06-27T14:26:10.589452,1782581039.0347044,0.0,0.0,-27.95553207397461,0.0,0.0,-4.991388320922852,0.0,0.0,1.904666265441319e-07
2026-06-27T14:26:10.699164,1782581039.1427066,0.0,0.0,-28.494617462158203,0.0,0.0,-4.9912638664245605,0.0,0.0,1.1301884782862267e-07
2026-06-27T14:26:10.808051,1782581039.250709,0.0,0.0,-29.033702850341797,0.0,0.0,-4.991150856018066,0.0,0.0,3.557104048812132e-08
2026-06-27T14:26:10.916849,1782581039.3557112,0.0,0.0,-29.557775497436523,0.0,0.0,-4.991050720214844,0.0,0.0,-3.9725519179705144e-08
2026-06-27T14:26:11.025607,1782581039.4607134,0.0,0.0,-30.081819534301758,0.0,0.0,-4.990965366363525,0.0,0.0,-1.1502199933366457e-07
2026-06-27T14:26:11.134040,1782581039.5687158,0.0,0.0,-30.62083625793457,0.0,0.0,-4.990879535675049,0.0,0.0,-1.924697780491738e-07
2026-06-27T14:26:11.243237,1782581039.676718,0.0,0.0,-31.159852981567383,0.0,0.0,-4.990809917449951,0.0,0.0,-2.6991756948690174e-07
2026-06-27T14:26:11.351590,1782581039.7847204,0.0,0.0,-31.698869705200195,0.0,0.0,-4.99074125289917,0.0,0.0,-3.4736534820241094e-07
2026-06-27T14:26:11.461252,1782581039.8897226,0.0,0.0,-32.2229118347168,0.0,0.0,-4.990683555603027,0.0,0.0,-4.2266179973137824e-07
2026-06-27T14:26:11.570025,1782581039.997725,0.0,0.0,-32.76192855834961,0.0,0.0,-4.990632057189941,0.0,0.0,-5.001096038913249e-07
2026-06-27T14:26:11.679251,1782581040.1027272,0.0,0.0,-33.285972595214844,0.0,0.0,-4.99058198928833,0.0,0.0,-5.754060554202922e-07
2026-06-27T14:26:11.788023,1782581040.2107294,0.0,0.0,-33.824989318847656,0.0,0.0,-4.990541458129883,0.0,0.0,-6.528538341358015e-07
2026-06-27T14:26:11.895707,1782581040.3187318,0.0,0.0,-34.36400604248047,0.0,0.0,-4.990503787994385,0.0,0.0,-7.303016128513106e-07
2026-06-27T14:26:12.005369,1782581040.423734,0.0,0.0,-34.8880500793457,0.0,0.0,-4.9904704093933105,0.0,0.0,-8.055980643802779e-07
2026-06-27T14:26:12.114081,1782581040.5317364,0.0,0.0,-35.427066802978516,0.0,0.0,-4.99043607711792,0.0,0.0,-8.830465555400359e-07
2026-06-27T14:26:12.223250,1782581040.6367385,0.0,0.0,-35.95111083984375,0.0,0.0,-4.990407943725586,0.0,0.0,-9.583447881796248e-07
2026-06-27T14:26:12.331862,1782581040.7417407,0.0,0.0,-36.475154876708984,0.0,0.0,-4.99038553237915,0.0,0.0,-1.0336430208192136e-06
2026-06-27T14:26:12.439881,1782581040.8497431,0.0,0.0,-37.0141716003418,0.0,0.0,-4.990363597869873,0.0,0.0,-1.1110926315342195e-06
2026-06-27T14:26:12.550077,1782581040.9577453,0.0,0.0,-37.53821563720703,0.0,0.0,-4.99034309387207,0.0,0.0,-1.1863908641738083e-06
2026-06-27T14:26:12.658436,1782581041.0627477,0.0,0.0,-38.077232360839844,0.0,0.0,-4.990325927734375,0.0,0.0,-1.263840474888814e-06
2026-06-27T14:26:12.766803,1782581041.17075,0.0,0.0,-38.616249084472656,0.0,0.0,-4.99030876159668,0.0,0.0,-1.3412900856038198e-06
2026-06-27T14:26:12.875742,1782581041.2787523,0.0,0.0,-39.15526580810547,0.0,0.0,-4.990291595458984,0.0,0.0,-1.4187396963188258e-06
2026-06-27T14:26:12.983925,1782581041.3897545,0.0,0.0,-39.70925521850586,0.0,0.0,-4.990273952484131,0.0,0.0,-1.4983406851092484e-06
2026-06-27T14:26:13.093652,1782581041.494757,0.0,0.0,-40.233299255371094,0.0,0.0,-4.990262031555176,0.0,0.0,-1.5736389177488374e-06
2026-06-27T14:26:13.201839,1782581041.6027591,0.0,0.0,-40.772315979003906,0.0,0.0,-4.990250587463379,0.0,0.0,-1.6510885284638431e-06
2026-06-27T14:26:13.310378,1782581041.7107615,0.0,0.0,-41.31133270263672,0.0,0.0,-4.990240097045898,0.0,0.0,-1.7285381391788487e-06
2026-06-27T14:26:13.419548,1782581041.8187637,0.0,0.0,-41.85034942626953,0.0,0.0,-4.990231037139893,0.0,0.0,-1.8059877498938545e-06
2026-06-27T14:26:13.529654,1782581041.9267662,0.0,0.0,-42.389366149902344,0.0,0.0,-4.9902238845825195,0.0,0.0,-1.8834373606088602e-06
2026-06-27T14:26:13.637138,1782581042.0317683,0.0,0.0,-42.91341018676758,0.0,0.0,-4.990216255187988,0.0,0.0,-1.958735593248449e-06
2026-06-27T14:26:13.745477,1782581042.1397705,0.0,0.0,-43.45242691040039,0.0,0.0,-4.990209102630615,0.0,0.0,-2.036185203963455e-06
2026-06-27T14:26:13.855793,1782581042.247773,0.0,0.0,-43.9914436340332,0.0,0.0,-4.990204334259033,0.0,0.0,-2.1136348146784605e-06
2026-06-27T14:26:13.964821,1782581042.355775,0.0,0.0,-44.530460357666016,0.0,0.0,-4.990198612213135,0.0,0.0,-2.191084425393467e-06
2026-06-27T14:26:14.073331,1782581042.4637775,0.0,0.0,-45.06947708129883,0.0,0.0,-4.990193843841553,0.0,0.0,-2.2685340361084725e-06
2026-06-27T14:26:14.182064,1782581042.5717797,0.0,0.0,-45.60849380493164,0.0,0.0,-4.990189552307129,0.0,0.0,-2.3459836468234785e-06
2026-06-27T14:26:14.290410,1782581042.6797822,0.0,0.0,-46.14751052856445,0.0,0.0,-4.990185260772705,0.0,0.0,-2.423433257538484e-06
2026-06-27T14:26:14.399970,1782581042.7847843,0.0,0.0,-46.67155456542969,0.0,0.0,-4.990180015563965,0.0,0.0,-2.498731490178073e-06
2026-06-27T14:26:14.509694,1782581042.8957868,0.0,0.0,-47.22554397583008,0.0,0.0,-4.990176677703857,0.0,0.0,-2.5783324789684956e-06
2026-06-27T14:26:14.617413,1782581043.000789,0.0,0.0,-47.74958801269531,0.0,0.0,-4.990172386169434,0.0,0.0,-2.653630711608085e-06
2026-06-27T14:26:14.726647,1782581043.1087914,0.0,0.0,-48.288604736328125,0.0,0.0,-4.990169525146484,0.0,0.0,-2.7310803223230905e-06
2026-06-27T14:26:14.835350,1782581043.2167935,0.0,0.0,-48.82762145996094,0.0,0.0,-4.990166187286377,0.0,0.0,-2.8085299330380965e-06
2026-06-27T14:26:14.945101,1782581043.324796,0.0,0.0,-49.36663818359375,0.0,0.0,-4.990164279937744,0.0,0.0,-2.885979543753102e-06
2026-06-27T14:26:15.053831,1782581043.4327981,0.0,0.0,-49.90565490722656,0.0,0.0,-4.990160942077637,0.0,0.0,-2.9634291544681076e-06
2026-06-27T14:26:15.162830,1782581043.5408006,0.0,0.0,-50.444671630859375,0.0,0.0,-4.990159034729004,0.0,0.0,-3.040878765183114e-06
2026-06-27T14:26:15.272557,1782581043.6488028,0.0,0.0,-50.98368835449219,0.0,0.0,-4.990156173706055,0.0,0.0,-3.11832837589812e-06
2026-06-27T14:26:15.379465,1782581043.7568052,0.0,0.0,-51.522705078125,0.0,0.0,-4.990155220031738,0.0,0.0,-3.1957779866131256e-06
2026-06-27T14:26:15.489662,1782581043.8648074,0.0,0.0,-52.06170654296875,0.0,0.0,-4.990151882171631,0.0,0.0,-3.273227597328132e-06
2026-06-27T14:26:15.598342,1782581043.9728098,0.0,0.0,-52.6005859375,0.0,0.0,-4.990149974822998,0.0,0.0,-3.3506772080431376e-06
2026-06-27T14:26:15.706567,1782581044.080812,0.0,0.0,-53.13946533203125,0.0,0.0,-4.990148544311523,0.0,0.0,-3.428125393869646e-06
2026-06-27T14:26:15.815323,1782581044.1888144,0.0,0.0,-53.6783447265625,0.0,0.0,-4.990146636962891,0.0,0.0,-3.5055676765866656e-06
2026-06-27T14:26:15.924372,1782581044.2908165,0.0,0.0,-54.187286376953125,0.0,0.0,-4.9901442527771,0.0,0.0,-3.5787076102638508e-06
2026-06-27T14:26:16.032605,1782581044.3988187,0.0,0.0,-54.726165771484375,0.0,0.0,-4.990142822265625,0.0,0.0,-3.6561498929808707e-06
2026-06-27T14:26:16.142864,1782581044.5068212,0.0,0.0,-55.265045166015625,0.0,0.0,-4.990140438079834,0.0,0.0,-3.73359217569789e-06
2026-06-27T14:26:16.250065,1782581044.6118233,0.0,0.0,-55.78895568847656,0.0,0.0,-4.990139007568359,0.0,0.0,-3.8088832838949937e-06
2026-06-27T14:26:16.359752,1782581044.7198257,0.0,0.0,-56.32783508300781,0.0,0.0,-4.990138530731201,0.0,0.0,-3.886325566612014e-06
2026-06-27T14:26:16.467573,1782581044.824828,0.0,0.0,-56.85174560546875,0.0,0.0,-4.990137577056885,0.0,0.0,-3.961616674809116e-06
2026-06-27T14:26:16.576671,1782581044.93283,0.0,0.0,-57.390625,0.0,0.0,-4.990137100219727,0.0,0.0,-4.0390589575261355e-06
2026-06-27T14:26:16.685367,1782581045.0408325,0.0,0.0,-57.92950439453125,0.0,0.0,-4.9901347160339355,0.0,0.0,-4.116501240243156e-06
2026-06-27T14:26:16.794067,1782581045.1458347,0.0,0.0,-58.45341491699219,0.0,0.0,-4.990132808685303,0.0,0.0,-4.191792348440258e-06
2026-06-27T14:26:16.903246,1782581045.253837,0.0,0.0,-58.99229431152344,0.0,0.0,-4.99013090133667,0.0,0.0,-4.269234631157278e-06
2026-06-27T14:26:17.011953,1782581045.3648393,0.0,0.0,-59.546142578125,0.0,0.0,-4.990129470825195,0.0,0.0,-4.348828088394215e-06
2026-06-27T14:26:17.120701,1782581045.4728417,0.0,0.0,-60.08502197265625,0.0,0.0,-4.990128517150879,0.0,0.0,-4.4262703711112346e-06
2026-06-27T14:26:17.229895,1782581045.580844,0.0,0.0,-60.6239013671875,0.0,0.0,-4.990127086639404,0.0,0.0,-4.503712653828254e-06
2026-06-27T14:26:17.339104,1782581045.6858463,0.0,0.0,-61.14781188964844,0.0,0.0,-4.990127086639404,0.0,0.0,-4.579003762025358e-06
2026-06-27T14:26:17.448277,1782581045.7968485,0.0,0.0,-61.70166015625,0.0,0.0,-4.99012565612793,0.0,0.0,-4.658597219262295e-06
2026-06-27T14:26:17.556486,1782581045.901851,0.0,0.0,-62.22557067871094,0.0,0.0,-4.990124702453613,0.0,0.0,-4.733888327459397e-06
2026-06-27T14:26:17.665669,1782581046.0098531,0.0,0.0,-62.76445007324219,0.0,0.0,-4.990124702453613,0.0,0.0,-4.811330610176417e-06
2026-06-27T14:26:17.774748,1782581046.1178555,0.0,0.0,-63.30332946777344,0.0,0.0,-4.990122318267822,0.0,0.0,-4.888772892893438e-06
2026-06-27T14:26:17.882905,1782581046.2258577,0.0,0.0,-63.84220886230469,0.0,0.0,-4.9901204109191895,0.0,0.0,-4.966215175610457e-06
2026-06-27T14:26:17.992142,1782581046.3338602,0.0,0.0,-64.38108825683594,0.0,0.0,-4.9901204109191895,0.0,0.0,-5.043657458327477e-06
2026-06-27T14:26:18.101195,1782581046.4388623,0.0,0.0,-64.90499877929688,0.0,0.0,-4.990118980407715,0.0,0.0,-5.11894856652458e-06
2026-06-27T14:26:18.210344,1782581046.5468647,0.0,0.0,-65.44387817382812,0.0,0.0,-4.990118026733398,0.0,0.0,-5.196390849241599e-06
2026-06-27T14:26:18.318474,1782581046.654867,0.0,0.0,-65.98275756835938,0.0,0.0,-4.990116596221924,0.0,0.0,-5.27383313195862e-06
2026-06-27T14:26:18.428753,1782581046.7628694,0.0,0.0,-66.52163696289062,0.0,0.0,-4.990116596221924,0.0,0.0,-5.351275414675639e-06
2026-06-27T14:26:18.537040,1782581046.8708715,0.0,0.0,-67.06051635742188,0.0,0.0,-4.990115642547607,0.0,0.0,-5.428717697392659e-06
2026-06-27T14:26:18.645066,1782581046.978874,0.0,0.0,-67.59939575195312,0.0,0.0,-4.990114212036133,0.0,0.0,-5.50615998010968e-06
2026-06-27T14:26:18.754259,1782581047.0838761,0.0,0.0,-68.12330627441406,0.0,0.0,-4.990113735198975,0.0,0.0,-5.581451088306782e-06
2026-06-27T14:26:18.862964,1782581047.1918783,0.0,0.0,-68.66218566894531,0.0,0.0,-4.9901123046875,0.0,0.0,-5.6588933710238016e-06
2026-06-27T14:26:18.972264,1782581047.2998807,0.0,0.0,-69.20106506347656,0.0,0.0,-4.990108966827393,0.0,0.0,-5.736335653740823e-06
2026-06-27T14:26:19.081551,1782581047.404883,0.0,0.0,-69.7249755859375,0.0,0.0,-4.990108966827393,0.0,0.0,-5.811626761937925e-06
2026-06-27T14:26:19.189641,1782581047.5128853,0.0,0.0,-70.26385498046875,0.0,0.0,-4.990108489990234,0.0,0.0,-5.889069044654945e-06
2026-06-27T14:26:19.299392,1782581047.6238875,0.0,0.0,-70.81770324707031,0.0,0.0,-4.990107536315918,0.0,0.0,-5.968662501891883e-06
2026-06-27T14:26:19.408064,1782581047.72889,0.0,0.0,-71.34161376953125,0.0,0.0,-4.990106582641602,0.0,0.0,-6.043953610088986e-06
2026-06-27T14:26:19.515480,1782581047.8368921,0.0,0.0,-71.8804931640625,0.0,0.0,-4.990105628967285,0.0,0.0,-6.1213958928060055e-06
2026-06-27T14:26:19.625674,1782581047.9448946,0.0,0.0,-72.41937255859375,0.0,0.0,-4.9901041984558105,0.0,0.0,-6.198838175523026e-06
2026-06-27T14:26:19.734365,1782581048.0498967,0.0,0.0,-72.94328308105469,0.0,0.0,-4.990103721618652,0.0,0.0,-6.274129283720129e-06
2026-06-27T14:26:19.843605,1782581048.154899,0.0,0.0,-73.46719360351562,0.0,0.0,-4.990102767944336,0.0,0.0,-6.349420391917231e-06
2026-06-27T14:26:19.952279,1782581048.2629013,0.0,0.0,-74.00607299804688,0.0,0.0,-4.990100860595703,0.0,0.0,-6.4268626746342525e-06
2026-06-27T14:26:20.060953,1782581048.3709035,0.0,0.0,-74.54495239257812,0.0,0.0,-4.9900994300842285,0.0,0.0,-6.504304957351272e-06
2026-06-27T14:26:20.171208,1782581048.475906,0.0,0.0,-75.06886291503906,0.0,0.0,-4.99009895324707,0.0,0.0,-6.579596065548374e-06
2026-06-27T14:26:20.279228,1782581048.580908,0.0,0.0,-75.5927734375,0.0,0.0,-4.990097999572754,0.0,0.0,-6.6548871737454775e-06
2026-06-27T14:26:20.387882,1782581048.6889102,0.0,0.0,-76.13165283203125,0.0,0.0,-4.990096569061279,0.0,0.0,-6.732329456462498e-06
2026-06-27T14:26:20.496647,1782581048.7969127,0.0,0.0,-76.6705322265625,0.0,0.0,-4.990096092224121,0.0,0.0,-6.809771739179518e-06
2026-06-27T14:26:20.605395,1782581048.9019148,0.0,0.0,-77.19444274902344,0.0,0.0,-4.990095138549805,0.0,0.0,-6.8850628473766205e-06
2026-06-27T14:26:20.714113,1782581049.0099173,0.0,0.0,-77.73332214355469,0.0,0.0,-4.990094184875488,0.0,0.0,-6.9625051300936425e-06
2026-06-27T14:26:20.823808,1782581049.1179194,0.0,0.0,-78.27220153808594,0.0,0.0,-4.990093231201172,0.0,0.0,-7.039947412810662e-06
2026-06-27T14:26:20.931993,1782581049.2259219,0.0,0.0,-78.79611206054688,0.0,0.0,-4.9900922775268555,0.0,0.0,-7.115238521007764e-06
2026-06-27T14:26:21.041154,1782581049.330924,0.0,0.0,-79.33499145507812,0.0,0.0,-4.990090370178223,0.0,0.0,-7.192680803724784e-06
2026-06-27T14:26:21.151325,1782581049.4389262,0.0,0.0,-79.87387084960938,0.0,0.0,-4.9900898933410645,0.0,0.0,-7.270123086441805e-06
2026-06-27T14:26:21.259009,1782581049.5469286,0.0,0.0,-80.41275024414062,0.0,0.0,-4.990088939666748,0.0,0.0,-7.347565369158824e-06
2026-06-27T14:26:21.368143,1782581049.6549308,0.0,0.0,-80.95162963867188,0.0,0.0,-4.990087985992432,0.0,0.0,-7.4250076518758464e-06
2026-06-27T14:26:21.476817,1782581049.7629333,0.0,0.0,-81.49050903320312,0.0,0.0,-4.990086555480957,0.0,0.0,-7.502449934592866e-06
2026-06-27T14:26:21.584997,1782581049.8709354,0.0,0.0,-82.02938842773438,0.0,0.0,-4.990085601806641,0.0,0.0,-7.579892217309886e-06
2026-06-27T14:26:21.694208,1782581049.981938,0.0,0.0,-82.58323669433594,0.0,0.0,-4.990084648132324,0.0,0.0,-7.659485674546823e-06
2026-06-27T14:26:21.803396,1782581050.08694,0.0,0.0,-83.10714721679688,0.0,0.0,-4.990083694458008,0.0,0.0,-7.734776782743926e-06
2026-06-27T14:26:21.912698,1782581050.1949425,0.0,0.0,-83.64602661132812,0.0,0.0,-4.990082740783691,0.0,0.0,-7.812219065460947e-06
2026-06-27T14:26:22.020864,1782581050.3029447,0.0,0.0,-84.18490600585938,0.0,0.0,-4.990081787109375,0.0,0.0,-7.889661348177967e-06
2026-06-27T14:26:22.129774,1782581050.410947,0.0,0.0,-84.72378540039062,0.0,0.0,-4.9900803565979,0.0,0.0,-7.967103630894988e-06
2026-06-27T14:26:22.239715,1782581050.5189493,0.0,0.0,-85.26266479492188,0.0,0.0,-4.990078926086426,0.0,0.0,-8.044545913612009e-06
2026-06-27T14:26:22.347503,1782581050.6269517,0.0,0.0,-85.80154418945312,0.0,0.0,-4.990078926086426,0.0,0.0,-8.121988196329029e-06
2026-06-27T14:26:22.456708,1782581050.7349539,0.0,0.0,-86.34042358398438,0.0,0.0,-4.990077018737793,0.0,0.0,-8.199430479046048e-06
2026-06-27T14:26:22.565224,1782581050.8399563,0.0,0.0,-86.86433410644531,0.0,0.0,-4.990077018737793,0.0,0.0,-8.274721587243153e-06
2026-06-27T14:26:22.675420,1782581050.9479585,0.0,0.0,-87.40321350097656,0.0,0.0,-4.99007511138916,0.0,0.0,-8.352163869960174e-06
2026-06-27T14:26:22.784167,1782581051.0529609,0.0,0.0,-87.9271240234375,0.0,0.0,-4.990074157714844,0.0,0.0,-8.427454978157276e-06
2026-06-27T14:26:22.893734,1782581051.160963,0.0,0.0,-88.46600341796875,0.0,0.0,-4.990073204040527,0.0,0.0,-8.504897260874295e-06
2026-06-27T14:26:23.002396,1782581051.2689655,0.0,0.0,-89.0048828125,0.0,0.0,-4.990072727203369,0.0,0.0,-8.582339543591318e-06
2026-06-27T14:26:23.110662,1782581051.3769677,0.0,0.0,-89.54376220703125,0.0,0.0,-4.9900712966918945,0.0,0.0,-8.659781826308337e-06
2026-06-27T14:26:23.220848,1782581051.48497,0.0,0.0,-90.0826416015625,0.0,0.0,-4.99006986618042,0.0,0.0,-8.737224109025359e-06
2026-06-27T14:26:23.328461,1782581051.5899723,0.0,0.0,-90.60655212402344,0.0,0.0,-4.9900689125061035,0.0,0.0,-8.812515217222462e-06
2026-06-27T14:26:23.438692,1782581051.6979744,0.0,0.0,-91.14543151855469,0.0,0.0,-4.990068435668945,0.0,0.0,-8.889957499939481e-06
2026-06-27T14:26:23.547412,1782581051.8029768,0.0,0.0,-91.66934204101562,0.0,0.0,-4.990067005157471,0.0,0.0,-8.965248608136586e-06
2026-06-27T14:26:23.655574,1782581051.907979,0.0,0.0,-92.19325256347656,0.0,0.0,-4.990066051483154,0.0,0.0,-9.04053971633369e-06
2026-06-27T14:26:23.764222,1782581052.0129812,0.0,0.0,-92.7171630859375,0.0,0.0,-4.990065574645996,0.0,0.0,-9.11583082453079e-06
2026-06-27T14:26:23.872913,1782581052.1209836,0.0,0.0,-93.25604248046875,0.0,0.0,-4.9900641441345215,0.0,0.0,-9.193273107247814e-06
2026-06-27T14:26:23.982093,1782581052.2289858,0.0,0.0,-93.794921875,0.0,0.0,-4.990062713623047,0.0,0.0,-9.270715389964835e-06
2026-06-27T14:26:24.090640,1782581052.3369882,0.0,0.0,-94.33380126953125,0.0,0.0,-4.9900617599487305,0.0,0.0,-9.348157672681854e-06
2026-06-27T14:26:24.199702,1782581052.4419904,0.0,0.0,-94.85771179199219,0.0,0.0,-4.990060806274414,0.0,0.0,-9.423448780878957e-06
2026-06-27T14:26:24.309380,1782581052.5499928,0.0,0.0,-95.39659118652344,0.0,0.0,-4.990060806274414,0.0,0.0,-9.500891063595979e-06
2026-06-27T14:26:24.418573,1782581052.657995,0.0,0.0,-95.93547058105469,0.0,0.0,-4.9900593757629395,0.0,0.0,-9.578333346313e-06
2026-06-27T14:26:24.526796,1782581052.7629972,0.0,0.0,-96.45938110351562,0.0,0.0,-4.990057945251465,0.0,0.0,-9.653624454510103e-06
2026-06-27T14:26:24.635073,1782581052.8709996,0.0,0.0,-96.99826049804688,0.0,0.0,-4.990057468414307,0.0,0.0,-9.731066737227124e-06
2026-06-27T14:26:24.744792,1782581052.9790018,0.0,0.0,-97.53713989257812,0.0,0.0,-4.9900593757629395,0.0,0.0,-9.808509019944144e-06
2026-06-27T14:26:24.852930,1782581053.0870042,0.0,0.0,-98.07601928710938,0.0,0.0,-4.9900593757629395,0.0,0.0,-9.885951302661163e-06
2026-06-27T14:26:24.961898,1782581053.1920063,0.0,0.0,-98.59992980957031,0.0,0.0,-4.9900593757629395,0.0,0.0,-9.961242410858268e-06
2026-06-27T14:26:25.070706,1782581053.3000088,0.0,0.0,-99.13880920410156,0.0,0.0,-4.9900593757629395,0.0,0.0,-1.0038684693575289e-05
2026-06-27T14:26:25.179875,1782581053.408011,0.0,0.0,-99.67768859863281,0.0,0.0,-4.9900593757629395,0.0,0.0,-1.0116126976292309e-05
2026-06-27T14:26:25.289149,1782581053.5160134,8.591697131521414e-09,-1.5380297924139086e-08,-100.21536254882812,1.4981915228418075e-06,-2.6743405214801896e-06,-4.896986484527588,-0.004501658765501117,-0.002555297906584978,-0.12142737553372468
2026-06-27T14:26:25.398165,1782581053.6240156,2.8264004868105985e-05,-4.6808141632936895e-05,-100.72942352294922,0.0009616993484087288,-0.0015663333470001817,-4.656942844390869,-0.2670927518825819,-0.18745696946526247,-2.998419362104564
2026-06-27T14:26:25.506849,1782581053.732018,0.0003695754858199507,-0.0005921385018154979,-101.22622680664062,0.0063685220666229725,-0.010107574053108692,-4.563006401062012,-0.6887867516414853,-0.6100705087492199,-9.062618562986879
2026-06-27T14:26:25.615508,1782581053.8400202,0.0016662621637806296,-0.0026347748935222626,-101.718994140625,0.019019603729248047,-0.02982928790152073,-4.5787577629089355,-1.0254243720472755,-1.241554313480197,-17.684812775094965
2026-06-27T14:26:25.724058,1782581053.9480226,0.004792429506778717,-0.00752007681876421,-102.21832275390625,0.04040501266717911,-0.06298606842756271,-4.680213928222656,-1.1159877696796494,-2.029623102041312,-28.293400579985867
2026-06-27T14:26:25.832256,1782581054.0560248,0.01075370516628027,-0.016787057742476463,-102.73291015625,0.07242880016565323,-0.11233197897672653,-4.887706279754639,-0.8613927230178772,-2.8949194178186266,-40.350243184315225
2026-06-27T14:26:25.941596,1782581054.161027,0.020263586193323135,-0.03150157257914543,-103.25408935546875,0.10796576738357544,-0.16675680875778198,-4.976009845733643,-0.3176532101950904,-3.7038453342498037,-51.88530363064342
2026-06-27T14:26:26.051292,1782581054.2690294,0.03383208438754082,-0.052422113716602325,-103.78485870361328,0.14373740553855896,-0.22128146886825562,-4.836158752441406,0.37298053108483264,-4.434898342087713,-61.47969051582877
2026-06-27T14:26:26.160558,1782581054.3770316,0.051448315382003784,-0.07949667423963547,-104.29653930664062,0.183374285697937,-0.2813814878463745,-4.636325836181641,1.021466175990416,-5.062047848234814,-67.93466000665511
2026-06-27T14:26:26.270235,1782581054.485034,0.07369700819253922,-0.11357299983501434,-104.78709411621094,0.23008668422698975,-0.35177081823349,-4.4573073387146,1.4686216567111134,-5.629912975939335,-70.9942463107894
2026-06-27T14:26:26.378103,1782581054.5900362,0.10066768527030945,-0.15472550690174103,-105.24925994873047,0.2855848968029022,-0.43493393063545227,-4.363611698150635,1.613602564273087,-6.180657244830922,-70.88613283925613
2026-06-27T14:26:26.486757,1782581054.6980386,0.1352151483297348,-0.20723065733909607,-105.72124481201172,0.35693690180778503,-0.5414415001869202,-4.404460430145264,1.4390192086348486,-6.7666525825577475,-68.18152161400234
2026-06-27T14:26:26.595215,1782581054.8030407,0.17710091173648834,-0.27064892649650574,-106.19342041015625,0.44407546520233154,-0.6712458729743958,-4.620026588439941,1.010051429549455,-7.343180142875267,-63.96733962407982
2026-06-27T14:26:26.705008,1782581054.9140432,0.232060506939888,-0.3535936176776886,-106.72232818603516,0.5417933464050293,-0.816704273223877,-4.8360090255737305,0.4222854802804208,-7.958152512159916,-59.151070900596046
2026-06-27T14:26:26.813205,1782581055.0190454,0.29301825165748596,-0.44540467858314514,-107.22710418701172,0.6189329624176025,-0.9315276145935059,-4.7626166343688965,-0.10606510478539528,-8.558215857176677,-55.39922717173527
2026-06-27T14:26:26.922893,1782581055.1270478,0.36420682072639465,-0.5524783134460449,-107.73491668701172,0.7000151872634888,-1.0522916316986084,-4.6372761726379395,-0.50209566693861,-9.195235622528532,-52.99255177492601
2026-06-27T14:26:27.044190,1782581055.22605,0.437333881855011,-0.6623574495315552,-108.18753051757812,0.7778468728065491,-1.1683284044265747,-4.503233909606934,-0.6799651452341886,-9.791571395846193,-52.16465161055829
2026-06-27T14:26:27.154902,1782581055.334052,0.5260947346687317,-0.7956303358078003,-108.66511535644531,0.8663857579231262,-1.3004779815673828,-4.336889743804932,-0.6711006921823085,-10.450425674806862,-52.49128402657583
2026-06-27T14:26:27.264633,1782581055.4390543,0.6217162013053894,-0.9391287565231323,-109.11093139648438,0.9553589224815369,-1.4334256649017334,-4.150749206542969,-0.5070860706832141,-11.090920670832304,-53.57945755225123
2026-06-27T14:26:27.374147,1782581055.5470567,0.7299226522445679,-1.1014575958251953,-109.5474624633789,1.0486820936203003,-1.5730102062225342,-3.9272282123565674,-0.2572165322375921,-11.748366786629907,-54.977551857730326
2026-06-27T14:26:27.482379,1782581055.6520588,0.8448101878166199,-1.273772120475769,-109.94660949707031,1.1393846273422241,-1.7087841033935547,-3.6664838790893555,-0.012271371745245587,-12.409801042016232,-56.20745677961199
2026-06-27T14:26:27.591096,1782581055.7600613,0.9727799892425537,-1.4656840562820435,-110.32518005371094,1.2295315265655518,-1.843812346458435,-3.3299224376678467,0.18255996119093135,-13.179242531567732,-57.08725704488363
2026-06-27T14:26:27.700057,1782581055.8680634,1.1099750995635986,-1.6714179515838623,-110.6611557006836,1.3078603744506836,-1.9611902236938477,-2.8606858253479004,0.2915768812766207,-14.175696025302294,-57.49469330679774
2026-06-27T14:26:27.809255,1782581055.9760659,1.2547109127044678,-1.8884530067443848,-110.9374771118164,1.379494547843933,-2.068575859069824,-2.297294855117798,0.3078124701439095,-15.308060080646898,-57.484213883264516
2026-06-27T14:26:27.917507,1782581056.084068,1.4106013774871826,-2.1222174167633057,-111.1741714477539,1.511364459991455,-2.2663962841033936,-2.1145570278167725,0.22486833952456994,-15.174053989131083,-57.185494670084864
2026-06-27T14:26:28.025673,1782581056.1920705,1.581188678741455,-2.378030776977539,-111.39579772949219,1.6460330486297607,-2.4684667587280273,-1.9899588823318481,0.10820949382381839,-14.224547020056105,-56.76838622316461
2026-06-27T14:26:28.135662,1782581056.3000727,1.7657418251037598,-2.654802083969116,-111.60408782958984,1.7694941759109497,-2.653740882873535,-1.8680806159973145,0.011889216295517112,-12.93049131568369,-56.37687840731426
2026-06-27T14:26:28.244382,1782581056.4050748,1.9573304653167725,-2.942136526107788,-111.7944564819336,1.877801537513733,-2.8162810802459717,-1.7598692178726196,-0.042614002274622774,-11.584446582201442,-56.10393376385045
2026-06-27T14:26:28.353574,1782581056.5130773,2.165616035461426,-3.2545230388641357,-111.97923278808594,1.977270483970642,-2.965555191040039,-1.663562297821045,-0.06112688856616806,-10.239354031196275,-55.963070994281935
2026-06-27T14:26:28.462285,1782581056.6150794,2.3716342449188232,-3.563516855239868,-112.1448974609375,2.0605366230010986,-3.090500593185425,-1.5868433713912964,-0.0552133279513856,-9.063264693363367,-55.94792539391357
2026-06-27T14:26:28.571557,1782581056.7200816,2.5920491218566895,-3.8941080570220947,-112.30793762207031,2.1360983848571777,-3.2038605213165283,-1.5207792520523071,-0.038040104602492686,-7.971930810458413,-56.01648220677556
2026-06-27T14:26:28.681816,1782581056.825084,2.8198931217193604,-4.235844135284424,-112.46463775634766,2.2021987438201904,-3.3029909133911133,-1.4655685424804688,-0.019203934669872292,-7.0066954055330655,-56.127399007211196
2026-06-27T14:26:28.789279,1782581056.927086,3.047445058822632,-4.5771379470825195,-112.61175537109375,2.2582345008850098,-3.386988878250122,-1.4202055931091309,-0.00452691420392179,-6.18525612671551,-56.23902467044495
2026-06-27T14:26:28.899509,1782581057.0350883,3.2941901683807373,-4.9472126960754395,-112.76285552978516,2.309760570526123,-3.4641880989074707,-1.3791104555130005,0.005134814205784485,-5.430591463486541,-56.33353889201661
2026-06-27T14:26:29.006375,1782581057.1400907,3.539050340652466,-5.314448356628418,-112.90580749511719,2.353092908859253,-3.5290818214416504,-1.3446294069290161,0.009122172096518437,-4.798421506077353,-56.38875938063664
2026-06-27T14:26:29.115070,1782581057.2450929,3.788146495819092,-5.6880292892456055,-113.04534149169922,2.390592336654663,-3.585223913192749,-1.3139415979385376,0.009284181496372636,-4.254939586091123,-56.40705402200238
2026-06-27T14:26:29.224797,1782581057.350095,4.0409088134765625,-6.0670976638793945,-113.18183898925781,2.423036575317383,-3.633795976638794,-1.2863329648971558,0.007324454920045591,-3.7886004742478523,-56.39621548375781
2026-06-27T14:26:29.333003,1782581057.4550974,4.296841621398926,-6.450913429260254,-113.3155517578125,2.45110821723938,-3.6758298873901367,-1.261041283607483,0.004648471290217434,-3.3892049010359733,-56.36802411337728
2026-06-27T14:26:29.441692,1782581057.5570996,4.548095226287842,-6.827704429626465,-113.44300079345703,2.474764585494995,-3.7112643718719482,-1.23814857006073,0.002239109329320418,-3.0565619283117043,-56.33533418520001
2026-06-27T14:26:29.551404,1782581057.6591017,4.801599025726318,-7.207871913909912,-113.56819152832031,2.495352268218994,-3.7421176433563232,-1.216579794883728,0.0004475274408824701,-2.7709411343924133,-56.30603444409776
2026-06-27T14:26:29.659802,1782581057.767104,5.072149753570557,-7.6135993003845215,-113.69840240478516,2.514277696609497,-3.7704951763153076,-1.1948950290679932,-0.0006633213019990869,-2.5124569100728613,-56.284417964301774
2026-06-27T14:26:29.771475,1782581057.8691063,5.3294219970703125,-7.99941349029541,-113.81928253173828,2.529823064804077,-3.7938129901885986,-1.1752173900604248,-0.0010754332042848694,-2.303977421199458,-56.27461432029767
2026-06-27T14:26:29.878704,1782581057.9741085,5.595810413360596,-8.398900985717773,-113.94166564941406,2.54380464553833,-3.8147900104522705,-1.1556578874588013,-0.0010498169997185326,-2.1201321659102144,-56.274094783289634
2026-06-27T14:26:29.987207,1782581058.0761106,5.855903148651123,-8.788948059082031,-114.05860137939453,2.5557010173797607,-3.8326416015625,-1.1372030973434448,-0.0007900005130928057,-1.9673238950680276,-56.280086789839665
2026-06-27T14:26:30.095403,1782581058.1841128,6.132535934448242,-9.203798294067383,-114.18038940429688,2.566749095916748,-3.849216938018799,-1.1181243658065796,-0.00044432649512756583,-1.8290104582986357,-56.28976803206703
2026-06-27T14:26:30.203352,1782581058.2891152,6.402556419372559,-9.608735084533691,-114.2968521118164,2.576181173324585,-3.8633668422698975,-1.0999807119369507,-0.00015432635358893993,-1.7143049009229263,-56.29931869264617
2026-06-27T14:26:30.312726,1782581058.3941174,6.673508167266846,-10.015067100524902,-114.41140747070312,2.584510087966919,-3.875859022140503,-1.0821702480316162,3.2181005238591735e-05,-1.616246128418887,-56.30683644948544
2026-06-27T14:26:30.421334,1782581058.4991195,6.945282936096191,-10.42263412475586,-114.52410888671875,2.591892719268799,-3.886929988861084,-1.064653992652893,0.00010625902448813534,-1.5323048569967523,-56.31129750408972
2026-06-27T14:26:30.530000,1782581058.601122,7.209993839263916,-10.819608688354492,-114.63185119628906,2.5982847213745117,-3.896515130996704,-1.0478864908218384,8.712780891839248e-05,-1.4623030367031917,-56.31271056324647
2026-06-27T14:26:30.638518,1782581058.706124,7.483135223388672,-11.229223251342773,-114.7409896850586,2.604173421859741,-3.9053475856781006,-1.030857801437378,7.1707283836808535e-06,-1.4004046845629814,-56.311805638095755
2026-06-27T14:26:30.749237,1782581058.8051262,7.741206645965576,-11.616239547729492,-114.8422622680664,2.609170913696289,-3.9128458499908447,-1.0150351524353027,-9.827731739147363e-05,-1.3500883960228804,-56.30966482432043
2026-06-27T14:26:30.855589,1782581058.9071283,8.007589340209961,-12.01572036743164,-114.94496154785156,2.613832473754883,-3.919841766357422,-0.9988469481468201,-0.00020677672186897157,-1.3053364143417046,-56.307062554897215
2026-06-27T14:26:30.965317,1782581059.0121305,8.274425506591797,-12.415882110595703,-115.04603576660156,2.618065595626831,-3.9261980056762695,-0.9828978776931763,-0.000296347184533685,-1.2665807717615332,-56.30466905033297
2026-06-27T14:26:31.074004,1782581059.1141326,8.549538612365723,-12.828458786010742,-115.14837646484375,2.6220333576202393,-3.932159900665283,-0.9666339159011841,-0.00036084057631662254,-1.2321191879126099,-56.302967667580084
2026-06-27T14:26:31.183236,1782581059.219135,8.825053215026855,-13.241637229919434,-115.2490234375,2.6256589889526367,-3.937609910964966,-0.950538158416748,-0.00039669888694626905,-1.2023688464317577,-56.30216674067595
2026-06-27T14:26:31.291884,1782581059.3271372,9.108817100524902,-13.667190551757812,-115.35079956054688,2.629079818725586,-3.942753791809082,-0.934173047542572,-0.00040453636383316704,-1.1759387040122529,-56.30220030625025
2026-06-27T14:26:31.404129,1782581059.4261394,9.369247436523438,-14.05774974822998,-115.44255065917969,2.6319761276245117,-3.9471077919006348,-0.9192594289779663,-0.00040360373357412516,-1.154887293970941,-56.30275981535201
2026-06-27T14:26:31.510385,1782581059.5251415,9.62995433807373,-14.448724746704102,-115.53282928466797,2.6346709728240967,-3.9511613845825195,-0.9045300483703613,-0.00039414224792068804,-1.136423067480424,-56.30357799725483
2026-06-27T14:26:31.619140,1782581059.6301436,9.90674114227295,-14.863819122314453,-115.62700653076172,2.637335777282715,-3.9551689624786377,-0.8889322876930237,-0.0003947207949663254,-1.119370692352028,-56.304456641362094
2026-06-27T14:26:31.728873,1782581059.738146,10.191720008850098,-15.291193008422852,-115.72217559814453,2.639897346496582,-3.95902419090271,-0.8733691573143005,-0.0003933125197999648,-1.1038296602968278,-56.305230465241785
2026-06-27T14:26:31.837888,1782581059.8431482,10.469039916992188,-15.707085609436035,-115.81307983398438,2.642228364944458,-3.9625329971313477,-0.8581607341766357,-0.00039912598175432856,-1.0907209441859695,-56.305729210510286
2026-06-27T14:26:31.945528,1782581059.9481506,10.746596336364746,-16.123334884643555,-115.90241241455078,2.644423484802246,-3.965838670730591,-0.8431786298751831,-0.0003972035015015962,-1.0791014963222956,-56.30596055467056
2026-06-27T14:26:32.054468,1782581060.0531528,11.024375915527344,-16.5399227142334,-115.99015045166016,2.6464974880218506,-3.968961238861084,-0.8283421397209167,-0.0003966444663758072,-1.0688065401972204,-56.30601826105093
2026-06-27T14:26:32.164162,1782581060.158155,11.3023681640625,-16.956829071044922,-116.07635498046875,2.6484620571136475,-3.97192120552063,-0.81365966796875,-0.00039887933181439474,-1.059630689182129,-56.30590300440925
2026-06-27T14:26:32.271856,1782581060.2631571,11.580559730529785,-17.374040603637695,-116.16102600097656,2.650329113006592,-3.9747350215911865,-0.7991292476654053,-0.0004034742630855259,-1.0514149241452584,-56.30567660766013
2026-06-27T14:26:32.381573,1782581060.3681595,11.858943939208984,-17.791540145874023,-116.24418640136719,2.6521079540252686,-3.9774153232574463,-0.7847545146942139,-0.0004139536958141901,-1.0440194496982194,-56.305585394314654
2026-06-27T14:26:32.490768,1782581060.4761617,12.137511253356934,-18.209312438964844,-116.32584381103516,2.653806447982788,-3.9799771308898926,-0.7706130743026733,-0.000424552762000592,-1.0372881285821582,-56.30558357879438
2026-06-27T14:26:32.599021,1782581060.5751638,12.408286094665527,-18.615398406982422,-116.40374755859375,2.6553847789764404,-3.9823572635650635,-0.7568738460540771,-0.0004252838952141014,-1.031389545704902,-56.30560916039756
2026-06-27T14:26:32.707531,1782581060.6801662,12.687190055847168,-19.033676147460938,-116.48249053955078,2.6569437980651855,-3.9847090244293213,-0.7429640293121338,-0.0004261460869761906,-1.0257877834352649,-56.30570737331321
2026-06-27T14:26:32.815743,1782581060.7821684,12.958279609680176,-19.44024085998535,-116.5575942993164,2.6583991050720215,-3.9869048595428467,-0.7296163439750671,-0.00042415330407250034,-1.0207643378590359,-56.30581805009057
2026-06-27T14:26:32.925869,1782581060.8871706,13.237493515014648,-19.85898780822754,-116.63349914550781,2.659839391708374,-3.98907732963562,-0.7160122394561768,-0.0004239594424918935,-1.0159868875123395,-56.305922779904805
2026-06-27T14:26:33.035069,1782581060.9891727,13.508872032165527,-20.265987396240234,-116.70587158203125,2.661187171936035,-3.991111993789673,-0.7029808163642883,-0.00042459421643047796,-1.0116501931950554,-56.30602655145189
2026-06-27T14:26:33.144279,1782581061.0941749,13.788373947143555,-20.685169219970703,-116.77898406982422,2.6625239849090576,-3.9931302070617676,-0.6896989345550537,-0.0004191720007955398,-1.0074753446584117,-56.306136047951775
2026-06-27T14:26:33.253590,1782581061.1991773,14.068013191223145,-21.10456085205078,-116.8507080078125,2.6638126373291016,-3.995077133178711,-0.6765785217285156,-0.00042157787542969734,-1.003541887706528,-56.30624122017891
2026-06-27T14:26:33.362304,1782581061.3071795,14.355780601501465,-21.536144256591797,-116.92304992675781,2.665091037750244,-3.9970085620880127,-0.6632351279258728,-0.0004195013728323637,-0.9997194882878153,-56.30635170159724
2026-06-27T14:26:33.471020,1782581061.4121819,14.6356840133667,-21.955934524536133,-116.99201965332031,2.6662914752960205,-3.9988203048706055,-0.6504468321800232,-0.0004171790614385791,-0.9961963548865385,-56.306453962751014
2026-06-27T14:26:33.579037,1782581061.514184,14.907710075378418,-22.363908767700195,-117.0577392578125,2.6674177646636963,-4.000522136688232,-0.6381405591964722,-0.00041554938962327627,-0.9929612571964259,-56.30656017110564
2026-06-27T14:26:33.687766,1782581061.6191862,15.187854766845703,-22.78406524658203,-117.12408447265625,2.668539524078369,-4.002218246459961,-0.6257969737052917,-0.000414035519857081,-0.9896996108310833,-56.30666447583898
2026-06-27T14:26:33.796478,1782581061.7211883,15.460105895996094,-23.192378997802734,-117.18730163574219,2.6695919036865234,-4.003808498382568,-0.6137917041778564,-0.00041237496762828237,-0.986726817356725,-56.30676657528988
2026-06-27T14:26:33.905223,1782581061.8261907,15.740473747253418,-23.612873077392578,-117.25111389160156,2.670639991760254,-4.0053935050964355,-0.6016595959663391,-0.0004072934338503579,-0.9837501008730679,-56.306873092093916
2026-06-27T14:26:34.013440,1782581061.9311929,16.020950317382812,-24.033525466918945,-117.31365966796875,2.6716535091400146,-4.006926536560059,-0.589684784412384,-0.00039565861641532917,-0.9808897753183659,-56.306929346553034
2026-06-27T14:26:34.123156,1782581062.036195,16.301530838012695,-24.454343795776367,-117.37495422363281,2.672633171081543,-4.00840950012207,-0.5778801441192627,-0.0003953556344936483,-0.9781183524779492,-56.30692806725578
2026-06-27T14:26:34.231964,1782581062.1381972,16.57419204711914,-24.863283157348633,-117.43331909179688,2.673553943634033,-4.009801864624023,-0.5664911866188049,-0.0003926071108306664,-0.9755441916531399,-56.30697512010061
2026-06-27T14:26:34.339719,1782581062.2461996,16.862991333007812,-25.29642677307129,-117.49385833740234,2.674497604370117,-4.011229515075684,-0.5547348260879517,-0.0003891190995605974,-0.9728721412704888,-56.3070883667647
2026-06-27T14:26:34.449600,1782581062.3512018,17.14386749267578,-25.717683792114258,-117.55152130126953,2.675384283065796,-4.012571334838867,-0.5434742569923401,-0.0003720579897007809,-0.9703306168892313,-56.307192207541675
2026-06-27T14:26:34.557810,1782581062.4592042,17.432857513427734,-26.151123046875,-117.60958099365234,2.676265239715576,-4.0139055252075195,-0.5319997668266296,-0.00036605433310037664,-0.9678165654924262,-56.30726060275494
2026-06-27T14:26:34.666475,1782581062.5642064,17.71392059326172,-26.57265853881836,-117.66487121582031,2.677093744277954,-4.0151591300964355,-0.521064281463623,-0.00036608523950019235,-0.9654113344345965,-56.30726214817282
2026-06-27T14:26:34.775863,1782581062.6692085,17.995065689086914,-26.994325637817383,-117.7190170288086,2.67789363861084,-4.01637077331543,-0.5102759003639221,-0.00036456082474402784,-0.9630817555204165,-56.30736234771195
2026-06-27T14:26:34.884108,1782581062.7712107,18.268253326416016,-27.404064178466797,-117.7705307006836,2.678645133972168,-4.0175089836120605,-0.4999116361141205,-0.0003545575775060444,-0.9609041730414266,-56.30745221438145
2026-06-27T14:26:34.992940,1782581062.8702128,18.533477783203125,-27.80185890197754,-117.81953430175781,2.679351806640625,-4.018579483032227,-0.49005651473999023,-0.0003388758798960308,-0.9588093899134937,-56.30748305926265
2026-06-27T14:26:35.101617,1782581062.9782152,18.822891235351562,-28.235933303833008,-117.87189483642578,2.68009614944458,-4.019706726074219,-0.4794873893260956,-0.00033911591373409503,-0.9565867134906929,-56.30755285783053
2026-06-27T14:26:35.210701,1782581063.0802174,19.096303939819336,-28.646007537841797,-117.9202880859375,2.680774211883545,-4.020735263824463,-0.4695664942264557,-0.00033806279354991033,-0.9545708783226884,-56.30764744787761
2026-06-27T14:26:35.320432,1782581063.1852195,19.37782859802246,-29.068248748779297,-117.96906280517578,2.6814498901367188,-4.021759510040283,-0.459646612405777,-0.0003300318472450088,-0.9525063998404091,-56.307645506487574
2026-06-27T14:26:35.428504,1782581063.290222,19.659421920776367,-29.49059295654297,-118.01680755615234,2.6821022033691406,-4.02274751663208,-0.4498477876186371,-0.00031257827497270204,-0.9505032522031095,-56.3077091400865
2026-06-27T14:26:35.537641,1782581063.398224,19.94913101196289,-29.92511558532715,-118.06485748291016,2.682749032974243,-4.023728370666504,-0.43994951248168945,-0.0003121324559150326,-0.9485003241533961,-56.307818746064925
2026-06-27T14:26:35.646397,1782581063.5032263,20.23085594177246,-30.3476619720459,-118.11055755615234,2.6833553314208984,-4.0246477127075195,-0.43047457933425903,-0.00031187506543491625,-0.9466041572780793,-56.3078179868605
2026-06-27T14:26:35.755071,1782581063.6082287,20.51264190673828,-30.770307540893555,-118.15526580810547,2.6839396953582764,-4.025534629821777,-0.42111608386039734,-0.0003051216650410578,-0.944767261293174,-56.30787405307236
2026-06-27T14:26:35.863887,1782581063.7132308,20.794490814208984,-31.193044662475586,-118.1989974975586,2.684504508972168,-4.026391983032227,-0.41203755140304565,-0.0002894243567166161,-0.9429561151796607,-56.307977252738155
2026-06-27T14:26:35.973616,1782581063.818233,21.07640266418457,-31.615863800048828,-118.2417984008789,2.685048818588257,-4.027217388153076,-0.40302443504333496,-0.000284481334685349,-0.9412246450317597,-56.30798208489757
2026-06-27T14:26:36.082290,1782581063.9232354,21.358369827270508,-32.03877258300781,-118.28364562988281,2.685573101043701,-4.028012752532959,-0.39419445395469666,-0.00028424161851819404,-0.939523449133879,-56.30798889439797
2026-06-27T14:26:36.191036,1782581064.0282376,21.64038848876953,-32.46174621582031,-118.3245849609375,2.6860783100128174,-4.02877950668335,-0.38552185893058777,-0.0002792524189306232,-0.9378680620792136,-56.30808621865037
2026-06-27T14:26:36.299554,1782581064.1302397,21.91439437866211,-32.87274932861328,-118.36348724365234,2.686551570892334,-4.029498100280762,-0.3772280514240265,-0.0002790064236565842,-0.936302545963579,-56.30819283850949
2026-06-27T14:26:36.409267,1782581064.2382421,22.204570770263672,-33.307960510253906,-118.40375518798828,2.687034845352173,-4.03023099899292,-0.368643194437027,-0.00026768976556740975,-0.9346909953173806,-56.308230635219154
2026-06-27T14:26:36.518988,1782581064.3462443,22.494810104370117,-33.74329376220703,-118.44312286376953,2.687499523162842,-4.030936241149902,-0.3602323532104492,-0.0002605849104087292,-0.9331219479613908,-56.308232336283645
2026-06-27T14:26:36.625712,1782581064.4452465,22.76089859008789,-34.14237976074219,-118.47840881347656,2.6879093647003174,-4.031558513641357,-0.3525901138782501,-0.000254411647095673,-0.931727849675834,-56.30826289450101
2026-06-27T14:26:36.735608,1782581064.5502486,23.043148040771484,-34.56575393676758,-118.51502227783203,2.688328266143799,-4.0321946144104,-0.344689279794693,-0.000257706401775963,-0.9302897254786789,-56.308374767216996
2026-06-27T14:26:36.845071,1782581064.6522508,23.317394256591797,-34.977054595947266,-118.54978942871094,2.6887199878692627,-4.032790184020996,-0.3371480107307434,-0.0002575934141354721,-0.9289288566269857,-56.308391696873656
2026-06-27T14:26:36.953811,1782581064.7542531,23.591663360595703,-35.38846206665039,-118.58380126953125,2.6890976428985596,-4.0333638191223145,-0.32975390553474426,-0.00025537071500805704,-0.9276077501532268,-56.30842889649132
2026-06-27T14:26:37.062474,1782581064.8562553,23.865978240966797,-35.799869537353516,-118.6170654296875,2.6894607543945312,-4.03391695022583,-0.3225036561489105,-0.0002451540872572868,-0.9263238172656456,-56.308426479835845
2026-06-27T14:26:37.170755,1782581064.9612575,24.14839744567871,-36.22350311279297,-118.65054321289062,2.6898202896118164,-4.034464359283447,-0.3151737451553345,-0.00023540982151486377,-0.9250393780720044,-56.30851957443455
2026-06-27T14:26:37.280459,1782581065.0632596,24.42277717590332,-36.635040283203125,-118.68233489990234,2.6901564598083496,-4.034975528717041,-0.3082016110420227,-0.00022900820684762591,-0.9238310023235828,-56.308555812831806
2026-06-27T14:26:37.389156,1782581065.168262,24.705272674560547,-37.05875015258789,-118.7143325805664,2.6904890537261963,-4.035482406616211,-0.3011520206928253,-0.00023072143607216284,-0.922626571328638,-56.30855386713573
2026-06-27T14:26:37.497873,1782581065.2702641,24.979717254638672,-37.47041702270508,-118.74470520019531,2.690800189971924,-4.035956382751465,-0.2944447100162506,-0.00022119639037739716,-0.9214892780140009,-56.30863927439046
2026-06-27T14:26:37.606942,1782581065.3752663,25.25420570373535,-37.882083892822266,-118.77440643310547,2.691098928451538,-4.036411285400391,-0.2878521680831909,-0.00020370472233543108,-0.9203850320757814,-56.308638172646106
2026-06-27T14:26:37.715640,1782581065.4772685,25.536788940429688,-38.305965423583984,-118.80429077148438,2.691394567489624,-4.036860942840576,-0.28120747208595276,-0.00020633440129180785,-0.9192859336810066,-56.308676895864615
2026-06-27T14:26:37.826849,1782581065.5792706,25.81133270263672,-38.7177619934082,-118.8326416015625,2.6916699409484863,-4.037281036376953,-0.2749005854129791,-0.00019180876957225582,-0.9182430325208211,-56.30872562004736
2026-06-27T14:26:37.933060,1782581065.6812727,26.085906982421875,-39.12955856323242,-118.86036682128906,2.6919355392456055,-4.037684440612793,-0.26866868138313293,-0.00018774790083800154,-0.9172493556327339,-56.30872517225747
2026-06-27T14:26:38.041866,1782581065.7802749,26.35240936279297,-39.52934265136719,-118.88667297363281,2.692183494567871,-4.038063049316406,-0.26282134652137756,-0.00020082999201467223,-0.916304428286215,-56.30877613019941
2026-06-27T14:26:38.151123,1782581065.8852773,26.6351261138916,-39.95338439941406,-118.9139404296875,2.6924355030059814,-4.03844690322876,-0.2566509544849396,-0.0001814069493701933,-0.9153383958783369,-56.308814158482356
2026-06-27T14:26:38.260378,1782581065.9842794,26.901687622070312,-40.35319519042969,-118.93907165527344,2.692664623260498,-4.038794994354248,-0.25100159645080566,-0.00017896059626110357,-0.9144543511722018,-56.30881444630327
2026-06-27T14:26:38.368852,1782581066.0922816,27.19251251220703,-40.789398193359375,-118.96585083007812,2.692904233932495,-4.039159774780273,-0.2449454963207245,-0.00017888819480132523,-0.9135216754679834,-56.308834370086316
2026-06-27T14:26:38.477957,1782581066.1972837,27.475296020507812,-41.21357345581055,-118.99126434326172,2.693127155303955,-4.039500713348389,-0.2391880303621292,-0.00017451657240730406,-0.9126401068810351,-56.308937900477815
2026-06-27T14:26:38.585474,1782581066.3022861,27.758079528808594,-41.63774871826172,-119.01608276367188,2.693341016769409,-4.039827346801758,-0.2335509955883026,-0.00016647332358352466,-0.9117924346357673,-56.30896102665894
2026-06-27T14:26:38.695653,1782581066.4072883,28.0408992767334,-42.06192398071289,-119.04031372070312,2.6935465335845947,-4.0401411056518555,-0.2280362993478775,-0.00014895783154163757,-0.9109713845878658,-56.30896187340449
2026-06-27T14:26:38.804854,1782581066.5152907,28.331830978393555,-42.4982795715332,-119.06465148925781,2.6937484741210938,-4.040449619293213,-0.22247819602489471,-0.00016735165416686805,-0.9101588994462466,-56.30896249620743
2026-06-27T14:26:38.913167,1782581066.617293,28.606599807739258,-42.910465240478516,-119.08708190917969,2.6939306259155273,-4.0407280921936035,-0.2173539698123932,-0.00017380166700221272,-0.9094175285836182,-56.30903821199209
2026-06-27T14:26:39.021171,1782581066.722295,28.88946533203125,-43.334774017333984,-119.10963439941406,2.694110870361328,-4.0410027503967285,-0.2121812105178833,-0.0001446977137159382,-0.9086803485013235,-56.309061477282526
2026-06-27T14:26:39.130003,1782581066.8272972,29.172382354736328,-43.75908279418945,-119.13165283203125,2.6942832469940186,-4.041266918182373,-0.20714062452316284,-0.0001351013127468234,-0.9079721844602179,-56.309056883555485
2026-06-27T14:26:39.240186,1782581066.9322996,29.455299377441406,-44.18339157104492,-119.15314483642578,2.694448709487915,-4.041518688201904,-0.20215988159179688,-0.00014575274619168518,-0.9073002167498104,-56.3090585111893
2026-06-27T14:26:39.348780,1782581067.0373018,29.738216400146484,-44.6077995300293,-119.17411041259766,2.6946070194244385,-4.041762351989746,-0.1973462700843811,-0.00016113910631588747,-0.9066353886954615,-56.30911213959054
