time,sim_t,x,y,z,vx,vy,vz,roll_deg,pitch_deg,yaw_deg
2026-06-27T14:54:38.297074,1782582701.1661625,0.0,0.0,2.0396859645843506,0.0,0.0,0.0,0.0,0.0,0.0003895640909249624
2026-06-27T14:54:38.409643,1782582701.2771647,0.0,0.0,2.0396859645843506,0.0,0.0,0.0,0.0,0.0,0.0003895640909249624
2026-06-27T14:54:38.519928,1782582701.3851671,0.0,0.0,2.0396859645843506,0.0,0.0,0.0,0.0,0.0,0.0003895640909249624
2026-06-27T14:54:38.627551,1782582701.4901693,0.0,0.0,2.0396859645843506,0.0,0.0,0.0,0.0,0.0,0.0003895640909249624
2026-06-27T14:54:38.736217,1782582701.5981717,0.0,0.0,2.0396859645843506,0.0,0.0,0.0,0.0,0.0,0.0003895640909249624
2026-06-27T14:54:38.845714,1782582701.706174,0.0,0.0,2.0396859645843506,0.0,0.0,0.0,0.0,0.0,0.0003895640909249624
2026-06-27T14:54:38.954262,1782582701.8141763,0.0,0.0,2.0396859645843506,0.0,0.0,0.0,0.0,0.0,0.0003895640909249624
2026-06-27T14:54:39.063570,1782582701.9191785,0.0,0.0,2.0396859645843506,0.0,0.0,0.0,0.0,0.0,0.0003895640909249624
2026-06-27T14:54:39.171960,1782582702.030181,0.0,0.0,2.0396859645843506,0.0,0.0,0.0,0.0,0.0,0.0003895640909249624
2026-06-27T14:54:39.280177,1782582702.138183,0.0,0.0,2.0396859645843506,0.0,0.0,0.0,0.0,0.0,0.0003895640909249624
2026-06-27T14:54:39.389794,1782582702.2431855,0.0,0.0,2.0396859645843506,0.0,0.0,0.0,0.0,0.0,0.0003895640909249624
2026-06-27T14:54:39.497523,1782582702.3511877,0.0,0.0,2.0396859645843506,0.0,0.0,0.0,0.0,0.0,0.0003895640909249624
2026-06-27T14:54:39.607225,1782582702.4591901,0.0,0.0,2.0396859645843506,0.0,0.0,0.0,0.0,0.0,0.0003895640909249624
2026-06-27T14:54:39.715743,1782582702.5641923,0.0,0.0,2.0396859645843506,0.0,0.0,0.0,0.0,0.0,0.0003895640909249624
2026-06-27T14:54:39.825917,1782582702.6721945,0.0,0.0,2.024751663208008,0.0,0.0,-0.3356570899486542,0.0,0.0,0.0003895640909249624
2026-06-27T14:54:39.933570,1782582702.777197,0.0,0.0,1.9829670190811157,0.0,0.0,-0.4304283857345581,0.0,0.0,0.0003895640909249624
2026-06-27T14:54:40.041932,1782582702.882199,0.0,0.0,1.9367469549179077,0.0,0.0,-0.446438193321228,0.0,0.0,0.0003895640909249624
2026-06-27T14:54:40.150121,1782582702.9902012,0.0,0.0,1.8881454467773438,0.0,0.0,-0.4530637860298157,0.0,0.0,0.0003895640909249624
2026-06-27T14:54:40.259858,1782582703.0952036,0.0,0.0,1.8403104543685913,0.0,0.0,-0.457923948764801,0.0,0.0,0.0003895640909249624
2026-06-27T14:54:40.368611,1782582703.2032058,0.0,0.0,1.7906140089035034,0.0,0.0,-0.4622756838798523,0.0,0.0,0.0003895640909249624
2026-06-27T14:54:40.478380,1782582703.3112082,0.0,0.0,1.740474820137024,0.0,0.0,-0.4661315679550171,0.0,0.0,0.0003895640909249624
2026-06-27T14:54:40.586642,1782582703.4162104,0.0,0.0,1.691351294517517,0.0,0.0,-0.4694668650627136,0.0,0.0,0.0003895640909249624
2026-06-27T14:54:40.695330,1782582703.5212126,0.0,0.0,1.6418970823287964,0.0,0.0,-0.4724401831626892,0.0,0.0,0.0003895640909249624
2026-06-27T14:54:40.804725,1782582703.629215,0.0,0.0,1.5907224416732788,0.0,0.0,-0.4751622974872589,0.0,0.0,0.0003895640909249624
2026-06-27T14:54:40.913949,1782582703.7372172,0.0,0.0,1.5392705202102661,0.0,0.0,-0.47758129239082336,0.0,0.0,0.0003895640909249624
2026-06-27T14:54:41.022169,1782582703.8422196,0.0,0.0,1.489011287689209,0.0,0.0,-0.47967445850372314,0.0,0.0,0.0003895640909249624
2026-06-27T14:54:41.130326,1782582703.9502218,0.0,0.0,1.4371000528335571,0.0,0.0,-0.48159098625183105,0.0,0.0,0.0003895640909249624
2026-06-27T14:54:41.241077,1782582704.0582242,0.0,0.0,1.3849931955337524,0.0,0.0,-0.4832940101623535,0.0,0.0,0.0003895640909249624
2026-06-27T14:54:41.348599,1782582704.1662264,0.0,0.0,1.3327133655548096,0.0,0.0,-0.48480725288391113,0.0,0.0,0.0003895640909249624
2026-06-27T14:54:41.457878,1782582704.2742288,0.0,0.0,1.280279278755188,0.0,0.0,-0.4861520528793335,0.0,0.0,0.0003895640909249624
2026-06-27T14:54:41.567861,1782582704.382231,0.0,0.0,1.2277077436447144,0.0,0.0,-0.48734718561172485,0.0,0.0,0.0003895640909249624
2026-06-27T14:54:41.675034,1782582704.4902334,0.0,0.0,1.1750147342681885,0.0,0.0,-0.48840925097465515,0.0,0.0,0.0003895640909249624
2026-06-27T14:54:41.785216,1782582704.5982356,0.0,0.0,1.122213363647461,0.0,0.0,-0.48935309052467346,0.0,0.0,0.0003895640909249624
2026-06-27T14:54:41.893990,1782582704.706238,0.0,0.0,1.070786476135254,0.0,0.0,-0.4901697337627411,0.0,0.0,0.0003895640909249624
2026-06-27T14:54:42.003191,1782582704.8082402,0.0,0.0,1.019278645515442,0.0,0.0,-0.49089792370796204,0.0,0.0,0.0003895640909249624
2026-06-27T14:54:42.110053,1782582704.9162424,0.0,0.0,0.966223955154419,0.0,0.0,-0.49156472086906433,0.0,0.0,0.0003895640909249624
2026-06-27T14:54:42.221264,1782582705.0242448,0.0,0.0,0.9131012558937073,0.0,0.0,-0.4921571612358093,0.0,0.0,0.0003895640909249624
2026-06-27T14:54:42.329950,1782582705.129247,0.0,0.0,0.8613961935043335,0.0,0.0,-0.49266985058784485,0.0,0.0,0.0003895640909249624
2026-06-27T14:54:42.437936,1782582705.2372494,0.0,0.0,0.8081607818603516,0.0,0.0,-0.4931392967700958,0.0,0.0,0.0003895640909249624
2026-06-27T14:54:42.547111,1782582705.3422515,0.0,0.0,0.7563583254814148,0.0,0.0,-0.4935454726219177,0.0,0.0,0.0003895640909249624
2026-06-27T14:54:42.655668,1782582705.4472537,0.0,0.0,0.704515814781189,0.0,0.0,-0.493907630443573,0.0,0.0,0.0003895640909249624
2026-06-27T14:54:42.764394,1782582705.552256,0.0,0.0,0.6526371836662292,0.0,0.0,-0.49423056840896606,0.0,0.0,0.0003895640909249624
2026-06-27T14:54:42.874251,1782582705.6602583,0.0,0.0,0.5992429256439209,0.0,0.0,-0.49452632665634155,0.0,0.0,0.0003895640909249624
2026-06-27T14:54:42.982515,1782582705.7652605,0.0,0.0,0.5473029017448425,0.0,0.0,-0.49478211998939514,0.0,0.0,0.0003895640909249624
2026-06-27T14:54:43.090190,1782582705.873263,0.0,0.0,0.5057768225669861,0.0,0.0,-0.1597987413406372,0.0,0.0,0.0003895640909249624
2026-06-27T14:54:43.199923,1782582705.981265,0.0,0.0,0.50145423412323,0.0,0.0,0.017778895795345306,0.0,0.0,0.0003895640909249624
2026-06-27T14:54:43.308653,1782582706.0862675,0.0,0.0,0.4760754108428955,0.0,0.0,-0.5856237411499023,0.0,0.0,0.00035397901437195895
2026-06-27T14:54:43.417553,1782582706.1942697,0.0,0.0,0.37421563267707825,0.0,0.0,-1.2974390983581543,0.0,0.0,0.00024773638378536864
2026-06-27T14:54:43.526288,1782582706.302272,0.0,0.0,0.19675332307815552,0.0,0.0,-1.9834452867507935,0.0,0.0,0.0001183075246348082
2026-06-27T14:54:43.636002,1782582706.4102743,0.0,0.0,-0.052855025976896286,0.0,0.0,-2.631662368774414,0.0,0.0,3.4134740796739533e-06
2026-06-27T14:54:43.744095,1782582706.5152764,0.0,0.0,-0.3603275418281555,0.0,0.0,-3.2168467044830322,0.0,0.0,-7.314490368828366e-05
2026-06-27T14:54:43.857311,1782582706.6232789,0.0,0.0,-0.7379271388053894,0.0,0.0,-3.76637601852417,0.0,0.0,-0.0001093419763929585
2026-06-27T14:54:43.962535,1782582706.716281,0.0,0.0,-1.1084452867507935,0.0,0.0,-4.194530487060547,0.0,0.0,-0.00010989276826292214
2026-06-27T14:54:44.071782,1782582706.821283,0.0,0.0,-1.5720670223236084,0.0,0.0,-4.627247333526611,0.0,0.0,-8.703101042139834e-05
2026-06-27T14:54:44.179993,1782582706.9292853,0.0,0.0,-2.0933890342712402,0.0,0.0,-5.017611503601074,0.0,0.0,-5.1033604492092325e-05
2026-06-27T14:54:44.289200,1782582707.0312877,0.0,0.0,-2.6157777309417725,0.0,0.0,-5.168030738830566,0.0,0.0,-1.6720107362250576e-05
2026-06-27T14:54:44.397898,1782582707.1362898,0.0,0.0,-3.1586554050445557,0.0,0.0,-5.166102886199951,0.0,0.0,1.1008492302604673e-05
2026-06-27T14:54:44.506237,1782582707.241292,0.0,0.0,-3.700272560119629,0.0,0.0,-5.149884223937988,0.0,0.0,2.711906737725881e-05
2026-06-27T14:54:44.615274,1782582707.3462942,0.0,0.0,-4.240172863006592,0.0,0.0,-5.133945941925049,0.0,0.0,3.1927246948301835e-05
2026-06-27T14:54:44.724471,1782582707.4512966,0.0,0.0,-4.778475284576416,0.0,0.0,-5.119483947753906,0.0,0.0,2.7970720789426522e-05
2026-06-27T14:54:44.833627,1782582707.5562987,0.0,0.0,-5.31533670425415,0.0,0.0,-5.1064629554748535,0.0,0.0,1.896170449198428e-05
2026-06-27T14:54:44.943339,1782582707.661301,0.0,0.0,-5.850900173187256,0.0,0.0,-5.094750881195068,0.0,0.0,8.637965562081743e-06
2026-06-27T14:54:45.051549,1782582707.7693033,0.0,0.0,-6.40054988861084,0.0,0.0,-5.0839314460754395,0.0,0.0,-5.236211800964516e-07
2026-06-27T14:54:45.159294,1782582707.8713055,0.0,0.0,-6.91864538192749,0.0,0.0,-5.074740886688232,0.0,0.0,-6.553131000821603e-06
2026-06-27T14:54:45.268552,1782582707.979308,0.0,0.0,-7.466248989105225,0.0,0.0,-5.065989017486572,0.0,0.0,-1.0675410367476835e-05
2026-06-27T14:54:45.378338,1782582708.08731,0.0,0.0,-8.012956619262695,0.0,0.0,-5.058143138885498,0.0,0.0,-1.3323944252930152e-05
2026-06-27T14:54:45.487053,1782582708.1923122,0.0,0.0,-8.543707847595215,0.0,0.0,-5.051293849945068,0.0,0.0,-1.3234865109411214e-05
2026-06-27T14:54:45.595830,1782582708.3003147,0.0,0.0,-9.088911056518555,0.0,0.0,-5.0449676513671875,0.0,0.0,-1.065411764799525e-05
2026-06-27T14:54:45.705014,1782582708.4083169,0.0,0.0,-9.633472442626953,0.0,0.0,-5.039294242858887,0.0,0.0,-8.948952769059515e-06
2026-06-27T14:54:45.813836,1782582708.5163193,0.0,0.0,-10.177448272705078,0.0,0.0,-5.034211158752441,0.0,0.0,-7.88150284375345e-06
2026-06-27T14:54:45.922033,1782582708.6213214,0.0,0.0,-10.705814361572266,0.0,0.0,-5.029773235321045,0.0,0.0,-7.2090637645556904e-06
2026-06-27T14:54:46.031754,1782582708.7293239,0.0,0.0,-11.248815536499023,0.0,0.0,-5.025673866271973,0.0,0.0,-6.521287185573041e-06
2026-06-27T14:54:46.140158,1782582708.837326,0.0,0.0,-11.791399002075195,0.0,0.0,-5.021998882293701,0.0,0.0,-5.833510606590392e-06
2026-06-27T14:54:46.249334,1782582708.9423282,0.0,0.0,-12.318548202514648,0.0,0.0,-5.018791198730469,0.0,0.0,-5.1648389325794835e-06
2026-06-27T14:54:46.358067,1782582709.0473306,0.0,0.0,-12.845377922058105,0.0,0.0,-5.015906810760498,0.0,0.0,-4.496167258568575e-06
2026-06-27T14:54:46.466253,1782582709.1523328,0.0,0.0,-13.371920585632324,0.0,0.0,-5.0133137702941895,0.0,0.0,-3.827495584557669e-06
2026-06-27T14:54:46.577014,1782582709.2603352,0.0,0.0,-13.913238525390625,0.0,0.0,-5.010919094085693,0.0,0.0,-3.1397190055750223e-06
2026-06-27T14:54:46.684694,1782582709.3683374,0.0,0.0,-14.45431137084961,0.0,0.0,-5.008771896362305,0.0,0.0,-2.451942426592375e-06
2026-06-27T14:54:46.793872,1782582709.4763398,0.0,0.0,-14.99516487121582,0.0,0.0,-5.006847381591797,0.0,0.0,-1.7641658476097298e-06
2026-06-27T14:54:46.901931,1782582709.584342,0.0,0.0,-15.535820007324219,0.0,0.0,-5.005122184753418,0.0,0.0,-1.0763892686270841e-06
2026-06-27T14:54:47.011216,1782582709.6893442,0.0,0.0,-16.0612850189209,0.0,0.0,-5.0036163330078125,0.0,0.0,-4.07717543727304e-07
2026-06-27T14:54:47.119909,1782582709.7943466,0.0,0.0,-16.58660316467285,0.0,0.0,-5.002262592315674,0.0,0.0,2.5261357090911857e-07
2026-06-27T14:54:47.229141,1782582709.9023488,0.0,0.0,-17.12679100036621,0.0,0.0,-5.001011848449707,0.0,0.0,6.56243542093118e-07
2026-06-27T14:54:47.338584,1782582710.0103512,0.0,0.0,-17.666851043701172,0.0,0.0,-4.9998908042907715,0.0,0.0,8.596790966286358e-07
2026-06-27T14:54:47.445944,1782582710.1153533,0.0,0.0,-18.191797256469727,0.0,0.0,-4.9989118576049805,0.0,0.0,9.487546779263262e-07
2026-06-27T14:54:47.554874,1782582710.2233555,0.0,0.0,-18.731643676757812,0.0,0.0,-4.9980082511901855,0.0,0.0,9.9720007261238e-07
2026-06-27T14:54:47.664095,1782582710.331358,0.0,0.0,-19.271392822265625,0.0,0.0,-4.997198581695557,0.0,0.0,1.0316536729214893e-06
2026-06-27T14:54:47.773308,1782582710.4393601,0.0,0.0,-19.81106185913086,0.0,0.0,-4.9964728355407715,0.0,0.0,1.041352278256082e-06
2026-06-27T14:54:47.882983,1782582710.5473626,0.0,0.0,-20.350656509399414,0.0,0.0,-4.995821475982666,0.0,0.0,1.0510508835906748e-06
2026-06-27T14:54:47.991070,1782582710.6553648,0.0,0.0,-20.89018440246582,0.0,0.0,-4.995237827301025,0.0,0.0,1.0607494889252675e-06
2026-06-27T14:54:48.099533,1782582710.7633672,0.0,0.0,-21.42965316772461,0.0,0.0,-4.994714736938477,0.0,0.0,1.07044809425986e-06
2026-06-27T14:54:48.210221,1782582710.8713694,0.0,0.0,-21.96907615661621,0.0,0.0,-4.994245529174805,0.0,0.0,1.0790703998902457e-06
2026-06-27T14:54:48.318369,1782582710.9793718,0.0,0.0,-22.50843620300293,0.0,0.0,-4.9938249588012695,0.0,0.0,1.0309160895686392e-06
2026-06-27T14:54:48.427071,1782582711.087374,0.0,0.0,-23.047758102416992,0.0,0.0,-4.993447780609131,0.0,0.0,9.824926788765436e-07
2026-06-27T14:54:48.535834,1782582711.1923764,0.0,0.0,-23.57206916809082,0.0,0.0,-4.993118762969971,0.0,0.0,9.354143629258952e-07
2026-06-27T14:54:48.644929,1782582711.3003786,0.0,0.0,-24.11131477355957,0.0,0.0,-4.992814540863037,0.0,0.0,8.869909522337997e-07
2026-06-27T14:54:48.753688,1782582711.411381,0.0,0.0,-24.665515899658203,0.0,0.0,-4.992535591125488,0.0,0.0,8.372224468002569e-07
2026-06-27T14:54:48.862603,1782582711.5193832,0.0,0.0,-25.204713821411133,0.0,0.0,-4.992290496826172,0.0,0.0,7.887990361081614e-07
2026-06-27T14:54:48.971293,1782582711.6273856,0.0,0.0,-25.743867874145508,0.0,0.0,-4.992073059082031,0.0,0.0,7.403756254160659e-07
2026-06-27T14:54:49.080003,1782582711.7353878,0.0,0.0,-26.283021926879883,0.0,0.0,-4.99187707901001,0.0,0.0,6.919522147239703e-07
2026-06-27T14:54:49.189044,1782582711.8403902,0.0,0.0,-26.80718421936035,0.0,0.0,-4.991705417633057,0.0,0.0,6.448738987733218e-07
2026-06-27T14:54:49.298253,1782582711.9483924,0.0,0.0,-27.346269607543945,0.0,0.0,-4.991547584533691,0.0,0.0,5.964504880812263e-07
2026-06-27T14:54:49.406504,1782582712.0533948,0.0,0.0,-27.870380401611328,0.0,0.0,-4.991409778594971,0.0,0.0,5.493721721305778e-07
2026-06-27T14:54:49.515234,1782582712.161397,0.0,0.0,-28.409465789794922,0.0,0.0,-4.9912824630737305,0.0,0.0,5.009487614384823e-07
2026-06-27T14:54:49.625436,1782582712.2723994,0.0,0.0,-28.963525772094727,0.0,0.0,-4.991164207458496,0.0,0.0,4.511802560049396e-07
2026-06-27T14:54:49.734163,1782582712.3804016,0.0,0.0,-29.502580642700195,0.0,0.0,-4.991061210632324,0.0,0.0,4.0275730331271816e-07
2026-06-27T14:54:49.842910,1782582712.485404,0.0,0.0,-30.02662467956543,0.0,0.0,-4.990974426269531,0.0,0.0,3.556798779173805e-07
2026-06-27T14:54:49.951077,1782582712.5934062,0.0,0.0,-30.565641403198242,0.0,0.0,-4.990888595581055,0.0,0.0,3.0725738322503325e-07
2026-06-27T14:54:50.059697,1782582712.7014086,0.0,0.0,-31.104658126831055,0.0,0.0,-4.990817546844482,0.0,0.0,2.5883488853268594e-07
2026-06-27T14:54:50.168863,1782582712.8064108,0.0,0.0,-31.62870216369629,0.0,0.0,-4.990750789642334,0.0,0.0,2.117574631373483e-07
2026-06-27T14:54:50.277931,1782582712.914413,0.0,0.0,-32.16771697998047,0.0,0.0,-4.990688800811768,0.0,0.0,1.63334968445001e-07
2026-06-27T14:54:50.386102,1782582713.0224154,0.0,0.0,-32.70673370361328,0.0,0.0,-4.990637302398682,0.0,0.0,1.149124737526537e-07
2026-06-27T14:54:50.494304,1782582713.1304176,0.0,0.0,-33.245750427246094,0.0,0.0,-4.990585803985596,0.0,0.0,6.648978822702551e-08
2026-06-27T14:54:50.603490,1782582713.2324197,0.0,0.0,-33.75482177734375,0.0,0.0,-4.990545749664307,0.0,0.0,2.0757295364846207e-08
2026-06-27T14:54:50.712158,1782582713.3404222,0.0,0.0,-34.29383850097656,0.0,0.0,-4.990509033203125,0.0,0.0,-2.7665329730243028e-08
2026-06-27T14:54:50.821816,1782582713.4484243,0.0,0.0,-34.832855224609375,0.0,0.0,-4.990474224090576,0.0,0.0,-7.608798981143375e-08
2026-06-27T14:54:50.930079,1782582713.5564268,0.0,0.0,-35.37187194824219,0.0,0.0,-4.9904398918151855,0.0,0.0,-1.2451062444818703e-07
2026-06-27T14:54:51.038804,1782582713.661429,0.0,0.0,-35.89591598510742,0.0,0.0,-4.990410327911377,0.0,0.0,-1.7158804984352468e-07
2026-06-27T14:54:51.147500,1782582713.7694314,0.0,0.0,-36.434932708740234,0.0,0.0,-4.990386009216309,0.0,0.0,-2.20010544535872e-07
2026-06-27T14:54:51.256690,1782582713.8774335,0.0,0.0,-36.97394943237305,0.0,0.0,-4.990364074707031,0.0,0.0,-2.684330392282193e-07
2026-06-27T14:54:51.365456,1782582713.985436,0.0,0.0,-37.51296615600586,0.0,0.0,-4.990345001220703,0.0,0.0,-3.1685553392056657e-07
2026-06-27T14:54:51.475165,1782582714.0934381,0.0,0.0,-38.05198287963867,0.0,0.0,-4.990326404571533,0.0,0.0,-3.652780286129139e-07
2026-06-27T14:54:51.584180,1782582714.2014406,0.0,0.0,-38.590999603271484,0.0,0.0,-4.990309238433838,0.0,0.0,-4.1370052330526114e-07
2026-06-27T14:54:51.693863,1782582714.3124428,0.0,0.0,-39.144989013671875,0.0,0.0,-4.990291595458984,0.0,0.0,-4.634687997388668e-07
2026-06-27T14:54:51.802010,1782582714.4204452,0.0,0.0,-39.68400573730469,0.0,0.0,-4.990274429321289,0.0,0.0,-5.118922104309624e-07
2026-06-27T14:54:51.911221,1782582714.5284474,0.0,0.0,-40.2230224609375,0.0,0.0,-4.990261554718018,0.0,0.0,-5.603156211230579e-07
2026-06-27T14:54:52.019901,1782582714.6364498,0.0,0.0,-40.76203918457031,0.0,0.0,-4.990250110626221,0.0,0.0,-6.087390318151534e-07
2026-06-27T14:54:52.129572,1782582714.744452,0.0,0.0,-41.301055908203125,0.0,0.0,-4.990241050720215,0.0,0.0,-6.57162442507249e-07
2026-06-27T14:54:52.239291,1782582714.8524544,0.0,0.0,-41.84007263183594,0.0,0.0,-4.990232944488525,0.0,0.0,-7.055858531993445e-07
2026-06-27T14:54:52.347898,1782582714.9574566,0.0,0.0,-42.36411666870117,0.0,0.0,-4.990224361419678,0.0,0.0,-7.52664169149993e-07
2026-06-27T14:54:52.456701,1782582715.065459,0.0,0.0,-42.903133392333984,0.0,0.0,-4.9902167320251465,0.0,0.0,-8.010875798420886e-07
2026-06-27T14:54:52.565395,1782582715.1734612,0.0,0.0,-43.4421501159668,0.0,0.0,-4.990209579467773,0.0,0.0,-8.495109905341841e-07
2026-06-27T14:54:52.675059,1782582715.2814636,0.0,0.0,-43.98116683959961,0.0,0.0,-4.990204811096191,0.0,0.0,-8.979344012262796e-07
2026-06-27T14:54:52.783131,1782582715.3864658,0.0,0.0,-44.505210876464844,0.0,0.0,-4.990197658538818,0.0,0.0,-9.450127171769282e-07
2026-06-27T14:54:52.892189,1782582715.4974682,0.0,0.0,-45.059200286865234,0.0,0.0,-4.9901933670043945,0.0,0.0,-9.947812226104709e-07
2026-06-27T14:54:53.000941,1782582715.6054704,0.0,0.0,-45.59821701049805,0.0,0.0,-4.9901885986328125,0.0,0.0,-1.0432046333025663e-06
2026-06-27T14:54:53.109655,1782582715.7104728,0.0,0.0,-46.12226104736328,0.0,0.0,-4.990184307098389,0.0,0.0,-1.0902829492532148e-06
2026-06-27T14:54:53.219488,1782582715.818475,0.0,0.0,-46.661277770996094,0.0,0.0,-4.990180015563965,0.0,0.0,-1.1387063599453105e-06
2026-06-27T14:54:53.328244,1782582715.9264772,0.0,0.0,-47.200294494628906,0.0,0.0,-4.990176677703857,0.0,0.0,-1.1871297706374059e-06
2026-06-27T14:54:53.436490,1782582716.0314796,0.0,0.0,-47.72433853149414,0.0,0.0,-4.990172386169434,0.0,0.0,-1.2342080865880544e-06
2026-06-27T14:54:53.546088,1782582716.1394818,0.0,0.0,-48.26335525512695,0.0,0.0,-4.990170001983643,0.0,0.0,-1.28263149728015e-06
2026-06-27T14:54:53.654594,1782582716.2474842,0.0,0.0,-48.802371978759766,0.0,0.0,-4.990166664123535,0.0,0.0,-1.3310549079722454e-06
2026-06-27T14:54:53.764314,1782582716.3554864,0.0,0.0,-49.34138870239258,0.0,0.0,-4.990163803100586,0.0,0.0,-1.3794783186643413e-06
2026-06-27T14:54:53.872300,1782582716.4604888,0.0,0.0,-49.86543273925781,0.0,0.0,-4.99015998840332,0.0,0.0,-1.4265566346149898e-06
2026-06-27T14:54:53.980971,1782582716.568491,0.0,0.0,-50.404449462890625,0.0,0.0,-4.990159511566162,0.0,0.0,-1.4749800453070852e-06
2026-06-27T14:54:54.089204,1782582716.6764934,0.0,0.0,-50.94346618652344,0.0,0.0,-4.990156173706055,0.0,0.0,-1.5234034559991809e-06
2026-06-27T14:54:54.199074,1782582716.7844956,0.0,0.0,-51.48248291015625,0.0,0.0,-4.990155220031738,0.0,0.0,-1.5718268666912765e-06
2026-06-27T14:54:54.308448,1782582716.892498,0.0,0.0,-52.02149963378906,0.0,0.0,-4.9901533126831055,0.0,0.0,-1.6202502773833721e-06
2026-06-27T14:54:54.416659,1782582717.0005002,0.0,0.0,-52.56037902832031,0.0,0.0,-4.990150451660156,0.0,0.0,-1.6686736880754675e-06
2026-06-27T14:54:54.525343,1782582717.1085026,0.0,0.0,-53.09925842285156,0.0,0.0,-4.990148544311523,0.0,0.0,-1.7170970987675631e-06
2026-06-27T14:54:54.634058,1782582717.2105048,0.0,0.0,-53.60820007324219,0.0,0.0,-4.990146160125732,0.0,0.0,-1.7628303199767646e-06
2026-06-27T14:54:54.743808,1782582717.318507,0.0,0.0,-54.14707946777344,0.0,0.0,-4.990144729614258,0.0,0.0,-1.81125373066886e-06
2026-06-27T14:54:54.852574,1782582717.4265094,0.0,0.0,-54.68595886230469,0.0,0.0,-4.990141868591309,0.0,0.0,-1.8596771413609556e-06
2026-06-27T14:54:54.961304,1782582717.5315115,0.0,0.0,-55.209869384765625,0.0,0.0,-4.990139961242676,0.0,0.0,-1.9067554573116041e-06
2026-06-27T14:54:55.070048,1782582717.642514,0.0,0.0,-55.76371765136719,0.0,0.0,-4.990139961242676,0.0,0.0,-1.956523962745147e-06
2026-06-27T14:54:55.179712,1782582717.7475162,0.0,0.0,-56.287628173828125,0.0,0.0,-4.990139484405518,0.0,0.0,-2.003602278695795e-06
2026-06-27T14:54:55.287935,1782582717.8555186,0.0,0.0,-56.826507568359375,0.0,0.0,-4.990138530731201,0.0,0.0,-2.0520256893878906e-06
2026-06-27T14:54:55.397226,1782582717.9635208,0.0,0.0,-57.365386962890625,0.0,0.0,-4.990137100219727,0.0,0.0,-2.1004491000799862e-06
2026-06-27T14:54:55.505489,1782582718.0715232,0.0,0.0,-57.904266357421875,0.0,0.0,-4.990135669708252,0.0,0.0,-2.148872510772082e-06
2026-06-27T14:54:55.614243,1782582718.1795254,0.0,0.0,-58.443145751953125,0.0,0.0,-4.990133762359619,0.0,0.0,-2.197295921464178e-06
2026-06-27T14:54:55.723680,1782582718.2875276,0.0,0.0,-58.982025146484375,0.0,0.0,-4.990131855010986,0.0,0.0,-2.2457193321562735e-06
2026-06-27T14:54:55.832401,1782582718.39553,0.0,0.0,-59.520904541015625,0.0,0.0,-4.9901299476623535,0.0,0.0,-2.2941427428483683e-06
2026-06-27T14:54:55.941578,1782582718.5035322,0.0,0.0,-60.059783935546875,0.0,0.0,-4.990129470825195,0.0,0.0,-2.342566153540465e-06
2026-06-27T14:54:56.049771,1782582718.6085346,0.0,0.0,-60.58369445800781,0.0,0.0,-4.990128517150879,0.0,0.0,-2.389644469491113e-06
2026-06-27T14:54:56.158550,1782582718.7165368,0.0,0.0,-61.12257385253906,0.0,0.0,-4.990126609802246,0.0,0.0,-2.4380678801832085e-06
2026-06-27T14:54:56.267694,1782582718.8245392,0.0,0.0,-61.66145324707031,0.0,0.0,-4.990126609802246,0.0,0.0,-2.4864912908753037e-06
2026-06-27T14:54:56.376923,1782582718.9295413,0.0,0.0,-62.18536376953125,0.0,0.0,-4.9901251792907715,0.0,0.0,-2.5335696068259523e-06
2026-06-27T14:54:56.485607,1782582719.0375438,0.0,0.0,-62.7242431640625,0.0,0.0,-4.990124702453613,0.0,0.0,-2.581993017518048e-06
2026-06-27T14:54:56.594829,1782582719.142546,0.0,0.0,-63.24815368652344,0.0,0.0,-4.990123271942139,0.0,0.0,-2.6290713334686964e-06
2026-06-27T14:54:56.703511,1782582719.2505481,0.0,0.0,-63.78703308105469,0.0,0.0,-4.9901204109191895,0.0,0.0,-2.6774947441607925e-06
2026-06-27T14:54:56.812673,1782582719.3585505,0.0,0.0,-64.32591247558594,0.0,0.0,-4.9901204109191895,0.0,0.0,-2.725918154852888e-06
2026-06-27T14:54:56.921375,1782582719.4665527,0.0,0.0,-64.86479187011719,0.0,0.0,-4.990119457244873,0.0,0.0,-2.7743415655449837e-06
2026-06-27T14:54:57.029493,1782582719.5715551,0.0,0.0,-65.38870239257812,0.0,0.0,-4.990118503570557,0.0,0.0,-2.8214198814956322e-06
2026-06-27T14:54:57.137739,1782582719.6795573,0.0,0.0,-65.92758178710938,0.0,0.0,-4.990117073059082,0.0,0.0,-2.8698432921877274e-06
2026-06-27T14:54:57.246461,1782582719.7875597,0.0,0.0,-66.46646118164062,0.0,0.0,-4.990116119384766,0.0,0.0,-2.9182667028798235e-06
2026-06-27T14:54:57.355659,1782582719.895562,0.0,0.0,-67.00534057617188,0.0,0.0,-4.990115642547607,0.0,0.0,-2.9666901135719187e-06
2026-06-27T14:54:57.464356,1782582719.997564,0.0,0.0,-67.5142822265625,0.0,0.0,-4.990114688873291,0.0,0.0,-3.01242333478112e-06
2026-06-27T14:54:57.574601,1782582720.1085665,0.0,0.0,-68.06813049316406,0.0,0.0,-4.990113735198975,0.0,0.0,-3.0621918402146633e-06
2026-06-27T14:54:57.682434,1782582720.2135687,0.0,0.0,-68.592041015625,0.0,0.0,-4.990111827850342,0.0,0.0,-3.109270156165312e-06
2026-06-27T14:54:57.790993,1782582720.318571,0.0,0.0,-69.11595153808594,0.0,0.0,-4.990109920501709,0.0,0.0,-3.1563484721159607e-06
2026-06-27T14:54:57.899701,1782582720.4295733,0.0,0.0,-69.6697998046875,0.0,0.0,-4.990109920501709,0.0,0.0,-3.206116977549503e-06
2026-06-27T14:54:58.008623,1782582720.5345757,0.0,0.0,-70.19371032714844,0.0,0.0,-4.990108966827393,0.0,0.0,-3.253195293500152e-06
2026-06-27T14:54:58.117865,1782582720.642578,0.0,0.0,-70.73258972167969,0.0,0.0,-4.99010705947876,0.0,0.0,-3.301618704192247e-06
2026-06-27T14:54:58.226449,1782582720.7505803,0.0,0.0,-71.27146911621094,0.0,0.0,-4.99010705947876,0.0,0.0,-3.350042114884343e-06
2026-06-27T14:54:58.335659,1782582720.8585825,0.0,0.0,-71.81034851074219,0.0,0.0,-4.990106105804443,0.0,0.0,-3.3984655255764385e-06
2026-06-27T14:54:58.445506,1782582720.966585,0.0,0.0,-72.34922790527344,0.0,0.0,-4.990105152130127,0.0,0.0,-3.4468887327130346e-06
2026-06-27T14:54:58.553679,1782582721.071587,0.0,0.0,-72.87313842773438,0.0,0.0,-4.9901041984558105,0.0,0.0,-3.4939670486636827e-06
2026-06-27T14:54:58.662975,1782582721.1765893,0.0,0.0,-73.39704895019531,0.0,0.0,-4.990102767944336,0.0,0.0,-3.5410453646143313e-06
2026-06-27T14:54:58.771688,1782582721.2815917,0.0,0.0,-73.92095947265625,0.0,0.0,-4.990100860595703,0.0,0.0,-3.58812368056498e-06
2026-06-27T14:54:58.880360,1782582721.3865938,0.0,0.0,-74.44486999511719,0.0,0.0,-4.990099906921387,0.0,0.0,-3.6352019965156283e-06
2026-06-27T14:54:58.989050,1782582721.491596,0.0,0.0,-74.96878051757812,0.0,0.0,-4.99009895324707,0.0,0.0,-3.6822803124662777e-06
2026-06-27T14:54:59.098400,1782582721.5995984,0.0,0.0,-75.50765991210938,0.0,0.0,-4.990097999572754,0.0,0.0,-3.7307037231583725e-06
2026-06-27T14:54:59.206584,1782582721.7076006,0.0,0.0,-76.04653930664062,0.0,0.0,-4.990097522735596,0.0,0.0,-3.779127133850469e-06
2026-06-27T14:54:59.314797,1782582721.812603,0.0,0.0,-76.57044982910156,0.0,0.0,-4.990096092224121,0.0,0.0,-3.8262054498011175e-06
2026-06-27T14:54:59.425019,1782582721.9206052,0.0,0.0,-77.10932922363281,0.0,0.0,-4.990095138549805,0.0,0.0,-3.874628860493213e-06
2026-06-27T14:54:59.533732,1782582722.0286076,0.0,0.0,-77.64820861816406,0.0,0.0,-4.990094184875488,0.0,0.0,-3.923052271185309e-06
2026-06-27T14:54:59.642916,1782582722.1366098,0.0,0.0,-78.18708801269531,0.0,0.0,-4.990093231201172,0.0,0.0,-3.971475681877404e-06
2026-06-27T14:54:59.751613,1782582722.244612,0.0,0.0,-78.72596740722656,0.0,0.0,-4.9900922775268555,0.0,0.0,-4.0198990925695e-06
2026-06-27T14:54:59.860264,1782582722.3496144,0.0,0.0,-79.2498779296875,0.0,0.0,-4.990090847015381,0.0,0.0,-4.066977408520149e-06
2026-06-27T14:54:59.968937,1782582722.4576166,0.0,0.0,-79.78875732421875,0.0,0.0,-4.990089416503906,0.0,0.0,-4.1154008192122446e-06
2026-06-27T14:55:00.077616,1782582722.565619,0.0,0.0,-80.32763671875,0.0,0.0,-4.990088939666748,0.0,0.0,-4.163824229904339e-06
2026-06-27T14:55:00.186339,1782582722.6706212,0.0,0.0,-80.85154724121094,0.0,0.0,-4.990087985992432,0.0,0.0,-4.210902545854988e-06
2026-06-27T14:55:00.296033,1782582722.7786236,0.0,0.0,-81.39042663574219,0.0,0.0,-4.990086078643799,0.0,0.0,-4.259325956547084e-06
2026-06-27T14:55:00.404683,1782582722.8896258,0.0,0.0,-81.94427490234375,0.0,0.0,-4.990085601806641,0.0,0.0,-4.309094461980626e-06
2026-06-27T14:55:00.513390,1782582722.9976282,0.0,0.0,-82.483154296875,0.0,0.0,-4.990084171295166,0.0,0.0,-4.357517872672723e-06
2026-06-27T14:55:00.623425,1782582723.1056304,0.0,0.0,-83.02203369140625,0.0,0.0,-4.990083694458008,0.0,0.0,-4.405941283364818e-06
2026-06-27T14:55:00.731337,1782582723.2106328,0.0,0.0,-83.54594421386719,0.0,0.0,-4.990082263946533,0.0,0.0,-4.4530195993154664e-06
2026-06-27T14:55:00.840002,1782582723.315635,0.0,0.0,-84.06985473632812,0.0,0.0,-4.990081310272217,0.0,0.0,-4.500097915266115e-06
2026-06-27T14:55:00.948739,1782582723.4206371,0.0,0.0,-84.59376525878906,0.0,0.0,-4.9900803565979,0.0,0.0,-4.5471762312167635e-06
2026-06-27T14:55:01.057944,1782582723.5256395,0.0,0.0,-85.11767578125,0.0,0.0,-4.990079879760742,0.0,0.0,-4.594254547167413e-06
2026-06-27T14:55:01.166168,1782582723.6336417,0.0,0.0,-85.65655517578125,0.0,0.0,-4.990077972412109,0.0,0.0,-4.642677957859509e-06
2026-06-27T14:55:01.275875,1782582723.7416441,0.0,0.0,-86.1954345703125,0.0,0.0,-4.990077018737793,0.0,0.0,-4.691101368551604e-06
2026-06-27T14:55:01.385106,1782582723.8436463,0.0,0.0,-86.70437622070312,0.0,0.0,-4.990076065063477,0.0,0.0,-4.736834589760805e-06
2026-06-27T14:55:01.493282,1782582723.9486485,0.0,0.0,-87.22828674316406,0.0,0.0,-4.99007511138916,0.0,0.0,-4.783912905711454e-06
2026-06-27T14:55:01.602487,1782582724.0566506,0.0,0.0,-87.76716613769531,0.0,0.0,-4.990074157714844,0.0,0.0,-4.83233631640355e-06
2026-06-27T14:55:01.710176,1782582724.164653,0.0,0.0,-88.30604553222656,0.0,0.0,-4.9900736808776855,0.0,0.0,-4.880759727095646e-06
2026-06-27T14:55:01.821939,1782582724.2666552,0.0,0.0,-88.81498718261719,0.0,0.0,-4.990072250366211,0.0,0.0,-4.926492948304848e-06
2026-06-27T14:55:01.930128,1782582724.3716574,0.0,0.0,-89.33889770507812,0.0,0.0,-4.9900712966918945,0.0,0.0,-4.973571264255496e-06
2026-06-27T14:55:02.039130,1782582724.4796598,0.0,0.0,-89.87777709960938,0.0,0.0,-4.99006986618042,0.0,0.0,-5.021994674947591e-06
2026-06-27T14:55:02.148307,1782582724.584662,0.0,0.0,-90.40168762207031,0.0,0.0,-4.990068435668945,0.0,0.0,-5.06907299089824e-06
2026-06-27T14:55:02.257491,1782582724.6926644,0.0,0.0,-90.94056701660156,0.0,0.0,-4.990068435668945,0.0,0.0,-5.117496401590336e-06
2026-06-27T14:55:02.365542,1782582724.8006666,0.0,0.0,-91.47944641113281,0.0,0.0,-4.990067481994629,0.0,0.0,-5.165919812282432e-06
2026-06-27T14:55:02.473923,1782582724.908669,0.0,0.0,-92.01832580566406,0.0,0.0,-4.9900665283203125,0.0,0.0,-5.214343222974526e-06
2026-06-27T14:55:02.582258,1782582725.0166712,0.0,0.0,-92.55720520019531,0.0,0.0,-4.99006462097168,0.0,0.0,-5.262766633666624e-06
2026-06-27T14:55:02.691001,1782582725.1216736,0.0,0.0,-93.08111572265625,0.0,0.0,-4.99006462097168,0.0,0.0,-5.309844949617272e-06
2026-06-27T14:55:02.799729,1782582725.2296758,0.0,0.0,-93.6199951171875,0.0,0.0,-4.990063190460205,0.0,0.0,-5.358268360309367e-06
2026-06-27T14:55:02.909424,1782582725.3376782,0.0,0.0,-94.15887451171875,0.0,0.0,-4.990062236785889,0.0,0.0,-5.406691771001464e-06
2026-06-27T14:55:03.018601,1782582725.4456804,0.0,0.0,-94.69775390625,0.0,0.0,-4.990061283111572,0.0,0.0,-5.4551151816935595e-06
2026-06-27T14:55:03.126312,1782582725.5506825,0.0,0.0,-95.22166442871094,0.0,0.0,-4.990060329437256,0.0,0.0,-5.5021934976442076e-06
2026-06-27T14:55:03.236426,1782582725.655685,0.0,0.0,-95.74557495117188,0.0,0.0,-4.9900593757629395,0.0,0.0,-5.5492718135948565e-06
2026-06-27T14:55:03.344106,1782582725.7636871,0.0,0.0,-96.28445434570312,0.0,0.0,-4.990058422088623,0.0,0.0,-5.597695224286952e-06
2026-06-27T14:55:03.453861,1782582725.8716896,0.0,0.0,-96.82333374023438,0.0,0.0,-4.990057468414307,0.0,0.0,-5.646118634979048e-06
2026-06-27T14:55:03.562430,1782582725.9796917,0.0,0.0,-97.36221313476562,0.0,0.0,-4.99005651473999,0.0,0.0,-5.694542045671143e-06
2026-06-27T14:55:03.670248,1782582726.0876942,0.0,0.0,-97.90109252929688,0.0,0.0,-4.990055084228516,0.0,0.0,-5.742965456363238e-06
2026-06-27T14:55:03.779748,1782582726.1956964,0.0,0.0,-98.42500305175781,0.0,0.0,-4.990054130554199,0.0,0.0,-5.790043772313888e-06
2026-06-27T14:55:03.888287,1782582726.3006985,0.0,0.0,-98.96388244628906,0.0,0.0,-4.990053176879883,0.0,0.0,-5.8384671830059844e-06
2026-06-27T14:55:03.998012,1782582726.405701,0.0,0.0,-99.48779296875,0.0,0.0,-4.990052223205566,0.0,0.0,-5.885545498956633e-06
2026-06-27T14:55:04.106219,1782582726.513703,0.0,0.0,-100.02667236328125,0.0,0.0,-4.990050792694092,0.0,0.0,-5.933968909648729e-06
2026-06-27T14:55:04.215270,1782582726.6217055,5.968315235804766e-06,-1.0121771083504427e-05,-100.55209350585938,0.0003009243810083717,-0.0005017048097215593,-4.727675914764404,-0.14148565621519568,-0.0922780255718854,-1.462694691349321
2026-06-27T14:55:04.324495,1782582726.7297077,0.00017993786605075002,-0.00028992039733566344,-101.05381774902344,0.003757282393053174,-0.0059885368682444096,-4.585315227508545,-0.5429673091382682,-0.4360113029965898,-6.366097572668511
2026-06-27T14:55:04.433728,1782582726.8377101,0.001048228470608592,-0.0016631626058369875,-101.54674530029297,0.013581794686615467,-0.02139679156243801,-4.561082363128662,-0.9359783172053293,-0.9927566968832539,-14.064466040312313
2026-06-27T14:55:04.542001,1782582726.9457123,0.0034137070178985596,-0.0053746965713799,-102.04243469238281,0.03171518072485924,-0.04962300881743431,-4.632056713104248,-1.1334326934389376,-1.730925834851771,-23.963781449592563
2026-06-27T14:55:04.650158,1782582727.0537148,0.008233027532696724,-0.012891002930700779,-102.54984283447266,0.05914568901062012,-0.09201154112815857,-4.774872303009033,-1.014635171195799,-2.5811738126038426,-35.53673829927577
2026-06-27T14:55:04.759829,1782582727.161717,0.01663990691304207,-0.025930363684892654,-103.079345703125,0.09662289172410965,-0.14952592551708221,-4.985631465911865,-0.5474605312932772,-3.4385861261971504,-47.777988291102204
2026-06-27T14:55:04.868992,1782582727.2697194,0.028987254947423935,-0.04499991238117218,-103.61463928222656,0.13210482895374298,-0.2036830633878708,-4.897366046905518,0.12067698335318464,-4.210504210111914,-58.3481308371957
2026-06-27T14:55:04.977744,1782582727.3777215,0.04527885839343071,-0.07007526606321335,-104.13387298583984,0.17026488482952118,-0.2616458237171173,-4.709653854370117,0.8073339683069182,-4.868859437561424,-65.98988809958547
2026-06-27T14:55:05.085919,1782582727.485724,0.06597434729337692,-0.10181988775730133,-104.63172149658203,0.21423161029815674,-0.32802996039390564,-4.515066146850586,1.3439356814307903,-5.449111094671405,-70.27580116648342
2026-06-27T14:55:05.194580,1782582727.5907261,0.09108623117208481,-0.14019563794136047,-105.09825134277344,0.26581650972366333,-0.4054592251777649,-4.385498046875,1.6025014617175184,-5.995770456249734,-71.25179769164572
2026-06-27T14:55:05.305294,1782582727.6987286,0.12321726232767105,-0.18910300731658936,-105.5697250366211,0.3317038118839264,-0.5039124488830566,-4.370118618011475,1.5435129918291526,-6.575763821736597,-69.40573743028499
2026-06-27T14:55:05.413668,1782582727.8067307,0.16335409879684448,-0.2499549388885498,-106.04833984375,0.4147700071334839,-0.6277046203613281,-4.52465295791626,1.1829895568684015,-7.168967758919817,-65.51403131496251
2026-06-27T14:55:05.523366,1782582727.9147332,0.2134896218776703,-0.3256976902484894,-106.55331420898438,0.513905942440033,-0.7752828598022461,-4.815041542053223,0.635004480133121,-7.761793558457446,-60.7957590159232
2026-06-27T14:55:05.631614,1782582728.0227354,0.2735052704811096,-0.4161461293697357,-107.0741195678711,0.5957056879997253,-0.8970270752906799,-4.793901443481445,0.06415561652657222,-8.371906823086793,-56.54619994735858
2026-06-27T14:55:05.740288,1782582728.1277375,0.3401137888431549,-0.516377329826355,-107.57182312011719,0.6735098361968994,-1.0128694772720337,-4.680999279022217,-0.38236620640099245,-8.986059335128731,-53.6751051991084
2026-06-27T14:55:05.848957,1782582728.23574,0.41734009981155396,-0.632453203201294,-108.06996154785156,0.7572720050811768,-1.1376968622207642,-4.540616035461426,-0.6470605544776044,-9.631934725394654,-52.2855437787961
2026-06-27T14:55:05.957708,1782582728.3437421,0.503829836845398,-0.7623422145843506,-108.55187225341797,0.8449366092681885,-1.2684911489486694,-4.379439353942871,-0.6938519822202073,-10.288716777505421,-52.297295464785556
2026-06-27T14:55:06.066542,1782582728.4517446,0.5999696254730225,-0.9066373109817505,-109.0151138305664,0.9357960224151611,-1.404211401939392,-4.1938323974609375,-0.5607526943734026,-10.948118405001644,-53.255351578093034
2026-06-27T14:55:06.176258,1782582728.5597467,0.7060431241989136,-1.0657786130905151,-109.45665740966797,1.028757095336914,-1.5432158708572388,-3.977038860321045,-0.3233125415590524,-11.611244211305156,-54.627100508723956
2026-06-27T14:55:06.284313,1782582728.6677492,0.8222175240516663,-1.2400307655334473,-109.87278747558594,1.1223489046096802,-1.6832846403121948,-3.7199244499206543,-0.064992812064983,-12.282928271319426,-55.953015458248984
2026-06-27T14:55:06.393328,1782582728.7727513,0.9447606205940247,-1.4238088130950928,-110.24771881103516,1.2111167907714844,-1.8162262439727783,-3.4098715782165527,0.14185499292932913,-13.004203404887393,-56.911200435537246
2026-06-27T14:55:06.502065,1782582728.8807538,1.0801321268081665,-1.6268093585968018,-110.59404754638672,1.293370246887207,-1.9394716024398804,-2.9788742065429688,0.2735763018241709,-13.933661032140881,-57.435927447982415
2026-06-27T14:55:06.610084,1782582728.988756,1.2233163118362427,-1.841518521308899,-110.88372039794922,1.3582268953323364,-2.036677837371826,-2.378913640975952,0.31539878584634806,-15.16836931693293,-57.51999409576334
2026-06-27T14:55:06.719800,1782582729.093758,1.371833086013794,-2.064222812652588,-111.11871337890625,1.4782615900039673,-2.216724157333374,-2.146522283554077,0.25401395230274626,-15.306128380826243,-57.28713668675118
2026-06-27T14:55:06.829040,1782582729.2017605,1.538920283317566,-2.3147850036621094,-111.34359741210938,1.6147730350494385,-2.4215474128723145,-2.0198607444763184,0.139731261943651,-14.497374797439706,-56.88640572394347
2026-06-27T14:55:06.937889,1782582729.3067627,1.715032935142517,-2.5788936614990234,-111.54937744140625,1.7378060817718506,-2.606173276901245,-1.9003041982650757,0.037149271659878066,-13.292713262035651,-56.48699961244213
2026-06-27T14:55:07.046071,1782582729.411765,1.9034579992294312,-2.861478805541992,-111.742919921875,1.8492563962936401,-2.773428440093994,-1.7883598804473877,-0.029655347919876143,-11.954089304815618,-56.17540409206634
2026-06-27T14:55:07.155817,1782582729.5197673,2.1088345050811768,-3.1694986820220947,-111.93048095703125,1.9519143104553223,-2.927488088607788,-1.6877751350402832,-0.058518752976552645,-10.589900897824691,-55.99115013177252
2026-06-27T14:55:07.267017,1782582729.6277697,2.3246567249298096,-3.4931957721710205,-112.1080322265625,2.0428032875061035,-3.0638768672943115,-1.6029362678527832,-0.057946529064482666,-9.316651212078312,-55.942417000384744
2026-06-27T14:55:07.373731,1782582729.7297719,2.5369668006896973,-3.8116295337677,-112.26802825927734,2.1184613704681396,-3.1773903369903564,-1.5361111164093018,-0.04320304020794101,-8.228282961056049,-55.990606579491455
2026-06-27T14:55:07.481986,1782582729.831774,2.7565195560455322,-4.140927791595459,-112.4217529296875,2.1849660873413086,-3.277139663696289,-1.4798582792282104,-0.024728345887290365,-7.258943001086457,-56.09037341462497
2026-06-27T14:55:07.590244,1782582729.9397762,2.995897054672241,-4.499954700469971,-112.57881164550781,2.246371269226074,-3.369196653366089,-1.4298301935195923,-0.007843010713198286,-6.359236432979311,-56.210608883142314
2026-06-27T14:55:07.699946,1782582730.0477786,3.241450309753418,-4.8682403564453125,-112.73090362548828,2.2995128631591797,-3.4488251209259033,-1.3874143362045288,0.0032998331603566917,-5.580463757379693,-56.313033658781954
2026-06-27T14:55:07.808663,1782582730.1467807,3.4712488651275635,-5.212890148162842,-112.86656951904297,2.341827392578125,-3.5121994018554688,-1.3537155389785767,0.008341136181197977,-4.962420973275903,-56.375379821995324
2026-06-27T14:55:07.917963,1782582730.2487829,3.7121028900146484,-5.574110984802246,-113.00304412841797,2.379807710647583,-3.5690648555755615,-1.322954773902893,0.009522125231383285,-4.410796326303155,-56.404408747136316
2026-06-27T14:55:08.026719,1782582730.353785,3.963810920715332,-5.951599597930908,-113.14042663574219,2.4137065410614014,-3.6198134422302246,-1.2945107221603394,0.008115405271403552,-3.9222259257424397,-56.40236062078209
2026-06-27T14:55:08.135768,1782582730.4557872,4.211503028869629,-6.323059558868408,-113.27117156982422,2.442256450653076,-3.6625568866729736,-1.2693408727645874,0.005642314758106051,-3.51469139273693,-56.379605437433774
2026-06-27T14:55:08.244948,1782582730.5607896,4.469316005706787,-6.709688186645508,-113.40316772460938,2.4677462577819824,-3.700730323791504,-1.245246171951294,0.0030268014655510695,-3.1548500745732824,-56.34673239269153
2026-06-27T14:55:08.353735,1782582730.6687918,4.737092971801758,-7.11125373840332,-113.53638458251953,2.490419387817383,-3.7347023487091064,-1.2221397161483765,0.0008964004300493182,-2.839057766996959,-56.31380159921804
2026-06-27T14:55:08.462067,1782582730.767794,4.984562397003174,-7.482367515563965,-113.65635681152344,2.508481025695801,-3.7617807388305664,-1.201880931854248,-0.00035310406951357987,-2.591199723109293,-56.29079165417442
2026-06-27T14:55:08.570255,1782582730.872796,5.248858451843262,-7.878710746765137,-113.78147888183594,2.52520489692688,-3.786863088607788,-1.1813889741897583,-0.000990350493648079,-2.365563855939855,-56.27678975111228
2026-06-27T14:55:08.680455,1782582730.9807985,5.522413730621338,-8.288939476013184,-113.90797424316406,2.5401625633239746,-3.80930495262146,-1.1610954999923706,-0.0010949710247001808,-2.1677341397843604,-56.273237136486905
2026-06-27T14:55:08.788707,1782582731.0798006,5.774501800537109,-8.66697883605957,-114.02201843261719,2.5521600246429443,-3.8273072242736816,-1.142979383468628,-0.0009009962777093841,-2.0125081792071233,-56.27732106686038
2026-06-27T14:55:08.897964,1782582731.1848028,6.043083667755127,-9.069757461547852,-114.14104461669922,2.5633530616760254,-3.844102144241333,-1.1242976188659668,-0.0005765679825104657,-1.8711770338504043,-56.2859780482007
2026-06-27T14:55:09.007037,1782582731.2898052,6.312769889831543,-9.474187850952148,-114.25814056396484,2.573190212249756,-3.858860492706299,-1.106027364730835,-0.00025872136184822446,-1.7503774661822329,-56.29581692925242
2026-06-27T14:55:09.114955,1782582731.3948073,6.5834245681762695,-9.880074501037598,-114.37333679199219,2.58186674118042,-3.8718743324279785,-1.0881059169769287,-3.17914584659439e-05,-1.647064935945134,-56.30424687079209
2026-06-27T14:55:09.224639,1782582731.4998095,6.8549370765686035,-10.287249565124512,-114.48666381835938,2.5895469188690186,-3.8833930492401123,-1.0704903602600098,8.394429989957077e-05,-1.5587128743416343,-56.30989780552048
2026-06-27T14:55:09.332989,1782582731.6048117,7.127211093902588,-10.695563316345215,-114.59815216064453,2.596372365951538,-3.8936283588409424,-1.0531518459320068,9.653329912645087e-05,-1.483012354389873,-56.312392795650354
2026-06-27T14:55:09.441254,1782582731.712814,7.4079694747924805,-11.116601943969727,-114.71094512939453,2.6026270389556885,-3.903010368347168,-1.035596489906311,2.916894898843644e-05,-1.4164520367792703,-56.31217223763206
2026-06-27T14:55:09.549494,1782582731.8148162,7.673715591430664,-11.515130043029785,-114.81573486328125,2.6079180240631104,-3.910947322845459,-1.0189424753189087,-6.997255060874829e-05,-1.3626614815746974,-56.310264894760344
2026-06-27T14:55:09.659137,1782582731.9168184,7.939976692199707,-11.914427757263184,-114.91885375976562,2.6127023696899414,-3.918125867843628,-1.0029146671295166,-0.00017837033542483186,-1.3160843656540833,-56.307701978470014
2026-06-27T14:55:09.767373,1782582732.0218208,8.214553833007812,-12.326197624206543,-115.02330017089844,2.617159605026245,-3.9248180389404297,-0.9864594340324402,-0.00027570843200746257,-1.2747384196688818,-56.30511946789276
2026-06-27T14:55:09.875590,1782582732.126823,8.489578247070312,-12.738636016845703,-115.12603759765625,2.6212079524993896,-3.9308998584747314,-0.9701569080352783,-0.00035052456570380455,-1.2391527021697089,-56.30318455903487
2026-06-27T14:55:09.983647,1782582732.231825,8.765007019042969,-13.151687622070312,-115.22705841064453,2.6249048709869385,-3.9364540576934814,-0.9540221691131592,-0.0003941446949389254,-1.2084202303387954,-56.30215753363422
2026-06-27T14:55:10.094896,1782582732.3428276,9.05657958984375,-13.588946342468262,-115.33203125,2.6284806728363037,-3.9418294429779053,-0.9371873140335083,-0.0004193355094974018,-1.1804373254838112,-56.30199795343394
2026-06-27T14:55:10.202620,1782582732.4418297,9.316951751708984,-13.979416847229004,-115.424072265625,2.631418228149414,-3.9462485313415527,-0.9222486615180969,-0.00042132722908019984,-1.1588139895521101,-56.30246871177691
2026-06-27T14:55:10.311384,1782582732.5498319,9.601313591003418,-14.405865669250488,-115.52281188964844,2.634390354156494,-3.9507203102111816,-0.906175971031189,-0.0004189772102701094,-1.138310975390317,-56.30332679083892
2026-06-27T14:55:10.420417,1782582732.651834,9.870162010192871,-14.809050559997559,-115.6144790649414,2.637000799179077,-3.95464825630188,-0.8911260962486267,-0.00040494358322510173,-1.1213946213025994,-56.30420645372267
2026-06-27T14:55:10.530001,1782582732.7598364,10.155104637145996,-15.23637580871582,-115.70986938476562,2.6395821571350098,-3.9585325717926025,-0.8753695487976074,-0.0003966210941209134,-1.1056968468099133,-56.30501444968511
2026-06-27T14:55:10.638724,1782582732.8648386,10.432391166687012,-15.65221881866455,-115.80099487304688,2.6419336795806885,-3.962070941925049,-0.860203742980957,-0.000393678285181501,-1.0923415469525601,-56.30555621660611
2026-06-27T14:55:10.747908,1782582732.969841,10.709918022155762,-16.068422317504883,-115.89051818847656,2.64414644241333,-3.9654011726379395,-0.8451909422874451,-0.0003999282419093984,-1.0805432305588325,-56.30582511062689
2026-06-27T14:55:10.856069,1782582733.0748432,10.987669944763184,-16.484966278076172,-115.97848510742188,2.646235942840576,-3.9685466289520264,-0.830331027507782,-0.0003974411675138699,-1.0700895789561577,-56.30589967870621
2026-06-27T14:55:10.965270,1782582733.1768453,11.2576904296875,-16.88991355895996,-116.06243896484375,2.6481597423553467,-3.9714431762695312,-0.8160368204116821,-0.0004117853426073492,-1.0610436779245211,-56.30581724083012
2026-06-27T14:55:11.074466,1782582733.2818475,11.535853385925293,-17.30707550048828,-116.1473617553711,2.6500420570373535,-3.9742791652679443,-0.8014833331108093,-0.0004258570349398282,-1.052686038226565,-56.305601869358014
2026-06-27T14:55:11.183210,1782582733.3808496,11.798298835754395,-17.700664520263672,-116.22604370117188,2.6517348289489746,-3.976830005645752,-0.7879228591918945,-0.0004347851589107786,-1.045575837655579,-56.30547974053454
2026-06-27T14:55:11.293423,1782582733.4828517,12.068867683410645,-18.1064395904541,-116.30570220947266,2.653402090072632,-3.979343891143799,-0.7740703225135803,-0.0004509723606068511,-1.0389924135691524,-56.30547891450975
2026-06-27T14:55:11.401139,1782582733.5848541,12.33960247039795,-18.512466430664062,-116.38395690917969,2.654998540878296,-3.981752634048462,-0.7604179382324219,-0.0004499904987727232,-1.0328875648104034,-56.305489061951945
2026-06-27T14:55:11.511867,1782582733.6898563,12.6184663772583,-18.930683135986328,-116.46306610107422,2.6565730571746826,-3.984128713607788,-0.7464514970779419,-0.0004513279180932768,-1.0271444906206397,-56.305592297194075
2026-06-27T14:55:11.619413,1782582733.7948585,12.897492408752441,-19.34914779663086,-116.54071044921875,2.6580846309661865,-3.986410140991211,-0.7326922416687012,-0.00044654260722149777,-1.0218776439416581,-56.305699357374024
2026-06-27T14:55:11.729129,1782582733.8998606,13.176673889160156,-19.767845153808594,-116.6169204711914,2.659536600112915,-3.98860239982605,-0.7190272212028503,-0.0004468247327366698,-1.0170103180762768,-56.30579724214096
2026-06-27T14:55:11.837410,1782582734.004863,13.456005096435547,-20.186769485473633,-116.69171905517578,2.6609339714050293,-3.9907119274139404,-0.7055549621582031,-0.00044468498711790823,-1.012484175656655,-56.30591010629713
2026-06-27T14:55:11.945649,1782582734.1038651,13.71950626373291,-20.581954956054688,-116.76094818115234,2.6622040271759033,-3.9926304817199707,-0.6929565668106079,-0.0004428986422905819,-1.0084882024123356,-56.306012151511716
2026-06-27T14:55:12.055403,1782582734.2088673,13.999113082885742,-21.001293182373047,-116.83302307128906,2.6635046005249023,-3.9945950508117676,-0.679792046546936,-0.00044099566883795796,-1.004492095369283,-56.30611687660639
2026-06-27T14:55:12.163498,1782582734.3138695,14.278853416442871,-21.420835494995117,-116.9037094116211,2.6647589206695557,-3.996490001678467,-0.6667947769165039,-0.000432275165141978,-1.0007214977031402,-56.30622341457687
2026-06-27T14:55:12.275359,1782582734.421872,14.566720962524414,-21.852569580078125,-116.97502136230469,2.6660044193267822,-3.9983720779418945,-0.6536225080490112,-0.00042070889038622173,-0.9970560441326357,-56.306322913130636
2026-06-27T14:55:12.380145,1782582734.520874,14.83071517944336,-22.248498916625977,-117.03913116455078,2.667107343673706,-4.0000386238098145,-0.6416115760803223,-0.0004201530274377754,-0.9938630780373845,-56.30642504403269
2026-06-27T14:55:12.490333,1782582734.6258762,15.11082649230957,-22.668601989746094,-117.10585021972656,2.668239116668701,-4.001748085021973,-0.6291269659996033,-0.0004185508615482646,-0.9905857793943089,-56.30654149522054
2026-06-27T14:55:12.599895,1782582734.7308784,15.3910551071167,-23.088884353637695,-117.1712646484375,2.6693317890167236,-4.003400802612305,-0.6167876124382019,-0.00041753935579884224,-0.9874765695112507,-56.3066469442349
2026-06-27T14:55:12.707697,1782582734.8328807,15.663385391235352,-23.497316360473633,-117.23357391357422,2.6703593730926514,-4.004954814910889,-0.604961097240448,-0.00041624498073927573,-0.9845612316186062,-56.306749499074854
2026-06-27T14:55:12.817311,1782582734.9348829,15.93581771850586,-23.905908584594727,-117.29469299316406,2.671353340148926,-4.006458759307861,-0.5932993292808533,-0.0004086539638034948,-0.9817491728395616,-56.30685290532296
2026-06-27T14:55:12.926017,1782582735.036885,16.208351135253906,-24.314651489257812,-117.3546142578125,2.6723155975341797,-4.007914066314697,-0.5817977786064148,-0.0003939439987982794,-0.9790333237121981,-56.30687466258652
2026-06-27T14:55:13.034218,1782582735.1418872,16.489002227783203,-24.735567092895508,-117.41508483886719,2.673274278640747,-4.009364128112793,-0.5701064467430115,-0.00039486539905942753,-0.9763253249959989,-56.306873859565606
2026-06-27T14:55:13.144048,1782582735.2498896,16.777772903442383,-25.168663024902344,-117.47602081298828,2.674226760864258,-4.010805606842041,-0.5582400560379028,-0.00039370820562154295,-0.9736263048095364,-56.30697126102135
2026-06-27T14:55:13.252040,1782582735.3548918,17.05862045288086,-25.589879989624023,-117.5340347290039,2.6751224994659424,-4.012160778045654,-0.5468868017196655,-0.0003927243474693972,-0.9710748641658161,-56.307074881946235
2026-06-27T14:55:13.361231,1782582735.456894,17.331533432006836,-25.999195098876953,-117.5892562866211,2.675963878631592,-4.013434886932373,-0.5360395908355713,-0.0003909165976228721,-0.9686757293113598,-56.30718141558172
2026-06-27T14:55:13.469599,1782582735.555896,17.59649658203125,-26.396591186523438,-117.64180755615234,2.6767542362213135,-4.014632701873779,-0.5256435871124268,-0.0003771216408624536,-0.9664066535749153,-56.307234217395354
2026-06-27T14:55:13.577722,1782582735.6608982,17.877599716186523,-26.818201065063477,-117.6964340209961,2.677565336227417,-4.0158610343933105,-0.5147776007652283,-0.0003676312018925486,-0.9640632111713876,-56.307236300057035
2026-06-27T14:55:13.686424,1782582735.7689006,18.166831970214844,-27.251989364624023,-117.75143432617188,2.6783711910247803,-4.017083168029785,-0.5037932395935059,-0.0003650212695660909,-0.9617005543890368,-56.30732759683424
2026-06-27T14:55:13.796106,1782582735.8769028,18.456146240234375,-27.685909271240234,-117.80525970458984,2.679149866104126,-4.018261909484863,-0.49296465516090393,-0.0003568142063800161,-0.9594171002582299,-56.30743771618043
2026-06-27T14:55:13.903801,1782582735.9819052,18.73750114440918,-28.107894897460938,-117.85647583007812,2.679880380630493,-4.0193681716918945,-0.4826123118400574,-0.00034598657172454363,-0.9572538800376061,-56.307466279644
2026-06-27T14:55:14.013533,1782582736.0869074,19.018930435180664,-28.529993057250977,-117.9066162109375,2.680586099624634,-4.020438194274902,-0.47243112325668335,-0.00033879016081422755,-0.9551415230482304,-56.3075290025561
2026-06-27T14:55:14.122506,1782582736.1919096,19.300432205200195,-28.95220184326172,-117.9556884765625,2.6812682151794434,-4.021471977233887,-0.4624136686325073,-0.0003379797799155545,-0.9530859231690568,-56.30763204041976
2026-06-27T14:55:14.231761,1782582736.299912,19.590049743652344,-29.38658905029297,-118.00508117675781,2.6819448471069336,-4.022497653961182,-0.4522678256034851,-0.0003381293993091439,-0.9510227381999699,-56.30763620197125
2026-06-27T14:55:14.339895,1782582736.4049141,19.871692657470703,-29.809005737304688,-118.05204772949219,2.6825788021087646,-4.023460388183594,-0.44252169132232666,-0.00032860318924489803,-0.9490950812537045,-56.307679563526385
2026-06-27T14:55:14.448596,1782582736.5099163,20.15340232849121,-30.23153305053711,-118.0980224609375,2.683192014694214,-4.024390697479248,-0.43306055665016174,-0.0003122047457292084,-0.9471711001853964,-56.30777579745671
2026-06-27T14:55:14.557567,1782582736.6149187,20.435176849365234,-30.65414810180664,-118.14300537109375,2.683783531188965,-4.025287628173828,-0.42371147871017456,-0.00031162190238579525,-0.9453008848045925,-56.3078707437369
2026-06-27T14:55:14.665778,1782582736.722921,20.725065231323242,-31.088939666748047,-118.18824768066406,2.684370279312134,-4.026176452636719,-0.414246141910553,-0.00030971051399324433,-0.9434359734215739,-56.30787025619343
2026-06-27T14:55:14.776132,1782582736.8309233,21.015016555786133,-31.523822784423828,-118.23249053955078,2.684934377670288,-4.027032852172852,-0.4049566984176636,-0.0003088091201136673,-0.9416228562653522,-56.307905730960314
2026-06-27T14:55:14.884803,1782582736.9359255,21.296968460083008,-31.94670867919922,-118.27454376220703,2.6854631900787354,-4.027835369110107,-0.39609280228614807,-0.0002971108786977727,-0.939911116213639,-56.308003477200266
2026-06-27T14:55:14.994045,1782582737.0409276,21.5789737701416,-32.36967468261719,-118.31568145751953,2.6859731674194336,-4.028608322143555,-0.3873862028121948,-0.00028539028693160294,-0.9382448282530852,-56.308086945909814
2026-06-27T14:55:15.102230,1782582737.14293,21.85296630859375,-32.78064727783203,-118.35476684570312,2.6864497661590576,-4.029334545135498,-0.37907981872558594,-0.0002837167771933645,-0.9366641007234733,-56.30808848316929
2026-06-27T14:55:15.211372,1782582737.2509322,22.143142700195312,-33.215843200683594,-118.39524841308594,2.686936855316162,-4.030073642730713,-0.37044310569763184,-0.0002823269653486924,-0.9350413226406646,-56.30813738643661
2026-06-27T14:55:15.320097,1782582737.3559344,22.425304412841797,-33.63907241821289,-118.43372344970703,2.6873910427093506,-4.030764579772949,-0.36212432384490967,-0.0002797512918530227,-0.9335306335426827,-56.30824878085249
2026-06-27T14:55:15.428921,1782582737.4609368,22.707504272460938,-34.06231689453125,-118.47132110595703,2.6878304481506348,-4.031431674957275,-0.35410669445991516,-0.0002639623587242335,-0.9320224560573311,-56.3082553295233
2026-06-27T14:55:15.537714,1782582737.565939,22.98975372314453,-34.48569107055664,-118.50808715820312,2.6882529258728027,-4.032073497772217,-0.3461815416812897,-0.00025635997855683024,-0.9305679911351928,-56.308298558406214
2026-06-27T14:55:15.647314,1782582737.667941,23.263988494873047,-34.896968841552734,-118.54301452636719,2.6886470317840576,-4.032672882080078,-0.33861953020095825,-0.00025739241205043967,-0.9291957521976565,-56.30833972294045
2026-06-27T14:55:15.755478,1782582737.7729433,23.546314239501953,-35.320472717285156,-118.57817077636719,2.689038038253784,-4.033267974853516,-0.3309813141822815,-0.000255675581506618,-0.9278223882332803,-56.30841036766166
2026-06-27T14:55:15.865681,1782582737.8779457,23.828697204589844,-35.743980407714844,-118.61254119873047,2.6894140243530273,-4.033840179443359,-0.3234862983226776,-0.00024347611352116405,-0.9264946012072363,-56.30840767012438
2026-06-27T14:55:15.974278,1782582737.9829478,24.111108779907227,-36.16759490966797,-118.64612579345703,2.6897764205932617,-4.034390449523926,-0.31619688868522644,-0.000240717769375625,-0.9252047433410212,-56.30846943069355
2026-06-27T14:55:16.084490,1782582738.08495,24.385488510131836,-36.579132080078125,-118.67801666259766,2.6901144981384277,-4.0349040031433105,-0.3091526925563812,-0.00023094311946155027,-0.9239898327825591,-56.308490031238726
2026-06-27T14:55:16.192208,1782582738.177952,24.63568878173828,-36.95439147949219,-118.70646667480469,2.690411329269409,-4.035355567932129,-0.30287110805511475,-0.00023124647664493018,-0.9229196675873576,-56.308506402589494
2026-06-27T14:55:16.300118,1782582738.2829542,24.91820526123047,-37.37816619873047,-118.73790740966797,2.6907339096069336,-4.035846710205078,-0.29590123891830444,-0.00022851532665294795,-0.921749538296379,-56.308601789471005
2026-06-27T14:55:16.409338,1782582738.3879564,25.200754165649414,-37.80194091796875,-118.76861572265625,2.691044330596924,-4.036320686340332,-0.28914862871170044,-0.00021742146677958255,-0.920599714701197,-56.308635145059476
2026-06-27T14:55:16.518039,1782582738.4869585,25.46718978881836,-38.20157241821289,-118.79692840576172,2.6913254261016846,-4.03674840927124,-0.28282731771469116,-0.0002291918203306124,-0.9195568879645132,-56.30863422547162
2026-06-27T14:55:16.626867,1782582738.591961,25.749792098999023,-38.62548065185547,-118.82628631591797,2.6916117668151855,-4.037185192108154,-0.27628734707832336,-0.00021594351509866488,-0.9184826689761962,-56.308671460864176
2026-06-27T14:55:16.736099,1782582738.696963,26.032442092895508,-39.04938888549805,-118.8549575805664,2.691887617111206,-4.037605285644531,-0.26988154649734497,-0.00020807457411575191,-0.9174437981610811,-56.308670741061015
2026-06-27T14:55:16.844260,1782582738.7989652,26.307016372680664,-39.46126174926758,-118.8821792602539,2.6921443939208984,-4.037997722625732,-0.2637892961502075,-0.00020651957944057842,-0.9164617073071368,-56.3087441034584
2026-06-27T14:55:16.954461,1782582738.9069676,26.59780502319336,-39.89741897583008,-118.91032409667969,2.6924052238464355,-4.038395881652832,-0.2574579417705536,-0.00019058695895660926,-0.9154583284529257,-56.30882179814849
2026-06-27T14:55:17.062199,1782582739.0119698,26.880521774291992,-40.32146072387695,-118.93704223632812,2.692648410797119,-4.038766860961914,-0.2514384686946869,-0.00018420976631509475,-0.9145154656472482,-56.30882172614899
2026-06-27T14:55:17.171400,1782582739.116972,27.16326141357422,-40.74553298950195,-118.96315002441406,2.6928815841674805,-4.03912353515625,-0.2455412596464157,-0.00018109747012564465,-0.9136098194272168,-56.30882188129724
2026-06-27T14:55:17.280114,1782582739.2249744,27.454124450683594,-41.181827545166016,-118.98934173583984,2.6931118965148926,-4.039474010467529,-0.23960740864276886,-0.00017358981419018308,-0.9127030108356077,-56.30890016889301
2026-06-27T14:55:17.389323,1782582739.3239765,27.720748901367188,-41.581764221191406,-119.0127944946289,2.693314790725708,-4.039783000946045,-0.23429059982299805,-0.0001739662142664168,-0.9119019528342078,-56.308959127889636
2026-06-27T14:55:17.498208,1782582739.4229786,27.987398147583008,-41.9817008972168,-119.03572845458984,2.693509340286255,-4.0400800704956055,-0.22909538447856903,-0.00015750123853137406,-0.9111220797429864,-56.30895409833246
2026-06-27T14:55:17.606370,1782582739.5249808,28.26216697692871,-42.39378356933594,-119.05882263183594,2.69370174407959,-4.0403733253479,-0.22381152212619781,-0.00016904134161179797,-0.9103595541650029,-56.308955104882116
2026-06-27T14:55:17.715061,1782582739.626983,28.536935806274414,-42.80596923828125,-119.08138275146484,2.6938860416412354,-4.04065465927124,-0.2186681479215622,-0.0001779526789562111,-0.9096073190774094,-56.30898744433473
2026-06-27T14:55:17.823835,1782582739.731985,28.819786071777344,-43.23027801513672,-119.10406494140625,2.6940677165985107,-4.040932655334473,-0.21344706416130066,-0.00016076709394620655,-0.9088730496155679,-56.30903394556408
2026-06-27T14:55:17.932439,1782582739.8369875,29.10270118713379,-43.65458679199219,-119.12621307373047,2.694242477416992,-4.041200160980225,-0.2083643674850464,-0.00014134023722215967,-0.9081639211846617,-56.30903556222372
2026-06-27T14:55:18.040375,1782582739.9419897,29.385618209838867,-44.078895568847656,-119.14783477783203,2.6944100856781006,-4.041454315185547,-0.20339049398899078,-0.0001534459557451753,-0.9074748156364041,-56.30903706452295
2026-06-27T14:55:18.150530,1782582740.0469918,29.668535232543945,-44.50326919555664,-119.16893768310547,2.6945700645446777,-4.0416998863220215,-0.19852480292320251,-0.00016928035243703258,-0.9068085666652194,-56.30909246699879
