time,sim_t,x,y,z,vx,vy,vz,roll_deg,pitch_deg,yaw_deg
2026-06-27T14:31:43.647340,1782581362.74761,0.0,0.0,2.0412960052490234,0.0,0.0,0.0,0.0,0.0,0.0003895640909249624
2026-06-27T14:31:43.759359,1782581362.8586125,0.0,0.0,2.0412960052490234,0.0,0.0,0.0,0.0,0.0,0.0003895640909249624
2026-06-27T14:31:43.867595,1782581362.9636147,0.0,0.0,2.0412960052490234,0.0,0.0,0.0,0.0,0.0,0.0003895640909249624
2026-06-27T14:31:43.975837,1782581363.0656168,0.0,0.0,2.0412960052490234,0.0,0.0,0.0,0.0,0.0,0.0003895640909249624
2026-06-27T14:31:44.085098,1782581363.1736193,0.0,0.0,2.0412960052490234,0.0,0.0,0.0,0.0,0.0,0.0003895640909249624
2026-06-27T14:31:44.193911,1782581363.2786214,0.0,0.0,2.0412960052490234,0.0,0.0,0.0,0.0,0.0,0.0003895640909249624
2026-06-27T14:31:44.304144,1782581363.3836236,0.0,0.0,2.0412960052490234,0.0,0.0,0.0,0.0,0.0,0.0003895640909249624
2026-06-27T14:31:44.412012,1782581363.491626,0.0,0.0,2.0412960052490234,0.0,0.0,0.0,0.0,0.0,0.0003895640909249624
2026-06-27T14:31:44.520675,1782581363.5966282,0.0,0.0,2.0412960052490234,0.0,0.0,0.0,0.0,0.0,0.0003895640909249624
2026-06-27T14:31:44.629913,1782581363.7046306,0.0,0.0,2.0412960052490234,0.0,0.0,0.0,0.0,0.0,0.0003895640909249624
2026-06-27T14:31:44.738409,1782581363.8126328,0.0,0.0,2.0412960052490234,0.0,0.0,0.0,0.0,0.0,0.0003895640909249624
2026-06-27T14:31:44.846044,1782581363.9206352,0.0,0.0,2.0412960052490234,0.0,0.0,0.0,0.0,0.0,0.0003895640909249624
2026-06-27T14:31:44.955745,1782581364.0286374,0.0,0.0,2.0412960052490234,0.0,0.0,0.0,0.0,0.0,0.0003895640909249624
2026-06-27T14:31:45.064927,1782581364.1366398,0.0,0.0,2.0412960052490234,0.0,0.0,0.0,0.0,0.0,0.0003895640909249624
2026-06-27T14:31:45.173165,1782581364.235642,0.0,0.0,2.029292106628418,0.0,0.0,-0.3147241473197937,0.0,0.0,0.0003895640909249624
2026-06-27T14:31:45.282530,1782581364.337644,0.0,0.0,1.9897196292877197,0.0,0.0,-0.42650946974754333,0.0,0.0,0.0003895640909249624
2026-06-27T14:31:45.391396,1782581364.4456463,0.0,0.0,1.9423717260360718,0.0,0.0,-0.445688396692276,0.0,0.0,0.0003895640909249624
2026-06-27T14:31:45.500677,1782581364.5536487,0.0,0.0,1.8938310146331787,0.0,0.0,-0.45260363817214966,0.0,0.0,0.0003895640909249624
2026-06-27T14:31:45.609407,1782581364.661651,0.0,0.0,1.8446673154830933,0.0,0.0,-0.4576655924320221,0.0,0.0,0.0003895640909249624
2026-06-27T14:31:45.718677,1782581364.7696533,0.0,0.0,1.794996976852417,0.0,0.0,-0.4620477259159088,0.0,0.0,0.0003895640909249624
2026-06-27T14:31:45.826241,1782581364.8746555,0.0,0.0,1.7462787628173828,0.0,0.0,-0.46582740545272827,0.0,0.0,0.0003895640909249624
2026-06-27T14:31:45.935955,1782581364.9796576,0.0,0.0,1.6971853971481323,0.0,0.0,-0.46919581294059753,0.0,0.0,0.0003895640909249624
2026-06-27T14:31:46.044732,1782581365.08766,0.0,0.0,1.6463414430618286,0.0,0.0,-0.4722793996334076,0.0,0.0,0.0003895640909249624
2026-06-27T14:31:46.154452,1782581365.1956623,0.0,0.0,1.59518301486969,0.0,0.0,-0.4750194549560547,0.0,0.0,0.0003895640909249624
2026-06-27T14:31:46.263126,1782581365.3036647,0.0,0.0,1.543745756149292,0.0,0.0,-0.4774543046951294,0.0,0.0,0.0003895640909249624
2026-06-27T14:31:46.371805,1782581365.4086668,0.0,0.0,1.4934991598129272,0.0,0.0,-0.4795612394809723,0.0,0.0,0.0003895640909249624
2026-06-27T14:31:46.480366,1782581365.5166693,0.0,0.0,1.4415993690490723,0.0,0.0,-0.4814903140068054,0.0,0.0,0.0003895640909249624
2026-06-27T14:31:46.589600,1782581365.6246715,0.0,0.0,1.389502763748169,0.0,0.0,-0.48320457339286804,0.0,0.0,0.0003895640909249624
2026-06-27T14:31:46.698836,1782581365.732674,0.0,0.0,1.337231993675232,0.0,0.0,-0.48472779989242554,0.0,0.0,0.0003895640909249624
2026-06-27T14:31:46.806149,1782581365.834676,0.0,0.0,1.2877223491668701,0.0,0.0,-0.4860103130340576,0.0,0.0,0.0003895640909249624
2026-06-27T14:31:46.916269,1782581365.9426782,0.0,0.0,1.2351653575897217,0.0,0.0,-0.48722127079963684,0.0,0.0,0.0003895640909249624
2026-06-27T14:31:47.025274,1782581366.0476806,0.0,0.0,1.1839499473571777,0.0,0.0,-0.48826906085014343,0.0,0.0,0.0003895640909249624
2026-06-27T14:31:47.132947,1782581366.1526828,0.0,0.0,1.1326305866241455,0.0,0.0,-0.48920339345932007,0.0,0.0,0.0003895640909249624
2026-06-27T14:31:47.241661,1782581366.257685,0.0,0.0,1.0812186002731323,0.0,0.0,-0.49003633856773376,0.0,0.0,0.0003895640909249624
2026-06-27T14:31:47.350907,1782581366.3656874,0.0,0.0,1.0282515287399292,0.0,0.0,-0.4907989799976349,0.0,0.0,0.0003895640909249624
2026-06-27T14:31:47.459094,1782581366.4736896,0.0,0.0,0.9752069115638733,0.0,0.0,-0.49147671461105347,0.0,0.0,0.0003895640909249624
2026-06-27T14:31:47.568842,1782581366.581692,0.0,0.0,0.9220931529998779,0.0,0.0,-0.4920789897441864,0.0,0.0,0.0003895640909249624
2026-06-27T14:31:47.678633,1782581366.6866941,0.0,0.0,0.870395839214325,0.0,0.0,-0.4926001727581024,0.0,0.0,0.0003895640909249624
2026-06-27T14:31:47.785719,1782581366.7916963,0.0,0.0,0.8186467885971069,0.0,0.0,-0.49306485056877136,0.0,0.0,0.0003895640909249624
2026-06-27T14:31:47.895956,1782581366.8996987,0.0,0.0,0.7653712630271912,0.0,0.0,-0.4934903383255005,0.0,0.0,0.0003895640909249624
2026-06-27T14:31:48.004863,1782581367.007701,0.0,0.0,0.7120525240898132,0.0,0.0,-0.49386832118034363,0.0,0.0,0.0003895640909249624
2026-06-27T14:31:48.112878,1782581367.1127033,0.0,0.0,0.6601778268814087,0.0,0.0,-0.49419543147087097,0.0,0.0,0.0003895640909249624
2026-06-27T14:31:48.221569,1782581367.2207055,0.0,0.0,0.6067872047424316,0.0,0.0,-0.49449512362480164,0.0,0.0,0.0003895640909249624
2026-06-27T14:31:48.330831,1782581367.328708,0.0,0.0,0.5533660054206848,0.0,0.0,-0.4947613477706909,0.0,0.0,0.0003895640909249624
2026-06-27T14:31:48.439028,1782581367.43371,0.0,0.0,0.5096153616905212,0.0,0.0,-0.21328061819076538,0.0,0.0,0.0003895640909249624
2026-06-27T14:31:48.548216,1782581367.5417123,0.0,0.0,0.502883791923523,0.0,0.0,0.012018591165542603,0.0,0.0,0.0003895640909249624
2026-06-27T14:31:48.657333,1782581367.6497147,0.0,0.0,0.48268601298332214,0.0,0.0,-0.5255690217018127,0.0,0.0,0.00036028458402404993
2026-06-27T14:31:48.766033,1782581367.757717,0.0,0.0,0.3872397541999817,0.0,0.0,-1.2389253377914429,0.0,0.0,0.00025809912394909775
2026-06-27T14:31:48.874726,1782581367.8657193,0.0,0.0,0.21596354246139526,0.0,0.0,-1.9275736808776855,0.0,0.0,0.00012893768135785762
2026-06-27T14:31:48.983939,1782581367.9737215,0.0,0.0,-0.02779485285282135,0.0,0.0,-2.579334020614624,0.0,0.0,1.173358548999851e-05
2026-06-27T14:31:49.092628,1782581368.075724,0.0,0.0,-0.32050061225891113,0.0,0.0,-3.1524269580841064,0.0,0.0,-6.650381594896307e-05
2026-06-27T14:31:49.201777,1782581368.180726,0.0,0.0,-0.6803668737411499,0.0,0.0,-3.6933772563934326,0.0,0.0,-0.00010685084790424207
2026-06-27T14:31:49.310212,1782581368.2857282,0.0,0.0,-1.0942717790603638,0.0,0.0,-4.181380748748779,0.0,0.0,-0.00011026409257687409
2026-06-27T14:31:49.419742,1782581368.3937306,0.0,0.0,-1.5704578161239624,0.0,0.0,-4.627249240875244,0.0,0.0,-8.707673061505563e-05
2026-06-27T14:31:49.528476,1782581368.4957328,0.0,0.0,-2.061734437942505,0.0,0.0,-4.997336387634277,0.0,0.0,-5.317974386317199e-05
2026-06-27T14:31:49.637159,1782581368.603735,0.0,0.0,-2.614168882369995,0.0,0.0,-5.168030738830566,0.0,0.0,-1.679055710644487e-05
2026-06-27T14:31:49.745794,1782581368.7087374,0.0,0.0,-3.1570465564727783,0.0,0.0,-5.166102886199951,0.0,0.0,1.0862706668003364e-05
2026-06-27T14:31:49.854813,1782581368.8137395,0.0,0.0,-3.6986637115478516,0.0,0.0,-5.149884223937988,0.0,0.0,2.6906558692550112e-05
2026-06-27T14:31:49.963631,1782581368.9187417,0.0,0.0,-4.2385640144348145,0.0,0.0,-5.133945941925049,0.0,0.0,3.1722277959298826e-05
2026-06-27T14:31:50.071951,1782581369.023744,0.0,0.0,-4.776866436004639,0.0,0.0,-5.119483947753906,0.0,0.0,2.788415270655082e-05
2026-06-27T14:31:50.181698,1782581369.1317463,0.0,0.0,-5.329047203063965,0.0,0.0,-5.106110572814941,0.0,0.0,1.8698888286879077e-05
2026-06-27T14:31:50.290096,1782581369.2397487,0.0,0.0,-5.879858493804932,0.0,0.0,-5.094118595123291,0.0,0.0,8.148320135759052e-06
2026-06-27T14:31:50.400643,1782581369.344751,0.0,0.0,-6.4141926765441895,0.0,0.0,-5.08364725112915,0.0,0.0,-6.287516925374207e-07
2026-06-27T14:31:50.508807,1782581369.452753,0.0,0.0,-6.962706565856934,0.0,0.0,-5.073974609375,0.0,0.0,-6.838004072753935e-06
2026-06-27T14:31:50.616989,1782581369.5607555,0.0,0.0,-7.510231971740723,0.0,0.0,-5.065301895141602,0.0,0.0,-1.0846997882987178e-05
2026-06-27T14:31:50.725295,1782581369.6687577,0.0,0.0,-8.056869506835938,0.0,0.0,-5.0575270652771,0.0,0.0,-1.3453012281459192e-05
2026-06-27T14:31:50.834046,1782581369.77676,0.0,0.0,-8.602710723876953,0.0,0.0,-5.050556659698486,0.0,0.0,-1.2970807215758372e-05
2026-06-27T14:31:50.942769,1782581369.8847623,0.0,0.0,-9.147839546203613,0.0,0.0,-5.044306755065918,0.0,0.0,-1.0529439090259876e-05
2026-06-27T14:31:51.051972,1782581369.9897647,0.0,0.0,-9.677215576171875,0.0,0.0,-5.038849353790283,0.0,0.0,-8.937287410487654e-06
2026-06-27T14:31:51.161679,1782581370.0977669,0.0,0.0,-10.221146583557129,0.0,0.0,-5.033812046051025,0.0,0.0,-7.936574377062929e-06
2026-06-27T14:31:51.270394,1782581370.2057693,0.0,0.0,-10.76456069946289,0.0,0.0,-5.029294967651367,0.0,0.0,-7.267903517274017e-06
2026-06-27T14:31:51.379161,1782581370.3137715,0.0,0.0,-11.307514190673828,0.0,0.0,-5.025245666503906,0.0,0.0,-6.599502164966594e-06
2026-06-27T14:31:51.486365,1782581370.421774,0.0,0.0,-11.850052833557129,0.0,0.0,-5.021615028381348,0.0,0.0,-5.931100812659172e-06
2026-06-27T14:31:51.595432,1782581370.526776,0.0,0.0,-12.377164840698242,0.0,0.0,-5.018446445465088,0.0,0.0,-5.281266164582512e-06
2026-06-27T14:31:51.705111,1782581370.6317782,0.0,0.0,-12.903960227966309,0.0,0.0,-5.015596866607666,0.0,0.0,-4.631431516505852e-06
2026-06-27T14:31:51.812926,1782581370.7397807,0.0,0.0,-13.445511817932129,0.0,0.0,-5.012965202331543,0.0,0.0,-3.963030164198433e-06
2026-06-27T14:31:51.922204,1782581370.8477829,0.0,0.0,-13.986793518066406,0.0,0.0,-5.01060676574707,0.0,0.0,-3.2946288118910136e-06
2026-06-27T14:31:52.030401,1782581370.9527853,0.0,0.0,-14.512807846069336,0.0,0.0,-5.008547782897949,0.0,0.0,-2.644794163814356e-06
2026-06-27T14:31:52.139359,1782581371.0607874,0.0,0.0,-15.053638458251953,0.0,0.0,-5.006645679473877,0.0,0.0,-1.976392811506937e-06
2026-06-27T14:31:52.249585,1782581371.1657896,0.0,0.0,-15.579258918762207,0.0,0.0,-5.004986763000488,0.0,0.0,-1.326556026097534e-06
2026-06-27T14:31:52.359810,1782581371.276792,0.0,0.0,-16.134733200073242,0.0,0.0,-5.003414154052734,0.0,0.0,-6.395842037826113e-07
2026-06-27T14:31:52.468495,1782581371.3817942,0.0,0.0,-16.660032272338867,0.0,0.0,-5.002079963684082,0.0,0.0,1.025400333473389e-08
2026-06-27T14:31:52.575749,1782581371.4897966,0.0,0.0,-17.2002010345459,0.0,0.0,-5.000848770141602,0.0,0.0,5.416977735730183e-07
2026-06-27T14:31:52.686477,1782581371.5977988,0.0,0.0,-17.74024200439453,0.0,0.0,-4.999744415283203,0.0,0.0,8.062147357663576e-07
2026-06-27T14:31:52.794256,1782581371.7028012,0.0,0.0,-18.265178680419922,0.0,0.0,-4.998780727386475,0.0,0.0,9.286583558937176e-07
2026-06-27T14:31:52.902428,1782581371.8108034,0.0,0.0,-18.80500602722168,0.0,0.0,-4.997890472412109,0.0,0.0,9.86792890583632e-07
2026-06-27T14:31:53.011167,1782581371.9158056,0.0,0.0,-19.329753875732422,0.0,0.0,-4.9971137046813965,0.0,0.0,1.0056406031816104e-06
2026-06-27T14:31:53.121860,1782581372.023808,0.0,0.0,-19.869415283203125,0.0,0.0,-4.996396541595459,0.0,0.0,1.0250268218538165e-06
2026-06-27T14:31:53.229557,1782581372.1258101,0.0,0.0,-20.379026412963867,0.0,0.0,-4.995787143707275,0.0,0.0,1.043336028377567e-06
2026-06-27T14:31:53.338723,1782581372.2338126,0.0,0.0,-20.918550491333008,0.0,0.0,-4.9952073097229,0.0,0.0,1.0627222470497733e-06
2026-06-27T14:31:53.446114,1782581372.3388147,0.0,0.0,-21.443031311035156,0.0,0.0,-4.994700908660889,0.0,0.0,1.0371712482940173e-06
2026-06-27T14:31:53.555882,1782581372.443817,0.0,0.0,-21.967470169067383,0.0,0.0,-4.994245529174805,0.0,0.0,9.99511445310493e-07
2026-06-27T14:31:53.664542,1782581372.5518193,0.0,0.0,-22.5068302154541,0.0,0.0,-4.9938249588012695,0.0,0.0,9.607756479560112e-07
2026-06-27T14:31:53.774823,1782581372.6418211,0.0,0.0,-22.956270217895508,0.0,0.0,-4.9935078620910645,0.0,0.0,9.284958168272762e-07
2026-06-27T14:31:53.882480,1782581372.7498236,0.0,0.0,-23.495561599731445,0.0,0.0,-4.9931640625,0.0,0.0,8.897600194727942e-07
2026-06-27T14:31:53.992192,1782581372.8548257,0.0,0.0,-24.019838333129883,0.0,0.0,-4.992863655090332,0.0,0.0,8.521003182670198e-07
2026-06-27T14:31:54.100227,1782581372.962828,0.0,0.0,-24.55906105041504,0.0,0.0,-4.9925856590271,0.0,0.0,8.133663529120343e-07
2026-06-27T14:31:54.209928,1782581373.0678303,0.0,0.0,-25.083295822143555,0.0,0.0,-4.992343425750732,0.0,0.0,7.757083310391317e-07
2026-06-27T14:31:54.318039,1782581373.1728325,0.0,0.0,-25.607473373413086,0.0,0.0,-4.992124557495117,0.0,0.0,7.380503091662292e-07
2026-06-27T14:31:54.426277,1782581373.280835,0.0,0.0,-26.14662742614746,0.0,0.0,-4.991924285888672,0.0,0.0,6.993163438112437e-07
2026-06-27T14:31:54.536011,1782581373.388837,0.0,0.0,-26.685781478881836,0.0,0.0,-4.991743087768555,0.0,0.0,6.605823784562582e-07
2026-06-27T14:31:54.644969,1782581373.4938393,0.0,0.0,-27.20989227294922,0.0,0.0,-4.991586208343506,0.0,0.0,6.229243565833557e-07
2026-06-27T14:31:54.753532,1782581373.6018417,0.0,0.0,-27.748977661132812,0.0,0.0,-4.991440296173096,0.0,0.0,5.841903912283702e-07
2026-06-27T14:31:54.861922,1782581373.7068439,0.0,0.0,-28.273088455200195,0.0,0.0,-4.9913129806518555,0.0,0.0,5.465323693554676e-07
2026-06-27T14:31:54.970982,1782581373.8118463,0.0,0.0,-28.797199249267578,0.0,0.0,-4.991196155548096,0.0,0.0,5.088743474825651e-07
2026-06-27T14:31:55.079694,1782581373.9168484,0.0,0.0,-29.32130241394043,0.0,0.0,-4.991095542907715,0.0,0.0,4.7121632560966246e-07
2026-06-27T14:31:55.188881,1782581374.0248506,0.0,0.0,-29.860319137573242,0.0,0.0,-4.991000175476074,0.0,0.0,4.32482360254677e-07
2026-06-27T14:31:55.298599,1782581374.132853,0.0,0.0,-30.399335861206055,0.0,0.0,-4.990914344787598,0.0,0.0,3.937476061221305e-07
2026-06-27T14:31:55.407340,1782581374.2378552,0.0,0.0,-30.92337989807129,0.0,0.0,-4.990840435028076,0.0,0.0,3.560886936939171e-07
2026-06-27T14:31:55.517020,1782581374.3458576,0.0,0.0,-31.4623966217041,0.0,0.0,-4.9907708168029785,0.0,0.0,3.1735381233918336e-07
2026-06-27T14:31:55.625275,1782581374.4508598,0.0,0.0,-31.986440658569336,0.0,0.0,-4.990708827972412,0.0,0.0,2.7969489991097003e-07
2026-06-27T14:31:55.733946,1782581374.558862,0.0,0.0,-32.525455474853516,0.0,0.0,-4.990654468536377,0.0,0.0,2.409600185562363e-07
2026-06-27T14:31:55.842674,1782581374.6668644,0.0,0.0,-33.06447219848633,0.0,0.0,-4.990602970123291,0.0,0.0,2.0222513720150251e-07
2026-06-27T14:31:55.951889,1782581374.7748666,0.0,0.0,-33.60348892211914,0.0,0.0,-4.990556240081787,0.0,0.0,1.6349025584676877e-07
2026-06-27T14:31:56.060117,1782581374.876869,0.0,0.0,-34.1125602722168,0.0,0.0,-4.99052095413208,0.0,0.0,1.2690731234507578e-07
2026-06-27T14:31:56.169433,1782581374.9818711,0.0,0.0,-34.63660430908203,0.0,0.0,-4.990486145019531,0.0,0.0,8.924850805572158e-08
2026-06-27T14:31:56.279182,1782581375.0868733,0.0,0.0,-35.160648345947266,0.0,0.0,-4.990452766418457,0.0,0.0,5.158981826633593e-08
2026-06-27T14:31:56.387890,1782581375.1948757,0.0,0.0,-35.69966506958008,0.0,0.0,-4.990420341491699,0.0,0.0,1.2855145237933813e-08
2026-06-27T14:31:56.496406,1782581375.302878,0.0,0.0,-36.23868179321289,0.0,0.0,-4.9903950691223145,0.0,0.0,-2.5879562776569795e-08
2026-06-27T14:31:56.604591,1782581375.4108803,0.0,0.0,-36.7776985168457,0.0,0.0,-4.990372180938721,0.0,0.0,-6.461421513136648e-08
2026-06-27T14:31:56.714065,1782581375.5188825,0.0,0.0,-37.316715240478516,0.0,0.0,-4.99035120010376,0.0,0.0,-1.0334886748616316e-07
2026-06-27T14:31:56.822099,1782581375.623885,0.0,0.0,-37.84075927734375,0.0,0.0,-4.990333080291748,0.0,0.0,-1.4100775446993906e-07
2026-06-27T14:31:56.931289,1782581375.731887,0.0,0.0,-38.37977600097656,0.0,0.0,-4.990315914154053,0.0,0.0,-1.797426358246728e-07
2026-06-27T14:31:57.040974,1782581375.8398895,0.0,0.0,-38.918792724609375,0.0,0.0,-4.990298748016357,0.0,0.0,-2.1847751717940656e-07
2026-06-27T14:31:57.149327,1782581375.9478917,0.0,0.0,-39.45780944824219,0.0,0.0,-4.990281581878662,0.0,0.0,-2.5721239853414033e-07
2026-06-27T14:31:57.258294,1782581376.055894,0.0,0.0,-39.996826171875,0.0,0.0,-4.990267276763916,0.0,0.0,-2.959472798888741e-07
2026-06-27T14:31:57.367506,1782581376.1608963,0.0,0.0,-40.520870208740234,0.0,0.0,-4.990256309509277,0.0,0.0,-3.336061923170874e-07
2026-06-27T14:31:57.476456,1782581376.2688985,0.0,0.0,-41.05988693237305,0.0,0.0,-4.990245342254639,0.0,0.0,-3.7234107367182115e-07
2026-06-27T14:31:57.585305,1782581376.376901,0.0,0.0,-41.59890365600586,0.0,0.0,-4.990234851837158,0.0,0.0,-4.1107595502655495e-07
2026-06-27T14:31:57.694478,1782581376.484903,0.0,0.0,-42.13792037963867,0.0,0.0,-4.990227699279785,0.0,0.0,-4.4981027660366474e-07
2026-06-27T14:31:57.802650,1782581376.5899055,0.0,0.0,-42.661964416503906,0.0,0.0,-4.990219593048096,0.0,0.0,-4.874682984765673e-07
2026-06-27T14:31:57.911369,1782581376.6979077,0.0,0.0,-43.20098114013672,0.0,0.0,-4.9902119636535645,0.0,0.0,-5.262022638315528e-07
2026-06-27T14:31:58.021051,1782581376.80591,0.0,0.0,-43.73999786376953,0.0,0.0,-4.990207195281982,0.0,0.0,-5.649362291865383e-07
2026-06-27T14:31:58.128703,1782581376.9109123,0.0,0.0,-44.264041900634766,0.0,0.0,-4.990201473236084,0.0,0.0,-6.025942510594408e-07
2026-06-27T14:31:58.238399,1782581377.0189145,0.0,0.0,-44.80305862426758,0.0,0.0,-4.990196228027344,0.0,0.0,-6.413282164144263e-07
2026-06-27T14:31:58.347623,1782581377.126917,0.0,0.0,-45.34207534790039,0.0,0.0,-4.990191459655762,0.0,0.0,-6.800621817694118e-07
2026-06-27T14:31:58.456283,1782581377.231919,0.0,0.0,-45.866119384765625,0.0,0.0,-4.99018669128418,0.0,0.0,-7.177202036423143e-07
2026-06-27T14:31:58.565583,1782581377.3429215,0.0,0.0,-46.420108795166016,0.0,0.0,-4.990181922912598,0.0,0.0,-7.575301124793828e-07
2026-06-27T14:31:58.675765,1782581377.4479237,0.0,0.0,-46.94415283203125,0.0,0.0,-4.990177631378174,0.0,0.0,-7.951881343522853e-07
2026-06-27T14:31:58.782446,1782581377.555926,0.0,0.0,-47.48316955566406,0.0,0.0,-4.990173816680908,0.0,0.0,-8.339220997072708e-07
2026-06-27T14:31:58.891730,1782581377.6639283,0.0,0.0,-48.022186279296875,0.0,0.0,-4.990170955657959,0.0,0.0,-8.726569810620045e-07
2026-06-27T14:31:59.000935,1782581377.7719307,0.0,0.0,-48.56120300292969,0.0,0.0,-4.99016809463501,0.0,0.0,-9.113927784164866e-07
2026-06-27T14:31:59.109183,1782581377.8769329,0.0,0.0,-49.08524703979492,0.0,0.0,-4.990164279937744,0.0,0.0,-9.490525814000108e-07
2026-06-27T14:31:59.218895,1782581377.9849353,0.0,0.0,-49.624263763427734,0.0,0.0,-4.990161418914795,0.0,0.0,-9.877883787544928e-07
2026-06-27T14:31:59.327572,1782581378.0899374,0.0,0.0,-50.14830780029297,0.0,0.0,-4.990159511566162,0.0,0.0,-1.025448181738017e-06
2026-06-27T14:31:59.436119,1782581378.1979396,0.0,0.0,-50.68732452392578,0.0,0.0,-4.9901580810546875,0.0,0.0,-1.064183979092499e-06
2026-06-27T14:31:59.544809,1782581378.305942,0.0,0.0,-51.226341247558594,0.0,0.0,-4.990156173706055,0.0,0.0,-1.102919776446981e-06
2026-06-27T14:31:59.654442,1782581378.4139442,0.0,0.0,-51.765357971191406,0.0,0.0,-4.990154266357422,0.0,0.0,-1.1416555738014631e-06
2026-06-27T14:31:59.762958,1782581378.5219467,0.0,0.0,-52.304290771484375,0.0,0.0,-4.990151405334473,0.0,0.0,-1.180391371155945e-06
2026-06-27T14:31:59.871209,1782581378.6299489,0.0,0.0,-52.843170166015625,0.0,0.0,-4.990148544311523,0.0,0.0,-1.219127168510427e-06
2026-06-27T14:31:59.980404,1782581378.7349513,0.0,0.0,-53.36708068847656,0.0,0.0,-4.990147590637207,0.0,0.0,-1.2567869714939511e-06
2026-06-27T14:32:00.090183,1782581378.8429534,0.0,0.0,-53.90596008300781,0.0,0.0,-4.990145683288574,0.0,0.0,-1.2955227688484332e-06
2026-06-27T14:32:00.198901,1782581378.9479556,0.0,0.0,-54.42987060546875,0.0,0.0,-4.990143775939941,0.0,0.0,-1.3331825718319572e-06
2026-06-27T14:32:00.307600,1782581379.055958,0.0,0.0,-54.96875,0.0,0.0,-4.990141868591309,0.0,0.0,-1.3719183691864396e-06
2026-06-27T14:32:00.416295,1782581379.1609602,0.0,0.0,-55.49266052246094,0.0,0.0,-4.990139961242676,0.0,0.0,-1.4095781721699638e-06
2026-06-27T14:32:00.524920,1782581379.2689626,0.0,0.0,-56.03153991699219,0.0,0.0,-4.990139484405518,0.0,0.0,-1.4483139695244459e-06
2026-06-27T14:32:00.634165,1782581379.3739648,0.0,0.0,-56.555450439453125,0.0,0.0,-4.990139007568359,0.0,0.0,-1.4859737725079699e-06
2026-06-27T14:32:00.742367,1782581379.4819672,0.0,0.0,-57.094329833984375,0.0,0.0,-4.990138053894043,0.0,0.0,-1.524709569862452e-06
2026-06-27T14:32:00.851542,1782581379.5899694,0.0,0.0,-57.633209228515625,0.0,0.0,-4.990136623382568,0.0,0.0,-1.5634453672169339e-06
2026-06-27T14:32:00.960797,1782581379.6979718,0.0,0.0,-58.172088623046875,0.0,0.0,-4.990133762359619,0.0,0.0,-1.602181164571416e-06
2026-06-27T14:32:01.070366,1782581379.805974,0.0,0.0,-58.710968017578125,0.0,0.0,-4.9901323318481445,0.0,0.0,-1.640916961925898e-06
2026-06-27T14:32:01.178420,1782581379.9139764,0.0,0.0,-59.249847412109375,0.0,0.0,-4.990130424499512,0.0,0.0,-1.67965275928038e-06
2026-06-27T14:32:01.287165,1782581380.0159786,0.0,0.0,-59.7587890625,0.0,0.0,-4.990130424499512,0.0,0.0,-1.7162364661151966e-06
2026-06-27T14:32:01.396464,1782581380.1209807,0.0,0.0,-60.28269958496094,0.0,0.0,-4.990129470825195,0.0,0.0,-1.7538962690987208e-06
2026-06-27T14:32:01.504720,1782581380.228983,0.0,0.0,-60.82157897949219,0.0,0.0,-4.990128517150879,0.0,0.0,-1.7926320664532027e-06
2026-06-27T14:32:01.614077,1782581380.3339853,0.0,0.0,-61.345489501953125,0.0,0.0,-4.990127086639404,0.0,0.0,-1.830291869436727e-06
2026-06-27T14:32:01.722073,1782581380.4389875,0.0,0.0,-61.86940002441406,0.0,0.0,-4.990126132965088,0.0,0.0,-1.8679516724202511e-06
2026-06-27T14:32:01.830838,1782581380.54699,0.0,0.0,-62.40827941894531,0.0,0.0,-4.99012565612793,0.0,0.0,-1.906687469774733e-06
2026-06-27T14:32:01.939559,1782581380.654992,0.0,0.0,-62.93218994140625,0.0,0.0,-4.990124702453613,0.0,0.0,-1.9443472727582572e-06
2026-06-27T14:32:02.048312,1782581380.7599943,0.0,0.0,-63.4710693359375,0.0,0.0,-4.9901227951049805,0.0,0.0,-1.983083070112739e-06
2026-06-27T14:32:02.156471,1782581380.8679967,0.0,0.0,-64.00994873046875,0.0,0.0,-4.990120887756348,0.0,0.0,-2.0218188674672215e-06
2026-06-27T14:32:02.265657,1782581380.9759989,0.0,0.0,-64.548828125,0.0,0.0,-4.990119457244873,0.0,0.0,-2.0605546648217034e-06
2026-06-27T14:32:02.375291,1782581381.0840013,0.0,0.0,-65.08770751953125,0.0,0.0,-4.990121364593506,0.0,0.0,-2.0992904621761853e-06
2026-06-27T14:32:02.483629,1782581381.1920035,0.0,0.0,-65.6265869140625,0.0,0.0,-4.990121364593506,0.0,0.0,-2.138026259530667e-06
2026-06-27T14:32:02.592307,1782581381.297006,0.0,0.0,-66.15049743652344,0.0,0.0,-4.990121364593506,0.0,0.0,-2.1756860625141916e-06
2026-06-27T14:32:02.701936,1782581381.408008,0.0,0.0,-66.704345703125,0.0,0.0,-4.990121364593506,0.0,0.0,-2.215497854239632e-06
2026-06-27T14:32:02.810205,1782581381.5130105,0.0,0.0,-67.22825622558594,0.0,0.0,-4.990119457244873,0.0,0.0,-2.2531576572231562e-06
2026-06-27T14:32:02.920393,1782581381.6240127,0.0,0.0,-67.7821044921875,0.0,0.0,-4.990119457244873,0.0,0.0,-2.292969448948595e-06
2026-06-27T14:32:03.030344,1782581381.729015,0.0,0.0,-68.30601501464844,0.0,0.0,-4.990118503570557,0.0,0.0,-2.3306292519321196e-06
2026-06-27T14:32:03.137521,1782581381.8370173,0.0,0.0,-68.84489440917969,0.0,0.0,-4.990115165710449,0.0,0.0,-2.369365049286602e-06
2026-06-27T14:32:03.246242,1782581381.9450197,0.0,0.0,-69.38377380371094,0.0,0.0,-4.990114688873291,0.0,0.0,-2.4081008466410843e-06
2026-06-27T14:32:03.355411,1782581382.053022,0.0,0.0,-69.92265319824219,0.0,0.0,-4.9901123046875,0.0,0.0,-2.4468366439955657e-06
2026-06-27T14:32:03.464134,1782581382.1610243,0.0,0.0,-70.46153259277344,0.0,0.0,-4.990110397338867,0.0,0.0,-2.4855724413500476e-06
2026-06-27T14:32:03.572324,1782581382.2630265,0.0,0.0,-70.97047424316406,0.0,0.0,-4.990109443664551,0.0,0.0,-2.522156249962614e-06
2026-06-27T14:32:03.682543,1782581382.3710287,0.0,0.0,-71.50935363769531,0.0,0.0,-4.990108489990234,0.0,0.0,-2.560892047317096e-06
2026-06-27T14:32:03.790233,1782581382.479031,0.0,0.0,-72.04823303222656,0.0,0.0,-4.990107536315918,0.0,0.0,-2.5996278446715784e-06
2026-06-27T14:32:03.899580,1782581382.5840333,0.0,0.0,-72.5721435546875,0.0,0.0,-4.990106105804443,0.0,0.0,-2.637287647655103e-06
2026-06-27T14:32:04.008771,1782581382.6920357,0.0,0.0,-73.11102294921875,0.0,0.0,-4.990105628967285,0.0,0.0,-2.6760234450095847e-06
2026-06-27T14:32:04.117971,1782581382.7970378,0.0,0.0,-73.63493347167969,0.0,0.0,-4.990104675292969,0.0,0.0,-2.713683247993109e-06
2026-06-27T14:32:04.226384,1782581382.90204,0.0,0.0,-74.15884399414062,0.0,0.0,-4.990102767944336,0.0,0.0,-2.7513430509766327e-06
2026-06-27T14:32:04.336438,1782581383.0130424,0.0,0.0,-74.71269226074219,0.0,0.0,-4.990100860595703,0.0,0.0,-2.791154842702073e-06
2026-06-27T14:32:04.443759,1782581383.1180446,0.0,0.0,-75.23660278320312,0.0,0.0,-4.990099906921387,0.0,0.0,-2.8288146456855974e-06
2026-06-27T14:32:04.552443,1782581383.223047,0.0,0.0,-75.76051330566406,0.0,0.0,-4.990098476409912,0.0,0.0,-2.8664744486691214e-06
2026-06-27T14:32:04.662024,1782581383.3310492,0.0,0.0,-76.29939270019531,0.0,0.0,-4.9900970458984375,0.0,0.0,-2.905210246023604e-06
2026-06-27T14:32:04.770071,1782581383.4390516,0.0,0.0,-76.83827209472656,0.0,0.0,-4.990096569061279,0.0,0.0,-2.943946043378086e-06
2026-06-27T14:32:04.879243,1782581383.5470538,0.0,0.0,-77.37715148925781,0.0,0.0,-4.990095615386963,0.0,0.0,-2.9826818407325675e-06
2026-06-27T14:32:04.989394,1782581383.6550562,0.0,0.0,-77.91603088378906,0.0,0.0,-4.9900946617126465,0.0,0.0,-3.0214176380870502e-06
2026-06-27T14:32:05.098489,1782581383.7600584,0.0,0.0,-78.43994140625,0.0,0.0,-4.990092754364014,0.0,0.0,-3.0590774410705742e-06
2026-06-27T14:32:05.205748,1782581383.8650606,0.0,0.0,-78.96385192871094,0.0,0.0,-4.990092754364014,0.0,0.0,-3.0967372440540982e-06
2026-06-27T14:32:05.315448,1782581383.9700627,0.0,0.0,-79.48776245117188,0.0,0.0,-4.9900898933410645,0.0,0.0,-3.1343970470376227e-06
2026-06-27T14:32:05.423635,1782581384.0750651,0.0,0.0,-80.01167297363281,0.0,0.0,-4.9900898933410645,0.0,0.0,-3.1720568500211467e-06
2026-06-27T14:32:05.532871,1782581384.1830673,0.0,0.0,-80.55055236816406,0.0,0.0,-4.990088939666748,0.0,0.0,-3.2107926473756286e-06
2026-06-27T14:32:05.641580,1782581384.2880697,0.0,0.0,-81.074462890625,0.0,0.0,-4.990087985992432,0.0,0.0,-3.248452450359153e-06
2026-06-27T14:32:05.749995,1782581384.396072,0.0,0.0,-81.61334228515625,0.0,0.0,-4.990087032318115,0.0,0.0,-3.2871882477136353e-06
2026-06-27T14:32:05.859202,1782581384.5040743,0.0,0.0,-82.1522216796875,0.0,0.0,-4.990085601806641,0.0,0.0,-3.3259240450681176e-06
2026-06-27T14:32:05.969226,1782581384.6120765,0.0,0.0,-82.69110107421875,0.0,0.0,-4.990085124969482,0.0,0.0,-3.3646598424225995e-06
2026-06-27T14:32:06.077422,1782581384.7170787,0.0,0.0,-83.21501159667969,0.0,0.0,-4.990084171295166,0.0,0.0,-3.4023196454061235e-06
2026-06-27T14:32:06.186425,1782581384.825081,0.0,0.0,-83.75389099121094,0.0,0.0,-4.99008321762085,0.0,0.0,-3.441055239205106e-06
2026-06-27T14:32:06.295533,1782581384.9330833,0.0,0.0,-84.29277038574219,0.0,0.0,-4.990080833435059,0.0,0.0,-3.479791036559588e-06
2026-06-27T14:32:06.403509,1782581385.0380857,0.0,0.0,-84.81668090820312,0.0,0.0,-4.9900803565979,0.0,0.0,-3.5174508395431123e-06
2026-06-27T14:32:06.512592,1782581385.146088,0.0,0.0,-85.35556030273438,0.0,0.0,-4.990078926086426,0.0,0.0,-3.556186636897594e-06
2026-06-27T14:32:06.621325,1782581385.2570903,0.0,0.0,-85.90940856933594,0.0,0.0,-4.990077972412109,0.0,0.0,-3.595998428623034e-06
2026-06-27T14:32:06.730495,1782581385.3620925,0.0,0.0,-86.43331909179688,0.0,0.0,-4.990076541900635,0.0,0.0,-3.6336582316065584e-06
2026-06-27T14:32:06.839183,1782581385.470095,0.0,0.0,-86.97219848632812,0.0,0.0,-4.990076541900635,0.0,0.0,-3.672394028961041e-06
2026-06-27T14:32:06.948300,1782581385.5810971,0.0,0.0,-87.52604675292969,0.0,0.0,-4.990075588226318,0.0,0.0,-3.71220582068648e-06
2026-06-27T14:32:07.056983,1782581385.6830995,0.0,0.0,-88.03498840332031,0.0,0.0,-4.990074157714844,0.0,0.0,-3.7487896292990466e-06
2026-06-27T14:32:07.166273,1782581385.7911017,0.0,0.0,-88.57386779785156,0.0,0.0,-4.990073204040527,0.0,0.0,-3.7875254266535294e-06
2026-06-27T14:32:07.275281,1782581385.899104,0.0,0.0,-89.11274719238281,0.0,0.0,-4.990072250366211,0.0,0.0,-3.826261224008011e-06
2026-06-27T14:32:07.383534,1782581386.0071063,0.0,0.0,-89.65162658691406,0.0,0.0,-4.990070819854736,0.0,0.0,-3.864997021362493e-06
2026-06-27T14:32:07.491951,1782581386.1151085,0.0,0.0,-90.19050598144531,0.0,0.0,-4.990070819854736,0.0,0.0,-3.903732818716976e-06
2026-06-27T14:32:07.601361,1782581386.223111,0.0,0.0,-90.72938537597656,0.0,0.0,-4.99006986618042,0.0,0.0,-3.942468616071458e-06
2026-06-27T14:32:07.712055,1782581386.331113,0.0,0.0,-91.26826477050781,0.0,0.0,-4.9900689125061035,0.0,0.0,-3.98120441342594e-06
2026-06-27T14:32:07.819757,1782581386.4361155,0.0,0.0,-91.79217529296875,0.0,0.0,-4.990067481994629,0.0,0.0,-4.018864216409464e-06
2026-06-27T14:32:07.929479,1782581386.5471177,0.0,0.0,-92.34602355957031,0.0,0.0,-4.9900665283203125,0.0,0.0,-4.058676008134904e-06
2026-06-27T14:32:08.037661,1782581386.65212,0.0,0.0,-92.86993408203125,0.0,0.0,-4.990066051483154,0.0,0.0,-4.096335811118428e-06
2026-06-27T14:32:08.146375,1782581386.7601223,0.0,0.0,-93.4088134765625,0.0,0.0,-4.99006462097168,0.0,0.0,-4.1350716084729094e-06
2026-06-27T14:32:08.255575,1782581386.8651247,0.0,0.0,-93.93272399902344,0.0,0.0,-4.990063190460205,0.0,0.0,-4.172731411456434e-06
2026-06-27T14:32:08.364252,1782581386.9701269,0.0,0.0,-94.45663452148438,0.0,0.0,-4.990062713623047,0.0,0.0,-4.210391214439958e-06
2026-06-27T14:32:08.472192,1782581387.078129,0.0,0.0,-94.99551391601562,0.0,0.0,-4.9900617599487305,0.0,0.0,-4.249127011794441e-06
2026-06-27T14:32:08.581927,1782581387.1861315,0.0,0.0,-95.53439331054688,0.0,0.0,-4.990059852600098,0.0,0.0,-4.287862809148923e-06
2026-06-27T14:32:08.691100,1782581387.2941337,0.0,0.0,-96.07327270507812,0.0,0.0,-4.990058898925781,0.0,0.0,-4.326598606503405e-06
2026-06-27T14:32:08.799783,1782581387.399136,0.0,0.0,-96.59718322753906,0.0,0.0,-4.990057468414307,0.0,0.0,-4.364258409486929e-06
2026-06-27T14:32:08.909960,1782581387.5071383,0.0,0.0,-97.13606262207031,0.0,0.0,-4.990057468414307,0.0,0.0,-4.402994206841412e-06
2026-06-27T14:32:09.017446,1782581387.6151407,0.0,0.0,-97.67494201660156,0.0,0.0,-4.990056037902832,0.0,0.0,-4.4417300041958935e-06
2026-06-27T14:32:09.126168,1782581387.7201428,0.0,0.0,-98.1988525390625,0.0,0.0,-4.990054607391357,0.0,0.0,-4.4793898071794175e-06
2026-06-27T14:32:09.234865,1782581387.8281453,0.0,0.0,-98.73773193359375,0.0,0.0,-4.990053653717041,0.0,0.0,-4.518125604533899e-06
2026-06-27T14:32:09.343584,1782581387.9331474,0.0,0.0,-99.26164245605469,0.0,0.0,-4.990053176879883,0.0,0.0,-4.555785407517423e-06
2026-06-27T14:32:09.452708,1782581388.0381496,0.0,0.0,-99.78555297851562,0.0,0.0,-4.990052223205566,0.0,0.0,-4.593445210500949e-06
2026-06-27T14:32:09.561978,1782581388.146152,1.7245668004761683e-07,-3.0526467753588804e-07,-100.32103729248047,1.8809787434292957e-05,-3.304232086520642e-05,-4.839765548706055,-0.027926383643147545,-0.0163736856958215,-0.34663657951976706
2026-06-27T14:32:09.670151,1782581388.2511542,5.1058603276032954e-05,-8.359519415535033e-05,-100.81717681884766,0.0014857691712677479,-0.0023974047508090734,-4.636532306671143,-0.3383144986567825,-0.24463775929314815,-3.6644013364669363
2026-06-27T14:32:09.778894,1782581388.3591564,0.0005030239699408412,-0.0008027140283957124,-101.31268310546875,0.007969888858497143,-0.01261201687157154,-4.5591936111450195,-0.7633649661131013,-0.7030378797245641,-10.119822257705827
2026-06-27T14:32:09.887059,1782581388.4671588,0.0020448295399546623,-0.003230145899578929,-101.80579376220703,0.021983381360769272,-0.03450236842036247,-4.588172435760498,-1.0719135449712254,-1.3610054240854847,-19.05030795699182
2026-06-27T14:32:09.995735,1782581388.575161,0.0055731311440467834,-0.008748331107199192,-102.30670928955078,0.04490650072693825,-0.07004648447036743,-4.699513912200928,-1.1141189629015644,-2.16893616461106,-29.89337977541986
2026-06-27T14:32:10.105431,1782581388.6831634,0.01189473643898964,-0.01857968047261238,-102.8097915649414,0.0778442770242691,-0.12075892090797424,-4.918948650360107,-0.816996288346363,-3.014096450823014,-41.725527119233845
2026-06-27T14:32:10.215166,1782581388.7881656,0.022298431023955345,-0.03467915579676628,-103.3466567993164,0.11416447907686234,-0.1763342022895813,-4.963574409484863,-0.22663853850877475,-3.8368081813144572,-53.38279295727844
2026-06-27T14:32:10.321764,1782581388.893168,0.036114513874053955,-0.05598144978284836,-103.86077117919922,0.14946654438972473,-0.2300952523946762,-4.815035343170166,0.45316058013978355,-4.532837184763981,-62.359041654233366
2026-06-27T14:32:10.431468,1782581389.0011702,0.054390277713537216,-0.08406681567430496,-104.37001037597656,0.1899220496416092,-0.29137855768203735,-4.613886833190918,1.0882282329913036,-5.147117217329691,-68.44053178317348
2026-06-27T14:32:10.540154,1782581389.1061723,0.07669425010681152,-0.11822167038917542,-104.84510040283203,0.23634284734725952,-0.36126983165740967,-4.44515323638916,1.4986522015498012,-5.696421766346983,-71.09660605873653
2026-06-27T14:32:10.650399,1782581389.2171748,0.10615167021751404,-0.16315340995788574,-105.33260345458984,0.2966782748699188,-0.4516181945800781,-4.359482765197754,1.6138915517313235,-6.280855391187438,-70.64768765973207
2026-06-27T14:32:10.759598,1782581389.3251772,0.142030730843544,-0.21765655279159546,-105.80534362792969,0.370595246553421,-0.5618986487388611,-4.423496723175049,1.394016500183989,-6.864447837427474,-67.64668069260273
2026-06-27T14:32:10.868836,1782581389.4331794,0.18689121305942535,-0.2855450510978699,-106.2948989868164,0.4636106789112091,-0.7004168629646301,-4.675109386444092,0.9223283637966809,-7.465085833664367,-63.17266491600941
2026-06-27T14:32:10.977292,1782581389.5381815,0.24054700136184692,-0.3664962649345398,-106.79801940917969,0.5535845756530762,-0.8343305587768555,-4.831179141998291,0.3587445812214316,-8.045719720752729,-58.66458966447821
2026-06-27T14:32:11.085971,1782581389.643184,0.30272743105888367,-0.46013498306274414,-107.3015365600586,0.6306642293930054,-0.9490615129470825,-4.746435165405273,-0.1593187774020044,-8.649219200738951,-55.052324222004906
2026-06-27T14:32:11.194356,1782581389.7511861,0.3752135932445526,-0.5691483616828918,-107.80741119384766,0.7122761011123657,-1.0706197023391724,-4.617330551147461,-0.5346224969198204,-9.287720278545034,-52.823896606724524
2026-06-27T14:32:11.303588,1782581389.8591886,0.45673319697380066,-0.6916234493255615,-108.29822540283203,0.797919750213623,-1.1983193159103394,-4.467486381530762,-0.6951480527893606,-9.93977418900355,-52.14025571535311
2026-06-27T14:32:11.412795,1782581389.9671907,0.547705888748169,-0.8282021880149841,-108.77165985107422,0.8872645497322083,-1.331696629524231,-4.296102523803711,-0.6493135697389505,-10.59925056380204,-52.66449071637293
2026-06-27T14:32:11.521515,1782581390.0751932,0.6484836935997009,-0.9794266819953918,-109.22518157958984,0.9794468879699707,-1.4694628715515137,-4.098609924316406,-0.45580983452891616,-11.24898523880652,-53.88271262406692
2026-06-27T14:32:11.630703,1782581390.1831954,0.7592862844467163,-1.1456413269042969,-109.6553726196289,1.0727397203445435,-1.6090238094329834,-3.863004207611084,-0.1990949561263796,-11.918976734174615,-55.281543401985274
2026-06-27T14:32:11.740514,1782581390.2941978,0.8836811184883118,-1.3322079181671143,-110.0685806274414,1.1681550741195679,-1.751873254776001,-3.5704903602600098,0.04967942297464527,-12.635165257407888,-56.497549031242045
2026-06-27T14:32:11.849246,1782581390.4022,1.0146715641021729,-1.5286445617675781,-110.43539428710938,1.2559155225753784,-1.8833434581756592,-3.202009677886963,0.22245471774601044,-13.454390751829719,-57.24750915953594
2026-06-27T14:32:11.957458,1782581390.5102024,1.1544097661972046,-1.738188624382019,-110.75457000732422,1.327323079109192,-1.990354299545288,-2.66935396194458,0.3071541726841321,-14.566931699506041,-57.52912840949207
2026-06-27T14:32:12.065718,1782581390.6152046,1.2975927591323853,-1.9528940916061401,-111.0068588256836,1.4139493703842163,-2.1202468872070312,-2.224346876144409,0.2944141090284079,-15.394078188148908,-57.42973874267927
2026-06-27T14:32:12.175926,1782581390.7202067,1.4529837369918823,-2.185910224914551,-111.23236083984375,1.5468685626983643,-2.31965708732605,-2.0823891162872314,0.19892578391884974,-14.985432920487572,-57.096728532816705
2026-06-27T14:32:12.284197,1782581390.8282092,1.6272809505462646,-2.44728946685791,-111.45055389404297,1.6789921522140503,-2.5179147720336914,-1.9583097696304321,0.08350645732309027,-13.912388893179253,-56.6747300526886
2026-06-27T14:32:12.393413,1782581390.9362113,1.815224289894104,-2.7291476726531982,-111.6554946899414,1.799308180809021,-2.6984713077545166,-1.8382965326309204,-0.004138786968673924,-12.576624996942867,-56.30306297002834
2026-06-27T14:32:12.501629,1782581391.0412138,2.009782552719116,-3.020937204360962,-111.8428955078125,1.904563546180725,-2.8564302921295166,-1.733681321144104,-0.04942172502157857,-11.231324661338656,-56.06020081896135
2026-06-27T14:32:12.610389,1782581391.146216,2.2147932052612305,-3.3284130096435547,-112.02005767822266,1.9984678030014038,-2.9973504543304443,-1.6438169479370117,-0.06103343070261863,-9.943831108881374,-55.95144061086733
2026-06-27T14:32:12.720086,1782581391.251218,2.429088830947876,-3.649822473526001,-112.1885757446289,2.081533908843994,-3.12199068069458,-1.5683157444000244,-0.05159990903070927,-8.76210933495641,-55.95754193342979
2026-06-27T14:32:12.828268,1782581391.3592205,2.658036708831787,-3.993211030960083,-112.35436248779297,2.1564431190490723,-3.234363555908203,-1.5036636590957642,-0.032877254654235424,-7.675629901146354,-56.04255336224241
2026-06-27T14:32:12.936107,1782581391.4642227,2.887878179550171,-4.337940216064453,-112.50940704345703,2.219939708709717,-3.3295795917510986,-1.4511818885803223,-0.01474391763599779,-6.746863782454171,-56.15771188699975
2026-06-27T14:32:13.045817,1782581391.572225,3.1307740211486816,-4.702243804931641,-112.66362762451172,2.2766568660736084,-3.414585828781128,-1.4055858850479126,-0.0008797894011363877,-5.9152889683565695,-56.271249892110866
2026-06-27T14:32:13.155578,1782581391.6802273,3.3793702125549316,-5.075087547302246,-112.81327819824219,2.325671911239624,-3.4880096912384033,-1.3665648698806763,0.006901157929493015,-5.1981023125621375,-56.35487311944003
2026-06-27T14:32:13.263957,1782581391.7852297,3.6257858276367188,-5.444653034210205,-112.95500183105469,2.3668625354766846,-3.5496883392333984,-1.3334624767303467,0.009489111743969316,-4.598351851820193,-56.39807902152867
2026-06-27T14:32:13.373670,1782581391.8932319,3.883436918258667,-5.831058979034424,-113.09733581542969,2.403452157974243,-3.6044652462005615,-1.3031636476516724,0.008761515784472951,-4.069583894091787,-56.40592019502306
2026-06-27T14:32:13.481364,1782581391.995234,4.130155563354492,-6.201058864593506,-113.22892761230469,2.4333457946777344,-3.649219274520874,-1.2772332429885864,0.006505761945630615,-3.64146648776794,-56.38851973919434
2026-06-27T14:32:13.590459,1782581392.0972362,4.379718780517578,-6.575316905975342,-113.35797119140625,2.459321975708008,-3.6881160736083984,-1.2532463073730469,0.003898623436119209,-3.273347620634885,-56.35840165950115
2026-06-27T14:32:13.699701,1782581392.1962383,4.616865158081055,-6.930952548980713,-113.4772720336914,2.48067045211792,-3.720097541809082,-1.2322131395339966,0.0017613794469489852,-2.9743589542191815,-56.327761673893875
2026-06-27T14:32:13.809430,1782581392.2982404,4.878436088562012,-7.323212623596191,-113.6054916381836,2.5010416507720947,-3.7506296634674072,-1.210362195968628,0.00010665562498590045,-2.6929122687984703,-56.29947110955124
2026-06-27T14:32:13.918017,1782581392.4032428,5.142000198364258,-7.7184624671936035,-113.73148345947266,2.5187339782714844,-3.77716064453125,-1.1895240545272827,-0.0007999768945776084,-2.4524030074234298,-56.281071649236175
2026-06-27T14:32:14.025401,1782581392.508245,5.407299041748047,-8.116313934326172,-113.8553237915039,2.534133195877075,-3.8002617359161377,-1.1694930791854858,-0.0010916974619458377,-2.247004730821342,-56.27351789585312
2026-06-27T14:32:14.135168,1782581392.6162472,5.681753158569336,-8.527894020080566,-113.98054504394531,2.5479278564453125,-3.820960521697998,-1.1495306491851807,-0.0009757288725233845,-2.066902528857981,-56.27519870988084
2026-06-27T14:32:14.243832,1782581392.7212496,5.949918746948242,-8.930047035217285,-114.10025024414062,2.5596437454223633,-3.838538885116577,-1.1307291984558105,-0.0006735873979198492,-1.9176945977612827,-56.28271576990666
2026-06-27T14:32:14.352651,1782581392.8262517,6.219238758087158,-9.333930015563965,-114.21800994873047,2.56992769241333,-3.8539676666259766,-1.1123285293579102,-0.0003462257714483452,-1.790122894205856,-56.292468883509365
2026-06-27T14:32:14.461374,1782581392.931254,6.489572525024414,-9.73933219909668,-114.33384704589844,2.5789859294891357,-3.867556095123291,-1.094299554824829,-8.623721037236157e-05,-1.6810475718108957,-56.30161407036197
2026-06-27T14:32:14.570587,1782581393.0362563,6.760801315307617,-10.146079063415527,-114.44781494140625,2.5869951248168945,-3.8795673847198486,-1.0766159296035767,6.848977391362293e-05,-1.5876888130629034,-56.30830676518512
2026-06-27T14:32:14.679729,1782581393.1412585,7.0328216552734375,-10.554015159606934,-114.5599365234375,2.5941014289855957,-3.890223979949951,-1.0591521263122559,0.00010973917063271185,-1.5079061475157438,-56.311867407968954
2026-06-27T14:32:14.788900,1782581393.249261,7.313348293304443,-10.97470474243164,-114.67337036132812,2.60060453414917,-3.899976968765259,-1.0414680242538452,6.618581799561266e-05,-1.437682804111723,-56.31250585632419
2026-06-27T14:32:14.897492,1782581393.351263,7.57889986038208,-11.372937202453613,-114.77875518798828,2.6061007976531982,-3.9082212448120117,-1.0250135660171509,-2.648731446075067e-05,-1.380829126476914,-56.31106473223367
2026-06-27T14:32:15.006215,1782581393.4562652,7.852818965911865,-11.783719062805176,-114.88550567626953,2.611194372177124,-3.9158637523651123,-1.008266568183899,-0.00013995298395556125,-1.3304618058527466,-56.30855308319032
2026-06-27T14:32:15.114914,1782581393.5612674,8.127246856689453,-12.19526195526123,-114.99049377441406,2.615792989730835,-3.922767162322998,-0.9917165637016296,-0.00024458193836434706,-1.2871616268518171,-56.30588995867054
2026-06-27T14:32:15.224050,1782581393.6662698,8.40213394165039,-12.607495307922363,-115.09376525878906,2.6199657917022705,-3.929032802581787,-0.9753855466842651,-0.0003287951896657931,-1.2498760523149481,-56.303717055587285
2026-06-27T14:32:15.332469,1782581393.768272,8.669567108154297,-13.008553504943848,-115.19243621826172,2.6236629486083984,-3.93458890914917,-0.9595503211021423,-0.00038487057915415795,-1.2186183464621954,-56.302420885908354
2026-06-27T14:32:15.440651,1782581393.873274,8.945243835449219,-13.421975135803223,-115.29234313964844,2.627155303955078,-3.9398391246795654,-0.9435762166976929,-0.0004134282134843422,-1.1906871681280242,-56.30197771423326
2026-06-27T14:32:15.549859,1782581393.9812765,9.229164123535156,-13.847758293151855,-115.39337921142578,2.63045597076416,-3.944802761077881,-0.9272856712341309,-0.0004225898758084158,-1.1658477540236407,-56.302278425516675
2026-06-27T14:32:15.658569,1782581394.0862787,9.505525588989258,-14.26220703125,-115.48992156982422,2.6334192752838135,-3.949260711669922,-0.9116299152374268,-0.0004212437848845045,-1.1449108411755045,-56.303037348627534
2026-06-27T14:32:15.767843,1782581394.1882808,9.77427864074707,-14.665247917175293,-115.58213806152344,2.6360926628112793,-3.953282594680786,-0.8963683247566223,-0.0004110619251924164,-1.127170001953335,-56.303906852103026
2026-06-27T14:32:15.877073,1782581394.293283,10.051210403442383,-15.080556869506836,-115.67545318603516,2.638665199279785,-3.9571533203125,-0.881091833114624,-0.0003948621913638476,-1.111180351179934,-56.30473802362787
2026-06-27T14:32:15.985831,1782581394.3982854,10.32840347290039,-15.496260643005371,-115.76716613769531,2.6410727500915527,-3.960775852203369,-0.8658789396286011,-0.0003963534366577829,-1.0971539993525568,-56.30540496786745
2026-06-27T14:32:16.094608,1782581394.5032876,10.605840682983398,-15.912331581115723,-115.8572998046875,2.643333911895752,-3.964179277420044,-0.8506964445114136,-0.00039511086348044427,-1.0848476460155572,-56.30575709802583
2026-06-27T14:32:16.204035,1782581394.6022897,10.867636680603027,-16.304948806762695,-115.9408187866211,2.6453495025634766,-3.967214345932007,-0.8366721868515015,-0.00039798455674676115,-1.0744859791744255,-56.30590318876002
2026-06-27T14:32:16.312774,1782581394.7072918,11.145511627197266,-16.721675872802734,-116.02789306640625,2.6473748683929443,-3.9702646732330322,-0.821925938129425,-0.00039742481617096654,-1.0646925776265346,-56.30590084818583
2026-06-27T14:32:16.421674,1782581394.8122942,11.42359447479248,-17.138715744018555,-116.11344146728516,2.649296283721924,-3.973158359527588,-0.8073124885559082,-0.0004122756215866699,-1.0559448611382876,-56.305693524260505
2026-06-27T14:32:16.530908,1782581394.9172964,11.701873779296875,-17.556053161621094,-116.19744873046875,2.6511247158050537,-3.9759132862091064,-0.7929285764694214,-0.0004262171785195944,-1.0480661188635778,-56.30549337388679
2026-06-27T14:32:16.639634,1782581395.0192986,11.972381591796875,-17.961734771728516,-116.27761840820312,2.652818202972412,-3.9784648418426514,-0.7789505124092102,-0.00043134531186861033,-1.0412157886628441,-56.30547053986697
2026-06-27T14:32:16.748538,1782581395.1243007,12.251021385192871,-18.379615783691406,-116.3586654663086,2.6544854640960693,-3.9809792041778564,-0.7647954821586609,-0.0004459319521266674,-1.034772785888857,-56.30547099153185
2026-06-27T14:32:16.856251,1782581395.2263029,12.521864891052246,-18.785802841186523,-116.43598937988281,2.6560378074645996,-3.9833216667175293,-0.7512978315353394,-0.0004542462130185092,-1.0290395415654343,-56.305558539107196
2026-06-27T14:32:16.967516,1782581395.3343053,12.808809280395508,-19.216142654418945,-116.51634979248047,2.6576125621795654,-3.9856982231140137,-0.7369517683982849,-0.00044680603202436775,-1.023495294644084,-56.305667841941755
2026-06-27T14:32:17.075743,1782581395.4423075,13.09592056274414,-19.646730422973633,-116.59517669677734,2.6591241359710693,-3.9879796504974365,-0.7228758931159973,-0.00044871322479198006,-1.0183756300721907,-56.30578042138357
2026-06-27T14:32:17.183930,1782581395.5443099,13.367227554321289,-20.053621292114258,-116.66824340820312,2.6604971885681152,-3.990053176879883,-0.7097430229187012,-0.0004470276702268718,-1.0138794759175311,-56.30588296576814
2026-06-27T14:32:17.292625,1782581395.646312,13.638671875,-20.460716247558594,-116.73998260498047,2.661821126937866,-3.9920525550842285,-0.6967770457267761,-0.0004449110003182268,-1.009682522350084,-56.30598785260219
2026-06-27T14:32:17.401911,1782581395.7483141,13.910249710083008,-20.868011474609375,-116.81039428710938,2.663098096847534,-3.9939818382263184,-0.6839638352394104,-0.00044273613930766653,-1.0057341194441503,-56.306088541804684
2026-06-27T14:32:17.510689,1782581395.8533163,14.189947128295898,-21.287490844726562,-116.88152313232422,2.664367198944092,-3.995899200439453,-0.6709118485450745,-0.0004404059679608626,-1.0018914028769996,-56.306194465683426
2026-06-27T14:32:17.621553,1782581395.9613187,14.477771759033203,-21.719161987304688,-116.9532699584961,2.66562557220459,-3.9978010654449463,-0.6576433777809143,-0.00043017487173423484,-0.9981649305120502,-56.306299619568755
2026-06-27T14:32:17.729189,1782581396.0603209,14.741730690002441,-22.115036010742188,-117.01779174804688,2.6667404174804688,-3.9994866847991943,-0.645673394203186,-0.0004214140317531199,-0.9949164881616968,-56.30640139567679
2026-06-27T14:32:17.836398,1782581396.162323,15.013799667358398,-22.5230770111084,-117.0830307006836,2.6678521633148193,-4.001166343688965,-0.6334539651870728,-0.00041973169163277407,-0.9917073900952199,-56.30650782173214
2026-06-27T14:32:17.946003,1782581396.2613251,15.277975082397461,-22.919281005859375,-117.1451644897461,2.6688954830169678,-4.002743721008301,-0.6217232346534729,-0.00041820982532352074,-0.9887216922265597,-56.30660543227909
2026-06-27T14:32:18.055387,1782581396.3603272,15.542251586914062,-23.315635681152344,-117.20613861083984,2.669907569885254,-4.004274368286133,-0.6102706789970398,-0.0004154668253142588,-0.9858353317781758,-56.306703828669015
2026-06-27T14:32:18.164084,1782581396.4623294,15.814640045166016,-23.724157333374023,-117.26778411865234,2.6709158420562744,-4.00579833984375,-0.5984639525413513,-0.00041011319239624144,-0.9829890016845247,-56.30680694527855
2026-06-27T14:32:18.276324,1782581396.5703316,16.103160858154297,-24.156879425048828,-117.3317642211914,2.6719484329223633,-4.007360458374023,-0.5861829519271851,-0.00039423339924422987,-0.9800696747570082,-56.30690098747667
2026-06-27T14:32:18.382521,1782581396.6723337,16.375755310058594,-24.565710067749023,-117.39096069335938,2.67289137840271,-4.008786678314209,-0.57469642162323,-0.00039400433992411397,-0.9774565727273282,-56.30690084702707
2026-06-27T14:32:18.490851,1782581396.774336,16.640419006347656,-24.96265411376953,-117.44731903076172,2.673779010772705,-4.010129451751709,-0.5638331770896912,-0.00039418384649359396,-0.9749198561698836,-56.30691434876944
2026-06-27T14:32:18.599630,1782581396.8763382,16.92122459411621,-25.383800506591797,-117.50591278076172,2.6746885776519775,-4.011506080627441,-0.5523223876953125,-0.0003930472290699637,-0.9723739669758353,-56.30702412593969
2026-06-27T14:32:18.708337,1782581396.9753404,17.186063766479492,-25.7810115814209,-117.56005859375,2.675520181655884,-4.012764930725098,-0.5417456030845642,-0.00038992845119317744,-0.9699632632242664,-56.30711393524146
2026-06-27T14:32:18.818586,1782581397.0803425,17.467042922973633,-26.202430725097656,-117.6163558959961,2.6763720512390137,-4.014056205749512,-0.5306490659713745,-0.00037877283024955095,-0.9675138171479816,-56.30722456569804
2026-06-27T14:32:18.926276,1782581397.1823447,17.740081787109375,-26.611934661865234,-117.66995239257812,2.677172899246216,-4.0152692794799805,-0.5200284719467163,-0.0003671708905770025,-0.9651790161787721,-56.30727613119259
2026-06-27T14:32:19.034753,1782581397.2873468,18.02123260498047,-27.03360939025879,-117.72398376464844,2.6779696941375732,-4.016477108001709,-0.5092530250549316,-0.000365642725493217,-0.9628618668374109,-56.30727835128471
2026-06-27T14:32:19.143768,1782581397.3923492,18.30246353149414,-27.455411911010742,-117.77690887451172,2.6787405014038086,-4.01764440536499,-0.4986437261104584,-0.00035851065335031795,-0.9606070209090506,-56.30733486673992
2026-06-27T14:32:19.252018,1782581397.5003514,18.591815948486328,-27.88939094543457,-117.83018493652344,2.679506540298462,-4.018804550170898,-0.48796242475509644,-0.00034357241166532997,-0.9583381831137986,-56.307445161943136
2026-06-27T14:32:19.361229,1782581397.6083539,18.88125228881836,-28.3234920501709,-117.88230895996094,2.6802446842193604,-4.019922733306885,-0.47735026478767395,-0.0003386856733876929,-0.9561597621717561,-56.307549897846144
2026-06-27T14:32:19.470918,1782581397.713356,19.162721633911133,-28.74564552307129,-117.93190002441406,2.680938482284546,-4.020974159240723,-0.4672529101371765,-0.00033807280168534,-0.9540762977131568,-56.30761021856481
2026-06-27T14:32:19.578862,1782581397.8183582,19.44426155090332,-29.16791343688965,-117.98043823242188,2.681608200073242,-4.021988868713379,-0.4573213458061218,-0.00033790091388778394,-0.9520478026692847,-56.3076084679208
2026-06-27T14:32:19.688626,1782581397.9203606,19.717823028564453,-29.57821273803711,-118.02659606933594,2.6822361946105957,-4.022942066192627,-0.44782280921936035,-0.0003324176494183377,-0.9501241592070828,-56.30764745747725
2026-06-27T14:32:19.796292,1782581398.0283628,20.007545471191406,-30.012754440307617,-118.07443237304688,2.682878017425537,-4.023916244506836,-0.4379505217075348,-0.0003171219668597499,-0.9481339156426343,-56.30775984346046
2026-06-27T14:32:19.905970,1782581398.136365,20.29733657836914,-30.447397232055664,-118.12120819091797,2.683497667312622,-4.0248541831970215,-0.42822954058647156,-0.000311665641616054,-0.9462143811929763,-56.3078552545007
2026-06-27T14:32:20.014613,1782581398.2443674,20.58719253540039,-30.88214111328125,-118.16694641113281,2.6840946674346924,-4.025759220123291,-0.41873276233673096,-0.0003114288640645531,-0.9443217967946722,-56.30785455113513
2026-06-27T14:32:20.123776,1782581398.3463695,20.86100196838379,-31.292816162109375,-118.20919799804688,2.6846394538879395,-4.026584625244141,-0.40993401408195496,-0.00031109687412340145,-0.9425595047323605,-56.307871161859545
2026-06-27T14:32:20.232124,1782581398.4513717,21.14291763305664,-31.715660095214844,-118.25177764892578,2.685178279876709,-4.027401924133301,-0.4009281098842621,-0.00030973603887971246,-0.9408309057772276,-56.30798711578586
2026-06-27T14:32:20.340937,1782581398.556374,21.42490005493164,-32.138587951660156,-118.29341888427734,2.6856977939605713,-4.028190612792969,-0.3921279311180115,-0.0003085432503818805,-0.9391447501149929,-56.30805115650915
2026-06-27T14:32:20.450100,1782581398.6613762,21.706933975219727,-32.56157684326172,-118.33413696289062,2.686199188232422,-4.028951168060303,-0.3834902346134186,-0.0003069368494316358,-0.9375021992854199,-56.30805226253461
2026-06-27T14:32:20.559351,1782581398.7693787,21.9970760345459,-32.99677276611328,-118.37509155273438,2.686695098876953,-4.0297040939331055,-0.3747814893722534,-0.00029914586207257344,-0.9358577025434666,-56.30814279221028
2026-06-27T14:32:20.667942,1782581398.8773808,22.279203414916992,-33.4199333190918,-118.41400146484375,2.687159299850464,-4.0304107666015625,-0.36645954847335815,-0.00029302940982545205,-0.934303783009354,-56.30819656257403
2026-06-27T14:32:20.775833,1782581398.976383,22.55332374572754,-33.83108139038086,-118.45097351074219,2.687593460083008,-4.031070709228516,-0.3585163950920105,-0.00028475744134729694,-0.9328335846512186,-56.30820329903303
2026-06-27T14:32:20.886138,1782581399.0813851,22.835554122924805,-34.25438690185547,-118.48818969726562,2.6880240440368652,-4.031726360321045,-0.35050052404403687,-0.00028304782093864695,-0.9313614902376867,-56.308314971535054
2026-06-27T14:32:20.995984,1782581399.1803873,23.101686477661133,-34.653568267822266,-118.52252197265625,2.68841552734375,-4.032321453094482,-0.3430585265159607,-0.00026844888551922627,-0.9300096872218694,-56.30833463372716
2026-06-27T14:32:21.102759,1782581399.2853897,23.384002685546875,-35.076995849609375,-118.55814361572266,2.6888153553009033,-4.032930374145508,-0.335332989692688,-0.0002621651278839766,-0.9286157880312036,-56.3083357738233
2026-06-27T14:32:21.211866,1782581399.3903918,23.666357040405273,-35.50050354003906,-118.59295654296875,2.689199447631836,-4.033514976501465,-0.3277551829814911,-0.0002470747499697385,-0.9272623405813457,-56.308419722340766
2026-06-27T14:32:21.320613,1782581399.495394,23.948740005493164,-35.924041748046875,-118.62698364257812,2.6895692348480225,-4.034078121185303,-0.32032254338264465,-0.00024352044547500394,-0.9259490898954132,-56.30843446553337
2026-06-27T14:32:21.430294,1782581399.6003964,24.23118019104004,-36.34768295288086,-118.66024017333984,2.689924955368042,-4.03462028503418,-0.3130352199077606,-0.00023035045775191785,-0.924671844144309,-56.30851279595332
2026-06-27T14:32:21.538487,1782581399.7053986,24.51363182067871,-36.771324157714844,-118.69273376464844,2.6902670860290527,-4.035139560699463,-0.3058907091617584,-0.00022990978267794132,-0.923436601984138,-56.30851065372963
2026-06-27T14:32:21.647240,1782581399.8074007,24.788076400756836,-37.18296813964844,-118.72359466552734,2.6905863285064697,-4.035625457763672,-0.29908856749534607,-0.00022855303536905037,-0.9222782674155405,-56.30852645243404
2026-06-27T14:32:21.756431,1782581399.915403,25.07866859436035,-37.61885070800781,-118.75550079345703,2.6909115314483643,-4.036120891571045,-0.29206332564353943,-0.00021982933545981682,-0.9210792670824447,-56.30860965565097
2026-06-27T14:32:21.865197,1782581400.0204053,25.361251831054688,-38.04264831542969,-118.78581237792969,2.691214084625244,-4.036581516265869,-0.2852970361709595,-0.0002116522909721629,-0.9199671568859195,-56.30862583747539
2026-06-27T14:32:21.973955,1782581400.1254075,25.643835067749023,-38.466556549072266,-118.8154296875,2.691504955291748,-4.03702449798584,-0.2787078320980072,-0.00020964318963382676,-0.9188780956117627,-56.3087340636071
2026-06-27T14:32:22.084330,1782581400.2274096,25.91840362548828,-38.878353118896484,-118.8435287475586,2.691777229309082,-4.037438869476318,-0.27243706583976746,-0.00019754587149538089,-0.9178588900115923,-56.30873428196741
2026-06-27T14:32:22.191544,1782581400.3294117,26.192977905273438,-39.2901725769043,-118.87100982666016,2.6920382976531982,-4.03783655166626,-0.2662915289402008,-0.00020644842798892295,-0.9168695481105809,-56.308733762130714
2026-06-27T14:32:22.300391,1782581400.4344141,26.475662231445312,-39.71421432495117,-118.89864349365234,2.6922965049743652,-4.0382304191589355,-0.26007819175720215,-0.0001976576361076711,-0.9158821161698081,-56.308739543367295
2026-06-27T14:32:22.410065,1782581400.5364163,26.750301361083984,-40.12614059448242,-118.92486572265625,2.692537307739258,-4.03859806060791,-0.25418514013290405,-0.00019039293291241182,-0.9149597713549305,-56.308790823346115
2026-06-27T14:32:22.518260,1782581400.6414185,27.033018112182617,-40.5501823425293,-118.95125579833984,2.692775249481201,-4.038961887359619,-0.24827469885349274,-0.00018479782795991048,-0.9140250722462445,-56.30886967818901
2026-06-27T14:32:22.627464,1782581400.7464206,27.315793991088867,-40.974327087402344,-118.97701263427734,2.6930036544799805,-4.039309978485107,-0.2424159049987793,-0.00018353125547519722,-0.913132942884767,-56.308869911443615
2026-06-27T14:32:22.736173,1782581400.851423,27.59857749938965,-41.398502349853516,-119.00215911865234,2.6932225227355957,-4.03964376449585,-0.23671451210975647,-0.0001754046830613383,-0.9122719688312318,-56.308923410659006
2026-06-27T14:32:22.845890,1782581400.9504251,27.865201950073242,-41.798439025878906,-119.02532958984375,2.693420886993408,-4.039945125579834,-0.231444850564003,-0.00017513069973700219,-0.9114859315027701,-56.30891820951307
2026-06-27T14:32:22.954980,1782581401.0584273,28.1561279296875,-42.23473358154297,-119.05001831054688,2.6936280727386475,-4.040262222290039,-0.22582706809043884,-0.00016537527265709313,-0.9106536606021184,-56.30891892226033
2026-06-27T14:32:23.062707,1782581401.1664298,28.447059631347656,-42.671142578125,-119.0741195678711,2.6938259601593018,-4.040565490722656,-0.22032059729099274,-0.00017939739333763252,-0.9098546817632363,-56.30898906646783
2026-06-27T14:32:23.171411,1782581401.271432,28.729909896850586,-43.09545135498047,-119.09697723388672,2.6940104961395264,-4.040848731994629,-0.21511560678482056,-0.0001656341154139604,-0.9091060463555714,-56.30907616434377
2026-06-27T14:32:23.281135,1782581401.373434,29.00472068786621,-43.50763702392578,-119.11865997314453,2.6941821575164795,-4.041109561920166,-0.21011757850646973,-0.0001394066359449888,-0.9084046565376508,-56.30908402452989
2026-06-27T14:32:23.389818,1782581401.4784365,29.27955436706543,-43.919822692871094,-119.13983917236328,2.694347858428955,-4.041362285614014,-0.20525778830051422,-0.00013651583042492832,-0.9077215684206064,-56.309079544297745
2026-06-27T14:32:23.498315,1782581401.5834386,29.570554733276367,-44.35627365112305,-119.16173553466797,2.6945149898529053,-4.041619300842285,-0.20020271837711334,-0.00015891368507655161,-0.9070324023232001,-56.30908096697074
